# 
# Header Description:
# 
# Version: v3.0.6.4 Platform: 14 Manufacturer: samsung Model: SM-S906E
# 
# Raw,utcTimeMillis,TimeNanos,LeapSecond,TimeUncertaintyNanos,FullBiasNanos,BiasNanos,BiasUncertaintyNanos,DriftNanosPerSecond,DriftUncertaintyNanosPerSecond,HardwareClockDiscontinuityCount,Svid,TimeOffsetNanos,State,ReceivedSvTimeNanos,ReceivedSvTimeUncertaintyNanos,Cn0DbHz,PseudorangeRateMetersPerSecond,PseudorangeRateUncertaintyMetersPerSecond,AccumulatedDeltaRangeState,AccumulatedDeltaRangeMeters,AccumulatedDeltaRangeUncertaintyMeters,CarrierFrequencyHz,CarrierCycles,CarrierPhase,CarrierPhaseUncertainty,MultipathIndicator,SnrInDb,ConstellationType,AgcDb,BasebandCn0DbHz,FullInterSignalBiasNanos,FullInterSignalBiasUncertaintyNanos,SatelliteInterSignalBiasNanos,SatelliteInterSignalBiasUncertaintyNanos,CodeType,ChipsetElapsedRealtimeNanos
# 
# UncalAccel,utcTimeMillis,elapsedRealtimeNanos,UncalAccelXMps2,UncalAccelYMps2,UncalAccelZMps2,BiasXMps2,BiasYMps2,BiasZMps2
# 
# Accel,utcTimeMillis,elapsedRealtimeNanos,AccelXMps2,AccelYMps2,AccelZMps2
# 
# UncalGyro,utcTimeMillis,elapsedRealtimeNanos,UncalGyroXRadPerSec,UncalGyroYRadPerSec,UncalGyroZRadPerSec,DriftXRadPerSec,DriftYRadPerSec,DriftZRadPerSec
# 
# Gyro,utcTimeMillis,elapsedRealtimeNanos,GyroXRadPerSec,GyroYRadPerSec,GyroZRadPerSec
# 
# UncalMag,utcTimeMillis,elapsedRealtimeNanos,UncalMagXMicroT,UncalMagYMicroT,UncalMagZMicroT,BiasXMicroT,BiasYMicroT,BiasZMicroT
# 
# Mag,utcTimeMillis,elapsedRealtimeNanos,MagXMicroT,MagYMicroT,MagZMicroT
# 
# OrientationDeg,utcTimeMillis,elapsedRealtimeNanos,yawDeg,rollDeg,pitchDeg
# 
# Fix,Provider,LatitudeDegrees,LongitudeDegrees,AltitudeMeters,SpeedMps,AccuracyMeters,BearingDegrees,UnixTimeMillis,SpeedAccuracyMps,BearingAccuracyDegrees,elapsedRealtimeNanos,VerticalAccuracyMeters,MockLocation,NumberOfUsedSignals,VerticalSpeedAccuracyMps,SolutionType
# 
# Nav,Svid,Type,Status,MessageId,Sub-messageId,Data(Bytes)
# 
# Status,UnixTimeMillis,SignalCount,SignalIndex,ConstellationType,Svid,CarrierFrequencyHz,Cn0DbHz,AzimuthDegrees,ElevationDegrees,UsedInFix,HasAlmanacData,HasEphemerisData,BasebandCn0DbHz
# 
# Agc,utcTimeMillis,TimeNanos,LeapSecond,TimeUncertaintyNanos,FullBiasNanos,BiasNanos,BiasUncertaintyNanos,DriftNanosPerSecond,DriftUncertaintyNanosPerSecond,HardwareClockDiscontinuityCount,AgcDb,CarrierFrequencyHz,ConstellationType
# 
Fix,FLP,32.1687672000,34.8133642000,45.30973453283714,0.057500154,4.165,,1713027212562,0.087423444,,338426702528802,2.0720508,0,,,
Status,,62,0,1,3,1575420030,22.90,263.0,14.0,0,1,1,17.9
Status,,62,1,1,8,1575420030,21.30,242.0,56.0,0,1,1,16.3
Status,,62,2,1,10,1575420030,43.30,50.0,30.0,1,1,1,38.3
Status,,62,3,1,21,1575420030,40.70,325.0,51.0,1,1,1,35.7
Status,,62,4,1,27,1575420030,32.90,187.0,40.0,1,1,1,27.9
Status,,62,5,1,32,1575420030,43.50,56.0,55.0,1,1,1,38.5
Status,,62,6,2,123,1575420030,38.30,0.0,0.0,0,0,0,33.3
Status,,62,7,2,127,1575420030,33.10,0.0,0.0,0,0,0,28.1
Status,,62,8,3,95,1599187460,37.70,0.0,0.0,0,0,0,32.7
Status,,62,9,3,6,1599750020,17.00,232.0,40.0,0,1,0,12.0
Status,,62,10,3,5,1602562560,40.10,9.0,64.0,1,1,1,35.1
Status,,62,11,3,20,1603124990,27.30,29.0,73.0,1,1,0,22.3
Status,,62,12,3,21,1604249980,40.00,330.0,23.0,1,1,1,35.0
Status,,62,13,3,4,1605374980,16.90,31.0,15.0,0,1,0,11.9
Status,,62,14,5,60,1561097980,34.50,116.0,29.0,1,1,0,29.5
Status,,62,15,5,43,1561097980,22.50,308.0,57.0,1,1,0,17.5
Status,,62,16,5,42,1561097980,36.60,282.0,74.0,1,1,0,31.6
Status,,62,17,5,39,1561097980,37.90,63.0,27.0,1,1,0,32.9
Status,,62,18,5,34,1561097980,43.40,161.0,68.0,1,1,0,38.4
Status,,62,19,5,33,1561097980,21.60,237.0,23.0,0,1,0,16.6
Status,,62,20,5,21,1561097980,34.00,38.0,43.0,1,1,0,29.0
Status,,62,21,5,16,1561097980,37.80,72.0,28.0,1,1,0,32.8
Status,,62,22,5,14,1561097980,27.10,246.0,49.0,1,1,0,22.1
Status,,62,23,5,13,1561097980,37.90,70.0,18.0,1,1,0,32.9
Status,,62,24,5,12,1561097980,35.30,144.0,38.0,1,1,0,30.3
Status,,62,25,5,11,1561097980,37.80,295.0,82.0,1,1,0,32.8
Status,,62,26,5,9,1561097980,36.30,94.0,31.0,1,1,0,31.3
Status,,62,27,5,6,1561097980,33.00,84.0,31.0,1,1,0,28.0
Status,,62,28,5,5,1561097980,29.00,138.0,46.0,1,1,0,24.0
Status,,62,29,5,2,1561097980,32.10,112.0,27.0,0,1,0,27.1
Status,,62,30,6,4,1575420030,23.00,203.0,28.0,1,1,0,18.0
Status,,62,31,6,10,1575420030,22.80,319.0,35.0,0,1,0,17.8
Status,,62,32,6,11,1575420030,16.60,308.0,10.0,0,1,0,11.6
Status,,62,33,6,12,1575420030,26.60,338.0,57.0,1,1,0,21.6
Status,,62,34,6,19,1575420030,27.20,117.0,74.0,1,1,0,22.2
Status,,62,35,6,24,1575420030,19.80,259.0,6.0,0,1,0,14.8
Status,,62,36,6,33,1575420030,31.40,93.0,51.0,1,1,1,26.4
Status,,62,37,1,3,1176450050,16.40,263.0,14.0,0,1,1,11.4
Status,,62,38,1,8,1176450050,22.70,242.0,56.0,1,1,1,17.7
Status,,62,39,1,10,1176450050,30.50,50.0,30.0,1,1,1,25.5
Status,,62,40,1,27,1176450050,22.90,187.0,40.0,1,1,1,17.9
Status,,62,41,1,28,1176450050,18.70,125.0,19.0,1,1,1,13.7
Status,,62,42,1,32,1176450050,19.60,56.0,55.0,1,1,1,14.6
Status,,62,43,6,4,1176450050,22.50,203.0,28.0,1,1,0,17.5
Status,,62,44,6,10,1176450050,22.30,319.0,35.0,1,1,0,17.3
Status,,62,45,6,12,1176450050,27.30,338.0,57.0,1,1,0,22.3
Status,,62,46,6,19,1176450050,21.40,117.0,74.0,1,1,0,16.4
Status,,62,47,6,24,1176450050,11.20,259.0,6.0,0,1,0,6.2
Status,,62,48,6,33,1176450050,23.60,93.0,51.0,1,1,1,18.6
Status,,62,49,5,21,1176450050,33.00,38.0,43.0,1,1,0,28.0
Status,,62,50,5,33,1176450050,19.70,237.0,23.0,1,1,0,14.7
Status,,62,51,5,34,1176450050,29.70,161.0,68.0,1,1,0,24.7
Status,,62,52,5,39,1176450050,28.80,63.0,27.0,1,1,0,23.8
Status,,62,53,5,42,1176450050,25.80,282.0,74.0,1,1,0,20.8
Status,,62,54,5,43,1176450050,26.90,308.0,57.0,1,1,0,21.9
Status,,62,55,5,21,1575420030,29.50,38.0,43.0,0,1,0,24.5
Status,,62,56,5,33,1575420030,21.60,237.0,23.0,1,1,0,16.6
Status,,62,57,5,34,1575420030,35.90,161.0,68.0,1,1,0,30.9
Status,,62,58,5,39,1575420030,34.40,63.0,27.0,1,1,0,29.4
Status,,62,59,5,42,1575420030,35.10,282.0,74.0,1,1,0,30.1
Status,,62,60,5,43,1575420030,27.10,308.0,57.0,1,1,0,22.1
Status,,62,61,5,44,1575420030,18.30,144.0,15.0,0,1,0,13.3
Fix,GPS,32.1687625300,34.8133654300,46.262451171875,0.0,3.7900925,,1713027214000,1.194647,,338427699413646,2.5,0,,,
Raw,1713027213426,332431420000000,18,0.0,-1396730000006041643,-0.13524961471557617,15.701487427577376,-34.49754549238822,10.698025679382875,8,10,0.0,16399,579231349848652,6,48.3,385.8303527832031,0.6046868562698364,16,0.0,0.0,1575420030,,,,0,0.0,1,-57.76,43.3,0.0,0.0,,,C,338427125412553
Raw,1713027213426,332431420000000,18,0.0,-1396730000006041643,-0.13524961471557617,15.701487427577376,-34.49754549238822,10.698025679382875,8,21,0.0,16399,579231353769847,9,45.7,-314.40350341796875,1.1710712909698486,16,0.0,0.0,1575420030,,,,0,0.0,1,-57.76,40.7,0.0,0.0,,,C,338427125412553
Raw,1713027213426,332431420000000,18,0.0,-1396730000006041643,-0.13524961471557617,15.701487427577376,-34.49754549238822,10.698025679382875,8,27,0.0,16399,579231351921542,19,37.9,570.804931640625,0.46700000762939453,16,0.0,0.0,1575420030,,,,0,0.0,1,-57.76,32.9,0.0,0.0,,,C,338427125412553
Raw,1713027213426,332431420000000,18,0.0,-1396730000006041643,-0.13524961471557617,15.701487427577376,-34.49754549238822,10.698025679382875,8,32,0.0,16399,579231354380770,6,48.5,279.26556396484375,0.5971868634223938,16,0.0,0.0,1575420030,,,,0,0.0,1,-57.76,43.5,0.0,0.0,,,C,338427125412553
Raw,1713027213426,332431420000000,18,0.0,-1396730000006041643,-0.13524961471557617,15.701487427577376,-34.49754549238822,10.698025679382875,8,5,0.0,49359,71613360640765,9,44.1,336.4900817871094,0.6099313497543335,16,0.0,0.0,1602562560,,,,0,0.0,3,-58.91,40.1,3804.6240234375,6.629026412963867,,,C,338427125412553
Raw,1713027213426,332431420000000,18,0.0,-1396730000006041643,-0.13524961471557617,15.701487427577376,-34.49754549238822,10.698025679382875,8,20,0.0,49359,71613361401055,35,31.3,-164.30264282226562,0.7519999742507935,16,0.0,0.0,1603124990,,,,0,0.0,3,-58.91,27.3,3804.6240234375,6.629026412963867,,,C,338427125412553
Raw,1713027213426,332431420000000,18,0.0,-1396730000006041643,-0.13524961471557617,15.701487427577376,-34.49754549238822,10.698025679382875,8,21,0.0,49359,71613351626387,9,44.0,-720.4396362304688,1.1534570455551147,16,0.0,0.0,1604249980,,,,0,0.0,3,-58.91,40.0,3804.6240234375,6.629026412963867,,,C,338427125412553
Raw,1713027213426,332431420000000,18,0.0,-1396730000006041643,-0.13524961471557617,15.701487427577376,-34.49754549238822,10.698025679382875,8,60,0.0,16399,579217297180530,16,38.8,-2.2468619346618652,1.6574000120162964,16,0.0,0.0,1561097980,,,,0,0.0,5,-65.62,34.5,-1535.6556396484375,6.244262218475342,,,I,338427125412553
Raw,1713027213426,332431420000000,18,0.0,-1396730000006041643,-0.13524961471557617,15.701487427577376,-34.49754549238822,10.698025679382875,8,43,0.0,16399,579217351608952,70,26.8,-295.904052734375,1.7829999923706055,16,0.0,0.0,1561097980,,,,0,0.0,5,-65.62,22.5,-1535.6556396484375,6.244262218475342,,,I,338427125412553
Raw,1713027213426,332431420000000,18,0.0,-1396730000006041643,-0.13524961471557617,15.701487427577376,-34.49754549238822,10.698025679382875,8,42,0.0,16399,579217353135508,13,40.9,-41.52092742919922,0.608587384223938,16,0.0,0.0,1561097980,,,,0,0.0,5,-65.62,36.6,-1535.6556396484375,6.244262218475342,,,I,338427125412553
Raw,1713027213426,332431420000000,18,0.0,-1396730000006041643,-0.13524961471557617,15.701487427577376,-34.49754549238822,10.698025679382875,8,39,0.0,16399,579217296007583,12,42.2,-119.78030395507812,2.33154034614563,16,0.0,0.0,1561097980,,,,0,0.0,5,-65.62,37.900000000000006,-1535.6556396484375,6.244262218475342,,,I,338427125412553
Raw,1713027213426,332431420000000,18,0.0,-1396730000006041643,-0.13524961471557617,15.701487427577376,-34.49754549238822,10.698025679382875,8,34,0.0,16399,579217353418652,6,47.7,243.50140380859375,1.1800777912139893,16,0.0,0.0,1561097980,,,,0,0.0,5,-65.62,43.400000000000006,-1535.6556396484375,6.244262218475342,,,I,338427125412553
Raw,1713027213426,332431420000000,18,0.0,-1396730000006041643,-0.13524961471557617,15.701487427577376,-34.49754549238822,10.698025679382875,8,33,0.0,16399,579217342636928,80,25.9,-476.9012756347656,1.8445000648498535,16,0.0,0.0,1561097980,,,,0,0.0,5,-65.62,21.599999999999998,-1535.6556396484375,6.244262218475342,,,I,338427125412553
Raw,1713027213426,332431420000000,18,0.0,-1396730000006041643,-0.13524961471557617,15.701487427577376,-34.49754549238822,10.698025679382875,8,21,0.0,16399,579217347759600,16,38.3,419.27020263671875,0.43299999833106995,16,0.0,0.0,1561097980,,,,0,0.0,5,-65.62,34.0,-1535.6556396484375,6.244262218475342,,,I,338427125412553
Raw,1713027213426,332431420000000,18,0.0,-1396730000006041643,-0.13524961471557617,15.701487427577376,-34.49754549238822,10.698025679382875,8,16,0.0,16399,579217295335446,12,42.1,-180.53416442871094,0.6046848297119141,16,0.0,0.0,1561097980,,,,0,0.0,5,-65.62,37.800000000000004,-1535.6556396484375,6.244262218475342,,,I,338427125412553
Raw,1713027213426,332431420000000,18,0.0,-1396730000006041643,-0.13524961471557617,15.701487427577376,-34.49754549238822,10.698025679382875,8,14,0.0,16399,579217350953484,35,31.4,-304.872314453125,0.7384999990463257,16,0.0,0.0,1561097980,,,,0,0.0,5,-65.62,27.099999999999998,-1535.6556396484375,6.244262218475342,,,I,338427125412553
Raw,1713027213426,332431420000000,18,0.0,-1396730000006041643,-0.13524961471557617,15.701487427577376,-34.49754549238822,10.698025679382875,8,13,0.0,16399,579217294052107,12,42.2,3.4304022789001465,0.6061847805976868,16,0.0,0.0,1561097980,,,,0,0.0,5,-65.62,37.900000000000006,-1535.6556396484375,6.244262218475342,,,I,338427125412553
Raw,1713027213426,332431420000000,18,0.0,-1396730000006041643,-0.13524961471557617,15.701487427577376,-34.49754549238822,10.698025679382875,8,12,0.0,16399,579217347362718,14,39.6,482.36785888671875,1.194819688796997,16,0.0,0.0,1561097980,,,,0,0.0,5,-65.62,35.300000000000004,-1535.6556396484375,6.244262218475342,,,I,338427125412553
Raw,1713027213426,332431420000000,18,0.0,-1396730000006041643,-0.13524961471557617,15.701487427577376,-34.49754549238822,10.698025679382875,8,11,0.0,16399,579217354487643,12,42.1,-69.03488159179688,0.6061847805976868,16,0.0,0.0,1561097980,,,,0,0.0,5,-65.62,37.800000000000004,-1535.6556396484375,6.244262218475342,,,I,338427125412553
Raw,1713027213426,332431420000000,18,0.0,-1396730000006041643,-0.13524961471557617,15.701487427577376,-34.49754549238822,10.698025679382875,8,9,0.0,16399,579217295359401,13,40.6,-270.78680419921875,2.3339426517486572,16,0.0,0.0,1561097980,,,,0,0.0,5,-65.62,36.300000000000004,-1535.6556396484375,6.244262218475342,,,I,338427125412553
Raw,1713027213426,332431420000000,18,0.0,-1396730000006041643,-0.13524961471557617,15.701487427577376,-34.49754549238822,10.698025679382875,8,6,0.0,16399,579217297413261,17,37.3,-238.66668701171875,0.4580000042915344,16,0.0,0.0,1561097980,,,,0,0.0,5,-65.62,33.0,-1535.6556396484375,6.244262218475342,,,I,338427125412553
Raw,1713027213426,332431420000000,18,0.0,-1396730000006041643,-0.13524961471557617,15.701487427577376,-34.49754549238822,10.698025679382875,8,2,0.0,16399,579217296916847,19,36.4,-10.552570343017578,2.7462000846862793,16,0.0,0.0,1561097980,,,,0,0.0,5,-65.62,32.1,-1535.6556396484375,6.244262218475342,,,I,338427125412553
Raw,1713027213426,332431420000000,18,0.0,-1396730000006041643,-0.13524961471557617,15.701487427577376,-34.49754549238822,10.698025679382875,8,12,0.0,23567,579231344926790,40,30.9,-258.173095703125,4.633964538574219,16,0.0,0.0,1575420030,,,,0,0.0,6,-61.45,26.599999999999998,-1460.094482421875,6.547732830047607,,,C,338427125412553
Raw,1713027213426,332431420000000,18,0.0,-1396730000006041643,-0.13524961471557617,15.701487427577376,-34.49754549238822,10.698025679382875,8,19,0.0,23567,579231347662735,35,31.5,-82.58745574951172,0.7339999675750732,16,0.0,0.0,1575420030,,,,0,0.0,6,-61.45,27.2,-1460.094482421875,6.547732830047607,,,C,338427125412553
Raw,1713027213426,332431420000000,18,0.0,-1396730000006041643,-0.13524961471557617,15.701487427577376,-34.49754549238822,10.698025679382875,8,33,0.0,23567,579231344770882,21,35.7,157.99131774902344,0.5354999899864197,16,0.0,0.0,1575420030,,,,0,0.0,6,-61.45,31.400000000000002,-1460.094482421875,6.547732830047607,,,C,338427125412553
Raw,1713027213426,332431420000000,18,0.0,-1396730000006041643,-0.13524961471557617,15.701487427577376,-34.49754549238822,10.698025679382875,8,8,0.0,81935,579231355458996,14,27.7,207.6083984375,1.034000039100647,16,0.0,0.0,1176450050,,,,0,0.0,1,-38.6,22.7,-7861.56591796875,6.028573513031006,,,Q,338427125412553
Raw,1713027213426,332431420000000,18,0.0,-1396730000006041643,-0.13524961471557617,15.701487427577376,-34.49754549238822,10.698025679382875,8,10,0.0,81935,579231349856511,6,35.5,386.85443115234375,0.5550000071525574,16,0.0,0.0,1176450050,,,,0,0.0,1,-38.6,30.5,-7861.56591796875,6.028573513031006,,,Q,338427125412553
Raw,1713027213426,332431420000000,18,0.0,-1396730000006041643,-0.13524961471557617,15.701487427577376,-34.49754549238822,10.698025679382875,8,27,0.0,81935,579231351929370,14,27.9,569.6426391601562,1.027999997138977,16,0.0,0.0,1176450050,,,,0,0.0,1,-38.6,22.9,-7861.56591796875,6.028573513031006,,,Q,338427125412553
Raw,1713027213426,332431420000000,18,0.0,-1396730000006041643,-0.13524961471557617,15.701487427577376,-34.49754549238822,10.698025679382875,8,32,0.0,81935,579231354388645,20,24.6,280.09423828125,2.072499990463257,16,0.0,0.0,1176450050,,,,0,0.0,1,-38.6,19.6,-7861.56591796875,6.028573513031006,,,Q,338427125412553
Raw,1713027213426,332431420000000,18,0.0,-1396730000006041643,-0.13524961471557617,15.701487427577376,-34.49754549238822,10.698025679382875,8,4,0.0,81935,579231339000878,14,27.8,-539.6492919921875,1.0399999618530273,16,0.0,0.0,1176450050,,,,0,0.0,6,-38.6,22.5,-7848.95068359375,41.529273986816406,,,Q,338427125412553
Raw,1713027213426,332431420000000,18,0.0,-1396730000006041643,-0.13524961471557617,15.701487427577376,-34.49754549238822,10.698025679382875,8,10,0.0,81935,579231340571910,14,27.6,-393.3398132324219,0.9815000295639038,16,0.0,0.0,1176450050,,,,0,0.0,6,-38.6,22.3,-7848.95068359375,41.529273986816406,,,Q,338427125412553
Raw,1713027213426,332431420000000,18,0.0,-1396730000006041643,-0.13524961471557617,15.701487427577376,-34.49754549238822,10.698025679382875,8,12,0.0,81935,579231344933160,8,32.6,-259.2705993652344,5.3790459632873535,16,0.0,0.0,1176450050,,,,0,0.0,6,-38.6,27.3,-7848.95068359375,41.529273986816406,,,Q,338427125412553
Raw,1713027213426,332431420000000,18,0.0,-1396730000006041643,-0.13524961471557617,15.701487427577376,-34.49754549238822,10.698025679382875,8,19,0.0,81935,579231347669131,16,26.7,-79.11136627197266,1.0719999074935913,16,0.0,0.0,1176450050,,,,0,0.0,6,-38.6,21.4,-7848.95068359375,41.529273986816406,,,Q,338427125412553
Raw,1713027213426,332431420000000,18,0.0,-1396730000006041643,-0.13524961471557617,15.701487427577376,-34.49754549238822,10.698025679382875,8,33,0.0,81935,579231344777302,12,28.9,155.164794921875,0.9074999690055847,16,0.0,0.0,1176450050,,,,0,0.0,6,-38.6,23.599999999999998,-7848.95068359375,41.529273986816406,,,Q,338427125412553
Raw,1713027213426,332431420000000,18,0.0,-1396730000006041643,-0.13524961471557617,15.701487427577376,-34.49754549238822,10.698025679382875,8,21,0.0,16399,579217347765884,5,37.5,419.36944580078125,0.08861479163169861,16,0.0,0.0,1176450050,,,,0,0.0,5,-38.6,33.0,-7832.9482421875,37.07312774658203,,,Q,338427125412553
Raw,1713027213426,332431420000000,18,0.0,-1396730000006041643,-0.13524961471557617,15.701487427577376,-34.49754549238822,10.698025679382875,8,34,0.0,16399,579217353424946,7,34.2,243.00877380371094,1.6684767007827759,16,0.0,0.0,1176450050,,,,0,0.0,5,-38.6,29.700000000000003,-7832.9482421875,37.07312774658203,,,Q,338427125412553
Raw,1713027213426,332431420000000,18,0.0,-1396730000006041643,-0.13524961471557617,15.701487427577376,-34.49754549238822,10.698025679382875,8,39,0.0,16399,579217296013882,8,33.3,-119.46338653564453,0.6855000257492065,16,0.0,0.0,1176450050,,,,0,0.0,5,-38.6,28.799999999999997,-7832.9482421875,37.07312774658203,,,Q,338427125412553
Raw,1713027213426,332431420000000,18,0.0,-1396730000006041643,-0.13524961471557617,15.701487427577376,-34.49754549238822,10.698025679382875,8,42,0.0,16399,579217353141761,10,30.3,-44.26450729370117,7.020604133605957,16,0.0,0.0,1176450050,,,,0,0.0,5,-38.6,25.8,-7832.9482421875,37.07312774658203,,,Q,338427125412553
Raw,1713027213426,332431420000000,18,0.0,-1396730000006041643,-0.13524961471557617,15.701487427577376,-34.49754549238822,10.698025679382875,8,43,0.0,16399,579217351615162,9,31.4,-297.3172302246094,5.458261013031006,16,0.0,0.0,1176450050,,,,0,0.0,5,-38.6,26.9,-7832.9482421875,37.07312774658203,,,Q,338427125412553
Raw,1713027213426,332431420000000,18,0.0,-1396730000006041643,-0.13524961471557617,15.701487427577376,-34.49754549238822,10.698025679382875,8,21,0.0,16399,579217347759462,7,36.5,419.3487243652344,5.83950138092041,16,0.0,0.0,1575420030,,,,0,0.0,5,-61.45,29.5,-1453.19580078125,35.11741256713867,,,P,338427125412553
Raw,1713027213426,332431420000000,18,0.0,-1396730000006041643,-0.13524961471557617,15.701487427577376,-34.49754549238822,10.698025679382875,8,33,0.0,16399,579217342636804,16,28.6,-479.95867919921875,1.2294999361038208,16,0.0,0.0,1575420030,,,,0,0.0,5,-61.45,21.6,-1453.19580078125,35.11741256713867,,,P,338427125412553
Raw,1713027213426,332431420000000,18,0.0,-1396730000006041643,-0.13524961471557617,15.701487427577376,-34.49754549238822,10.698025679382875,8,34,0.0,16399,579217353418573,4,42.9,243.04490661621094,0.09051468223333359,16,0.0,0.0,1575420030,,,,0,0.0,5,-61.45,35.9,-1453.19580078125,35.11741256713867,,,P,338427125412553
Raw,1713027213426,332431420000000,18,0.0,-1396730000006041643,-0.13524961471557617,15.701487427577376,-34.49754549238822,10.698025679382875,8,39,0.0,16399,579217296007501,4,41.4,-120.25277709960938,0.09630867838859558,16,0.0,0.0,1575420030,,,,0,0.0,5,-61.45,34.4,-1453.19580078125,35.11741256713867,,,P,338427125412553
Raw,1713027213426,332431420000000,18,0.0,-1396730000006041643,-0.13524961471557617,15.701487427577376,-34.49754549238822,10.698025679382875,8,42,0.0,16399,579217353135429,4,42.1,-41.951995849609375,0.06051468849182129,16,0.0,0.0,1575420030,,,,0,0.0,5,-61.45,35.1,-1453.19580078125,35.11741256713867,,,P,338427125412553
Raw,1713027213426,332431420000000,18,0.0,-1396730000006041643,-0.13524961471557617,15.701487427577376,-34.49754549238822,10.698025679382875,8,43,0.0,16399,579217351608785,8,34.1,-297.27679443359375,0.7579999566078186,16,0.0,0.0,1575420030,,,,0,0.0,5,-61.45,27.1,-1453.19580078125,35.11741256713867,,,P,338427125412553
Fix,FLP,32.1687686000,34.8133641000,45.38442414516535,0.06497167,4.142,,1713027213562,0.0925739,,338427703638034,2.0712461,0,,,
Status,1713027214000,61,0,1,8,1575420030,19.40,242.0,56.0,0,1,1,14.4
Status,1713027214000,61,1,1,10,1575420030,45.60,50.0,30.0,1,1,1,40.6
Status,1713027214000,61,2,1,21,1575420030,37.10,325.0,51.0,1,1,1,32.1
Status,1713027214000,61,3,1,27,1575420030,33.40,187.0,40.0,1,1,1,28.4
Status,1713027214000,61,4,1,32,1575420030,44.70,56.0,55.0,1,1,1,39.7
Status,1713027214000,61,5,2,123,1575420030,39.80,0.0,0.0,0,0,0,34.8
Status,1713027214000,61,6,2,127,1575420030,34.30,0.0,0.0,0,0,0,29.3
Status,1713027214000,61,7,3,95,1599187460,37.80,0.0,0.0,0,0,0,32.8
Status,1713027214000,61,8,3,6,1599750020,17.00,232.0,40.0,0,1,0,12.0
Status,1713027214000,61,9,3,5,1602562560,41.00,9.0,64.0,1,1,1,36.0
Status,1713027214000,61,10,3,20,1603124990,25.70,29.0,73.0,1,1,0,20.7
Status,1713027214000,61,11,3,21,1604249980,38.90,330.0,23.0,1,1,1,33.9
Status,1713027214000,61,12,3,4,1605374980,16.90,31.0,15.0,0,1,0,11.9
Status,1713027214000,61,13,5,60,1561097980,37.10,116.0,29.0,1,1,0,32.1
Status,1713027214000,61,14,5,43,1561097980,32.00,308.0,57.0,1,1,0,27.0
Status,1713027214000,61,15,5,42,1561097980,35.00,282.0,74.0,1,1,0,30.0
Status,1713027214000,61,16,5,39,1561097980,36.90,63.0,27.0,1,1,0,31.9
Status,1713027214000,61,17,5,34,1561097980,45.50,161.0,68.0,1,1,0,40.5
Status,1713027214000,61,18,5,33,1561097980,25.10,237.0,23.0,0,1,0,20.1
Status,1713027214000,61,19,5,21,1561097980,34.80,38.0,43.0,1,1,0,29.8
Status,1713027214000,61,20,5,16,1561097980,35.50,72.0,28.0,1,1,0,30.5
Status,1713027214000,61,21,5,14,1561097980,28.60,246.0,49.0,1,1,0,23.6
Status,1713027214000,61,22,5,13,1561097980,37.50,70.0,18.0,1,1,0,32.5
Status,1713027214000,61,23,5,12,1561097980,35.90,144.0,38.0,1,1,0,30.9
Status,1713027214000,61,24,5,11,1561097980,37.50,295.0,82.0,1,1,0,32.5
Status,1713027214000,61,25,5,9,1561097980,40.80,94.0,31.0,1,1,0,35.8
Status,1713027214000,61,26,5,6,1561097980,34.20,84.0,31.0,1,1,0,29.2
Status,1713027214000,61,27,5,5,1561097980,29.00,138.0,46.0,1,1,0,24.0
Status,1713027214000,61,28,5,2,1561097980,34.60,112.0,27.0,0,1,0,29.6
Status,1713027214000,61,29,6,4,1575420030,20.80,203.0,28.0,1,1,0,15.8
Status,1713027214000,61,30,6,10,1575420030,22.80,319.0,35.0,0,1,0,17.8
Status,1713027214000,61,31,6,11,1575420030,16.60,308.0,10.0,0,1,0,11.6
Status,1713027214000,61,32,6,12,1575420030,30.10,338.0,57.0,1,1,0,25.1
Status,1713027214000,61,33,6,19,1575420030,32.00,117.0,74.0,1,1,0,27.0
Status,1713027214000,61,34,6,24,1575420030,19.80,259.0,6.0,0,1,0,14.8
Status,1713027214000,61,35,6,33,1575420030,38.00,93.0,51.0,1,1,1,33.0
Status,1713027214000,61,36,1,3,1176450050,16.40,263.0,14.0,0,1,1,11.4
Status,1713027214000,61,37,1,8,1176450050,25.90,242.0,56.0,1,1,1,20.9
Status,1713027214000,61,38,1,10,1176450050,35.00,50.0,30.0,1,1,1,30.0
Status,1713027214000,61,39,1,27,1176450050,24.50,187.0,40.0,1,1,1,19.5
Status,1713027214000,61,40,1,28,1176450050,17.60,125.0,19.0,1,1,1,12.6
Status,1713027214000,61,41,1,32,1176450050,19.60,56.0,55.0,1,1,1,14.6
Status,1713027214000,61,42,6,4,1176450050,23.90,203.0,28.0,1,1,0,18.9
Status,1713027214000,61,43,6,10,1176450050,24.90,319.0,35.0,1,1,0,19.9
Status,1713027214000,61,44,6,12,1176450050,28.20,338.0,57.0,1,1,0,23.2
Status,1713027214000,61,45,6,19,1176450050,23.60,117.0,74.0,1,1,0,18.6
Status,1713027214000,61,46,6,24,1176450050,11.20,259.0,6.0,0,1,0,6.2
Status,1713027214000,61,47,6,33,1176450050,26.30,93.0,51.0,1,1,1,21.3
Status,1713027214000,61,48,5,21,1176450050,33.00,38.0,43.0,1,1,0,28.0
Status,1713027214000,61,49,5,33,1176450050,17.90,237.0,23.0,1,1,0,12.9
Status,1713027214000,61,50,5,34,1176450050,33.60,161.0,68.0,1,1,0,28.6
Status,1713027214000,61,51,5,39,1176450050,32.40,63.0,27.0,1,1,0,27.4
Status,1713027214000,61,52,5,42,1176450050,29.70,282.0,74.0,1,1,0,24.7
Status,1713027214000,61,53,5,43,1176450050,29.30,308.0,57.0,1,1,0,24.3
Status,1713027214000,61,54,5,21,1575420030,32.90,38.0,43.0,0,1,0,27.9
Status,1713027214000,61,55,5,33,1575420030,24.50,237.0,23.0,1,1,0,19.5
Status,1713027214000,61,56,5,34,1575420030,41.50,161.0,68.0,1,1,0,36.5
Status,1713027214000,61,57,5,39,1575420030,36.90,63.0,27.0,1,1,0,31.9
Status,1713027214000,61,58,5,42,1575420030,35.20,282.0,74.0,1,1,0,30.2
Status,1713027214000,61,59,5,43,1575420030,27.30,308.0,57.0,1,1,0,22.3
Status,1713027214000,61,60,5,44,1575420030,18.30,144.0,15.0,0,1,0,13.3
Raw,1713027214426,332432420000000,18,0.0,-1396730000006041684,-0.9590837955474854,20.209761714795604,-39.54286403290759,14.77495631725134,8,8,0.0,16399,579232355450479,106,24.4,211.72073364257812,4.218999862670898,16,0.0,0.0,1575420030,,,,0,0.0,1,-57.25,19.4,0.0,0.0,,,C,338428126732344
Raw,1713027214426,332432420000000,18,0.0,-1396730000006041684,-0.9590837955474854,20.209761714795604,-39.54286403290759,14.77495631725134,8,10,0.0,16399,579232349847362,5,50.6,389.1298522949219,0.03300664201378822,16,0.0,0.0,1575420030,,,,0,0.0,1,-57.25,45.6,0.0,0.0,,,C,338428126732344
Raw,1713027214426,332432420000000,18,0.0,-1396730000006041684,-0.9590837955474854,20.209761714795604,-39.54286403290759,14.77495631725134,8,21,0.0,16399,579232353770873,12,42.1,-311.0836181640625,0.03149757161736488,16,0.0,0.0,1575420030,,,,0,0.0,1,-57.25,37.1,0.0,0.0,,,C,338428126732344
Raw,1713027214426,332432420000000,18,0.0,-1396730000006041684,-0.9590837955474854,20.209761714795604,-39.54286403290759,14.77495631725134,8,27,0.0,16399,579232351919628,17,38.4,574.4353637695312,0.6136754155158997,16,0.0,0.0,1575420030,,,,0,0.0,1,-57.25,33.4,0.0,0.0,,,C,338428126732344
Raw,1713027214426,332432420000000,18,0.0,-1396730000006041684,-0.9590837955474854,20.209761714795604,-39.54286403290759,14.77495631725134,8,32,0.0,16399,579232354379846,6,49.7,282.67205810546875,0.025792080909013748,16,0.0,0.0,1575420030,,,,0,0.0,1,-57.25,44.7,0.0,0.0,,,C,338428126732344
Raw,1713027214426,332432420000000,18,0.0,-1396730000006041684,-0.9590837955474854,20.209761714795604,-39.54286403290759,14.77495631725134,8,5,0.0,49359,71614360639622,8,45.0,339.85479736328125,0.0481206476688385,16,0.0,0.0,1602562560,,,,0,0.0,3,-58.98,41.0,3804.60009765625,6.610270023345947,,,C,338428126732344
Raw,1713027214426,332432420000000,18,0.0,-1396730000006041684,-0.9590837955474854,20.209761714795604,-39.54286403290759,14.77495631725134,8,20,0.0,49359,71614361401613,46,29.7,-160.0669708251953,0.871999979019165,16,0.0,0.0,1603124990,,,,0,0.0,3,-58.98,25.7,3804.60009765625,6.610270023345947,,,C,338428126732344
Raw,1713027214426,332432420000000,18,0.0,-1396730000006041684,-0.9590837955474854,20.209761714795604,-39.54286403290759,14.77495631725134,8,21,0.0,49359,71614351628802,11,42.9,-717.13525390625,0.03357796370983124,16,0.0,0.0,1604249980,,,,0,0.0,3,-58.98,38.9,3804.60009765625,6.610270023345947,,,C,338428126732344
Raw,1713027214426,332432420000000,18,0.0,-1396730000006041684,-0.9590837955474854,20.209761714795604,-39.54286403290759,14.77495631725134,8,60,0.0,16399,579218297180545,12,41.4,-1.6995495557785034,1.2348999977111816,16,0.0,0.0,1561097980,,,,0,0.0,5,-65.12,37.1,-1535.8343505859375,6.238349914550781,,,I,338428126732344
Raw,1713027214426,332432420000000,18,0.0,-1396730000006041684,-0.9590837955474854,20.209761714795604,-39.54286403290759,14.77495631725134,8,43,0.0,16399,579218351609861,19,36.3,-294.208251953125,1.7812999486923218,16,0.0,0.0,1561097980,,,,0,0.0,5,-65.12,31.999999999999996,-1535.8343505859375,6.238349914550781,,,I,338428126732344
Raw,1713027214426,332432420000000,18,0.0,-1396730000006041684,-0.9590837955474854,20.209761714795604,-39.54286403290759,14.77495631725134,8,42,0.0,16399,579218353135636,14,39.3,-38.12177276611328,0.033582769334316254,16,0.0,0.0,1561097980,,,,0,0.0,5,-65.12,35.0,-1535.8343505859375,6.238349914550781,,,I,338428126732344
Raw,1713027214426,332432420000000,18,0.0,-1396730000006041684,-0.9590837955474854,20.209761714795604,-39.54286403290759,14.77495631725134,8,39,0.0,16399,579218296007981,13,41.2,-116.41282653808594,0.027968943119049072,16,0.0,0.0,1561097980,,,,0,0.0,5,-65.12,36.900000000000006,-1535.8343505859375,6.238349914550781,,,I,338428126732344
Raw,1713027214426,332432420000000,18,0.0,-1396730000006041684,-0.9590837955474854,20.209761714795604,-39.54286403290759,14.77495631725134,8,34,0.0,16399,579218353417837,5,49.8,246.91897583007812,0.027034223079681396,16,0.0,0.0,1561097980,,,,0,0.0,5,-65.12,45.5,-1535.8343505859375,6.238349914550781,,,I,338428126732344
Raw,1713027214426,332432420000000,18,0.0,-1396730000006041684,-0.9590837955474854,20.209761714795604,-39.54286403290759,14.77495631725134,8,33,0.0,16399,579218342638430,46,29.4,-475.9794921875,0.8704999685287476,16,0.0,0.0,1561097980,,,,0,0.0,5,-65.12,25.099999999999998,-1535.8343505859375,6.238349914550781,,,I,338428126732344
Raw,1713027214426,332432420000000,18,0.0,-1396730000006041684,-0.9590837955474854,20.209761714795604,-39.54286403290759,14.77495631725134,8,21,0.0,16399,579218347758187,16,39.1,423.1302185058594,0.40299999713897705,16,0.0,0.0,1561097980,,,,0,0.0,5,-65.12,34.800000000000004,-1535.8343505859375,6.238349914550781,,,I,338428126732344
Raw,1713027214426,332432420000000,18,0.0,-1396730000006041684,-0.9590837955474854,20.209761714795604,-39.54286403290759,14.77495631725134,8,16,0.0,16399,579218295336046,14,39.8,-177.1763153076172,0.030582770705223083,16,0.0,0.0,1561097980,,,,0,0.0,5,-65.12,35.5,-1535.8343505859375,6.238349914550781,,,I,338428126732344
Raw,1713027214426,332432420000000,18,0.0,-1396730000006041684,-0.9590837955474854,20.209761714795604,-39.54286403290759,14.77495631725134,8,14,0.0,16399,579218350954509,31,32.9,-300.8394775390625,0.6784999966621399,16,0.0,0.0,1561097980,,,,0,0.0,5,-65.12,28.599999999999998,-1535.8343505859375,6.238349914550781,,,I,338428126732344
Raw,1713027214426,332432420000000,18,0.0,-1396730000006041684,-0.9590837955474854,20.209761714795604,-39.54286403290759,14.77495631725134,8,13,0.0,16399,579218294052087,12,41.8,6.747768878936768,0.0300663560628891,16,0.0,0.0,1561097980,,,,0,0.0,5,-65.12,37.5,-1535.8343505859375,6.238349914550781,,,I,338428126732344
Raw,1713027214426,332432420000000,18,0.0,-1396730000006041684,-0.9590837955474854,20.209761714795604,-39.54286403290759,14.77495631725134,8,12,0.0,16399,579218347361089,14,40.2,485.7309265136719,0.04258276894688606,16,0.0,0.0,1561097980,,,,0,0.0,5,-65.12,35.900000000000006,-1535.8343505859375,6.238349914550781,,,I,338428126732344
Raw,1713027214426,332432420000000,18,0.0,-1396730000006041684,-0.9590837955474854,20.209761714795604,-39.54286403290759,14.77495631725134,8,11,0.0,16399,579218354487864,12,41.8,-65.60575866699219,0.0300663560628891,16,0.0,0.0,1561097980,,,,0,0.0,5,-65.12,37.5,-1535.8343505859375,6.238349914550781,,,I,338428126732344
Raw,1713027214426,332432420000000,18,0.0,-1396730000006041684,-0.9590837955474854,20.209761714795604,-39.54286403290759,14.77495631725134,8,9,0.0,16399,579218295360299,9,45.1,-267.43084716796875,0.026357904076576233,16,0.0,0.0,1561097980,,,,0,0.0,5,-65.12,40.800000000000004,-1535.8343505859375,6.238349914550781,,,I,338428126732344
Raw,1713027214426,332432420000000,18,0.0,-1396730000006041684,-0.9590837955474854,20.209761714795604,-39.54286403290759,14.77495631725134,8,6,0.0,16399,579218297414032,16,38.5,-235.0653533935547,0.03253738954663277,16,0.0,0.0,1561097980,,,,0,0.0,5,-65.12,34.2,-1535.8343505859375,6.238349914550781,,,I,338428126732344
Raw,1713027214426,332432420000000,18,0.0,-1396730000006041684,-0.9590837955474854,20.209761714795604,-39.54286403290759,14.77495631725134,8,2,0.0,16399,579218296916850,16,38.9,-2.0548224449157715,1.6589000225067139,16,0.0,0.0,1561097980,,,,0,0.0,5,-65.12,34.6,-1535.8343505859375,6.238349914550781,,,I,338428126732344
Raw,1713027214426,332432420000000,18,0.0,-1396730000006041684,-0.9590837955474854,20.209761714795604,-39.54286403290759,14.77495631725134,8,4,0.0,23567,579232338996323,92,25.1,-535.7337646484375,1.9285000562667847,16,0.0,0.0,1575420030,,,,0,0.0,6,-60.99,20.8,-1459.973388671875,6.5573954582214355,,,C,338428126732344
Raw,1713027214426,332432420000000,18,0.0,-1396730000006041684,-0.9590837955474854,20.209761714795604,-39.54286403290759,14.77495631725134,8,10,0.0,23567,579232340566774,70,27.1,-389.8832092285156,2.505500078201294,16,0.0,0.0,1575420030,,,,0,0.0,6,-60.99,22.8,-1459.973388671875,6.5573954582214355,,,C,338428126732344
Raw,1713027214426,332432420000000,18,0.0,-1396730000006041684,-0.9590837955474854,20.209761714795604,-39.54286403290759,14.77495631725134,8,12,0.0,23567,579232344927639,24,34.4,-255.11721801757812,0.5855000019073486,16,0.0,0.0,1575420030,,,,0,0.0,6,-60.99,30.099999999999998,-1459.973388671875,6.5573954582214355,,,C,338428126732344
Raw,1713027214426,332432420000000,18,0.0,-1396730000006041684,-0.9590837955474854,20.209761714795604,-39.54286403290759,14.77495631725134,8,19,0.0,23567,579232347662999,19,36.3,-76.97269439697266,0.038595523685216904,16,0.0,0.0,1575420030,,,,0,0.0,6,-60.99,31.999999999999996,-1459.973388671875,6.5573954582214355,,,C,338428126732344
Raw,1713027214426,332432420000000,18,0.0,-1396730000006041684,-0.9590837955474854,20.209761714795604,-39.54286403290759,14.77495631725134,8,33,0.0,23567,579232344770363,11,42.3,160.39596557617188,0.03219833970069885,16,0.0,0.0,1575420030,,,,0,0.0,6,-60.99,38.0,-1459.973388671875,6.5573954582214355,,,C,338428126732344
Raw,1713027214426,332432420000000,18,0.0,-1396730000006041684,-0.9590837955474854,20.209761714795604,-39.54286403290759,14.77495631725134,8,8,0.0,81935,579232355458276,10,30.9,214.17628479003906,3.9356679916381836,16,0.0,0.0,1176450050,,,,0,0.0,1,-38.16,25.9,-7861.56591796875,6.028573513031006,,,Q,338428126732344
Raw,1713027214426,332432420000000,18,0.0,-1396730000006041684,-0.9590837955474854,20.209761714795604,-39.54286403290759,14.77495631725134,8,10,0.0,81935,579232349855214,4,40.0,389.2933654785156,0.057741403579711914,16,0.0,0.0,1176450050,,,,0,0.0,1,-38.16,35.0,-7861.56591796875,6.028573513031006,,,Q,338428126732344
Raw,1713027214426,332432420000000,18,0.0,-1396730000006041684,-0.9590837955474854,20.209761714795604,-39.54286403290759,14.77495631725134,8,27,0.0,81935,579232351927447,11,29.5,575.0377807617188,4.768255710601807,16,0.0,0.0,1176450050,,,,0,0.0,1,-38.16,24.5,-7861.56591796875,6.028573513031006,,,Q,338428126732344
Raw,1713027214426,332432420000000,18,0.0,-1396730000006041684,-0.9590837955474854,20.209761714795604,-39.54286403290759,14.77495631725134,8,28,0.0,81935,579232346603449,27,22.6,-475.15234375,3.000500202178955,16,0.0,0.0,1176450050,,,,0,0.0,1,-38.16,17.6,-7861.56591796875,6.028573513031006,,,Q,338428126732344
Raw,1713027214426,332432420000000,18,0.0,-1396730000006041684,-0.9590837955474854,20.209761714795604,-39.54286403290759,14.77495631725134,8,4,0.0,81935,579232339002673,12,29.2,-535.2918090820312,0.8899999856948853,16,0.0,0.0,1176450050,,,,0,0.0,6,-38.16,23.9,-7848.82958984375,50.462764739990234,,,Q,338428126732344
Raw,1713027214426,332432420000000,18,0.0,-1396730000006041684,-0.9590837955474854,20.209761714795604,-39.54286403290759,14.77495631725134,8,10,0.0,81935,579232340573216,11,30.2,-389.8216247558594,3.1927878856658936,16,0.0,0.0,1176450050,,,,0,0.0,6,-38.16,24.9,-7848.82958984375,50.462764739990234,,,Q,338428126732344
Raw,1713027214426,332432420000000,18,0.0,-1396730000006041684,-0.9590837955474854,20.209761714795604,-39.54286403290759,14.77495631725134,8,12,0.0,81935,579232344934013,8,33.5,-256.9242858886719,5.3765740394592285,16,0.0,0.0,1176450050,,,,0,0.0,6,-38.16,28.2,-7848.82958984375,50.462764739990234,,,Q,338428126732344
Raw,1713027214426,332432420000000,18,0.0,-1396730000006041684,-0.9590837955474854,20.209761714795604,-39.54286403290759,14.77495631725134,8,19,0.0,81935,579232347669387,12,28.9,-77.67159271240234,0.9120000004768372,16,0.0,0.0,1176450050,,,,0,0.0,6,-38.16,23.599999999999998,-7848.82958984375,50.462764739990234,,,Q,338428126732344
Raw,1713027214426,332432420000000,18,0.0,-1396730000006041684,-0.9590837955474854,20.209761714795604,-39.54286403290759,14.77495631725134,8,33,0.0,81935,579232344776760,9,31.6,160.52151489257812,2.329824209213257,16,0.0,0.0,1176450050,,,,0,0.0,6,-38.16,26.3,-7848.82958984375,50.462764739990234,,,Q,338428126732344
Raw,1713027214426,332432420000000,18,0.0,-1396730000006041684,-0.9590837955474854,20.209761714795604,-39.54286403290759,14.77495631725134,8,21,0.0,16399,579218347764476,5,37.5,423.29473876953125,0.08861479163169861,16,0.0,0.0,1176450050,,,,0,0.0,5,-38.16,33.0,-7833.126953125,46.00465774536133,,,Q,338428126732344
Raw,1713027214426,332432420000000,18,0.0,-1396730000006041684,-0.9590837955474854,20.209761714795604,-39.54286403290759,14.77495631725134,8,33,0.0,16399,579218342644742,27,22.4,-474.89752197265625,2.244500160217285,16,0.0,0.0,1176450050,,,,0,0.0,5,-38.16,17.9,-7833.126953125,46.00465774536133,,,Q,338428126732344
Raw,1713027214426,332432420000000,18,0.0,-1396730000006041684,-0.9590837955474854,20.209761714795604,-39.54286403290759,14.77495631725134,8,34,0.0,16399,579218353424124,5,38.1,247.08274841308594,0.09761478751897812,16,0.0,0.0,1176450050,,,,0,0.0,5,-38.16,33.6,-7833.126953125,46.00465774536133,,,Q,338428126732344
Raw,1713027214426,332432420000000,18,0.0,-1396730000006041684,-0.9590837955474854,20.209761714795604,-39.54286403290759,14.77495631725134,8,39,0.0,16399,579218296014272,5,36.9,-116.25469207763672,0.10504531115293503,16,0.0,0.0,1176450050,,,,0,0.0,5,-38.16,32.4,-7833.126953125,46.00465774536133,,,Q,338428126732344
Raw,1713027214426,332432420000000,18,0.0,-1396730000006041684,-0.9590837955474854,20.209761714795604,-39.54286403290759,14.77495631725134,8,42,0.0,16399,579218353141890,7,34.2,-38.14775466918945,0.6410000324249268,16,0.0,0.0,1176450050,,,,0,0.0,5,-38.16,29.700000000000003,-7833.126953125,46.00465774536133,,,Q,338428126732344
Raw,1713027214426,332432420000000,18,0.0,-1396730000006041684,-0.9590837955474854,20.209761714795604,-39.54286403290759,14.77495631725134,8,43,0.0,16399,579218351616145,7,33.8,-294.0843200683594,0.6780000329017639,16,0.0,0.0,1176450050,,,,0,0.0,5,-38.16,29.299999999999997,-7833.126953125,46.00465774536133,,,Q,338428126732344
Raw,1713027214426,332432420000000,18,0.0,-1396730000006041684,-0.9590837955474854,20.209761714795604,-39.54286403290759,14.77495631725134,8,21,0.0,16399,579218347758096,5,39.9,423.3577575683594,0.10159552842378616,16,0.0,0.0,1575420030,,,,0,0.0,5,-60.99,32.9,-1453.355712890625,44.040916442871094,,,P,338428126732344
Raw,1713027214426,332432420000000,18,0.0,-1396730000006041684,-0.9590837955474854,20.209761714795604,-39.54286403290759,14.77495631725134,8,33,0.0,16399,579218342638335,11,31.5,-473.625244140625,1.8917236328125,16,0.0,0.0,1575420030,,,,0,0.0,5,-60.99,24.5,-1453.355712890625,44.040916442871094,,,P,338428126732344
Raw,1713027214426,332432420000000,18,0.0,-1396730000006041684,-0.9590837955474854,20.209761714795604,-39.54286403290759,14.77495631725134,8,34,0.0,16399,579218353417747,2,48.5,247.0563507080078,0.08570025116205215,16,0.0,0.0,1575420030,,,,0,0.0,5,-60.99,41.5,-1453.355712890625,44.040916442871094,,,P,338428126732344
Raw,1713027214426,332432420000000,18,0.0,-1396730000006041684,-0.9590837955474854,20.209761714795604,-39.54286403290759,14.77495631725134,8,39,0.0,16399,579218296007880,3,43.9,-116.27622985839844,0.09389195591211319,16,0.0,0.0,1575420030,,,,0,0.0,5,-60.99,36.9,-1453.355712890625,44.040916442871094,,,P,338428126732344
Raw,1713027214426,332432420000000,18,0.0,-1396730000006041684,-0.9590837955474854,20.209761714795604,-39.54286403290759,14.77495631725134,8,42,0.0,16399,579218353135553,4,42.2,-38.02738571166992,0.06051468849182129,16,0.0,0.0,1575420030,,,,0,0.0,5,-60.99,35.2,-1453.355712890625,44.040916442871094,,,P,338428126732344
Raw,1713027214426,332432420000000,18,0.0,-1396730000006041684,-0.9590837955474854,20.209761714795604,-39.54286403290759,14.77495631725134,8,43,0.0,16399,579218351609755,8,34.3,-292.6851501464844,2.346576452255249,16,0.0,0.0,1575420030,,,,0,0.0,5,-60.99,27.299999999999997,-1453.355712890625,44.040916442871094,,,P,338428126732344
Fix,GPS,32.1687620900,34.8133666800,46.0872802734375,0.0,3.7900925,,1713027215000,0.07055518,,338428700733385,2.5,0,,,
Fix,FLP,32.1687678000,34.8133635000,45.333404816814905,0.05275058,4.091,,1713027214560,0.081501715,,338428700733385,2.08121,0,,,
Status,1713027215000,62,0,1,2,1575420030,31.40,318.0,35.0,1,1,1,26.4
Status,1713027215000,62,1,1,8,1575420030,19.40,242.0,56.0,0,1,1,14.4
Status,1713027215000,62,2,1,10,1575420030,44.40,50.0,30.0,1,1,1,39.4
Status,1713027215000,62,3,1,21,1575420030,39.00,325.0,51.0,1,1,1,34.0
Status,1713027215000,62,4,1,27,1575420030,33.30,187.0,40.0,1,1,1,28.3
Status,1713027215000,62,5,1,32,1575420030,44.50,56.0,55.0,1,1,1,39.5
Status,1713027215000,62,6,2,123,1575420030,37.60,0.0,0.0,0,0,0,32.6
Status,1713027215000,62,7,2,127,1575420030,34.30,0.0,0.0,0,0,0,29.3
Status,1713027215000,62,8,3,95,1599187460,35.20,0.0,0.0,0,0,0,30.2
Status,1713027215000,62,9,3,6,1599750020,17.00,232.0,40.0,0,1,0,12.0
Status,1713027215000,62,10,3,5,1602562560,41.90,9.0,64.0,1,1,1,36.9
Status,1713027215000,62,11,3,20,1603124990,27.10,29.0,73.0,1,1,0,22.1
Status,1713027215000,62,12,3,21,1604249980,35.70,330.0,23.0,1,1,1,30.7
Status,1713027215000,62,13,3,4,1605374980,16.90,31.0,15.0,0,1,0,11.9
Status,1713027215000,62,14,5,60,1561097980,37.00,116.0,29.0,1,1,0,32.0
Status,1713027215000,62,15,5,43,1561097980,30.80,308.0,57.0,1,1,0,25.8
Status,1713027215000,62,16,5,42,1561097980,34.70,282.0,74.0,1,1,0,29.7
Status,1713027215000,62,17,5,39,1561097980,36.00,63.0,27.0,1,1,0,31.0
Status,1713027215000,62,18,5,34,1561097980,44.80,161.0,68.0,1,1,0,39.8
Status,1713027215000,62,19,5,33,1561097980,25.10,237.0,23.0,0,1,0,20.1
Status,1713027215000,62,20,5,21,1561097980,32.90,38.0,43.0,1,1,0,27.9
Status,1713027215000,62,21,5,16,1561097980,36.40,72.0,28.0,1,1,0,31.4
Status,1713027215000,62,22,5,14,1561097980,25.60,246.0,49.0,1,1,0,20.6
Status,1713027215000,62,23,5,13,1561097980,37.50,70.0,18.0,1,1,0,32.5
Status,1713027215000,62,24,5,12,1561097980,35.20,144.0,38.0,1,1,0,30.2
Status,1713027215000,62,25,5,11,1561097980,36.20,295.0,82.0,1,1,0,31.2
Status,1713027215000,62,26,5,9,1561097980,39.80,94.0,31.0,1,1,0,34.8
Status,1713027215000,62,27,5,6,1561097980,34.50,84.0,31.0,1,1,0,29.5
Status,1713027215000,62,28,5,5,1561097980,29.20,138.0,46.0,1,1,0,24.2
Status,1713027215000,62,29,5,2,1561097980,34.40,112.0,27.0,0,1,0,29.4
Status,1713027215000,62,30,6,4,1575420030,22.50,203.0,28.0,1,1,0,17.5
Status,1713027215000,62,31,6,10,1575420030,29.00,319.0,35.0,0,1,0,24.0
Status,1713027215000,62,32,6,11,1575420030,16.60,308.0,10.0,0,1,0,11.6
Status,1713027215000,62,33,6,12,1575420030,30.40,338.0,57.0,1,1,0,25.4
Status,1713027215000,62,34,6,19,1575420030,32.90,117.0,74.0,1,1,0,27.9
Status,1713027215000,62,35,6,24,1575420030,19.80,259.0,6.0,0,1,0,14.8
Status,1713027215000,62,36,6,33,1575420030,38.40,93.0,51.0,1,1,1,33.4
Status,1713027215000,62,37,1,3,1176450050,16.40,263.0,14.0,0,1,1,11.4
Status,1713027215000,62,38,1,8,1176450050,23.70,242.0,56.0,1,1,1,18.7
Status,1713027215000,62,39,1,10,1176450050,34.90,50.0,30.0,1,1,1,29.9
Status,1713027215000,62,40,1,27,1176450050,24.50,187.0,40.0,1,1,1,19.5
Status,1713027215000,62,41,1,28,1176450050,17.60,125.0,19.0,1,1,1,12.6
Status,1713027215000,62,42,1,32,1176450050,20.00,56.0,55.0,1,1,1,15.0
Status,1713027215000,62,43,6,4,1176450050,24.40,203.0,28.0,1,1,0,19.4
Status,1713027215000,62,44,6,10,1176450050,24.00,319.0,35.0,1,1,0,19.0
Status,1713027215000,62,45,6,12,1176450050,27.60,338.0,57.0,1,1,0,22.6
Status,1713027215000,62,46,6,19,1176450050,23.10,117.0,74.0,1,1,0,18.1
Status,1713027215000,62,47,6,24,1176450050,11.20,259.0,6.0,0,1,0,6.2
Status,1713027215000,62,48,6,33,1176450050,26.50,93.0,51.0,1,1,1,21.5
Status,1713027215000,62,49,5,21,1176450050,33.30,38.0,43.0,1,1,0,28.3
Status,1713027215000,62,50,5,33,1176450050,17.90,237.0,23.0,1,1,0,12.9
Status,1713027215000,62,51,5,34,1176450050,34.50,161.0,68.0,1,1,0,29.5
Status,1713027215000,62,52,5,39,1176450050,33.00,63.0,27.0,1,1,0,28.0
Status,1713027215000,62,53,5,42,1176450050,27.70,282.0,74.0,1,1,0,22.7
Status,1713027215000,62,54,5,43,1176450050,27.00,308.0,57.0,1,1,0,22.0
Status,1713027215000,62,55,5,21,1575420030,34.70,38.0,43.0,1,1,0,29.7
Status,1713027215000,62,56,5,33,1575420030,23.60,237.0,23.0,1,1,0,18.6
Status,1713027215000,62,57,5,34,1575420030,41.30,161.0,68.0,1,1,0,36.3
Status,1713027215000,62,58,5,39,1575420030,37.70,63.0,27.0,1,1,0,32.7
Status,1713027215000,62,59,5,42,1575420030,36.30,282.0,74.0,1,1,0,31.3
Status,1713027215000,62,60,5,43,1575420030,28.40,308.0,57.0,1,1,0,23.4
Status,1713027215000,62,61,5,44,1575420030,18.30,144.0,15.0,0,1,0,13.3
Raw,1713027215426,332433420000000,18,0.0,-1396730000006041703,-0.9915919303894043,15.706804333603941,-28.19281711970467,10.70334291328031,8,2,0.0,16399,579233349706803,21,36.4,-473.2129211425781,1.2308529615402222,16,0.0,0.0,1575420030,,,,0,0.0,1,-57.56,31.4,0.0,0.0,,,C,338429120453490
Raw,1713027215426,332433420000000,18,0.0,-1396730000006041703,-0.9915919303894043,15.706804333603941,-28.19281711970467,10.70334291328031,8,10,0.0,16399,579233349846070,6,49.4,386.9629821777344,0.03329208120703697,16,0.0,0.0,1575420030,,,,0,0.0,1,-57.56,44.4,0.0,0.0,,,C,338429120453490
Raw,1713027215426,332433420000000,18,0.0,-1396730000006041703,-0.9915919303894043,15.706804333603941,-28.19281711970467,10.70334291328031,8,21,0.0,16399,579233353771930,10,44.0,-313.22088623046875,0.029899103567004204,16,0.0,0.0,1575420030,,,,0,0.0,1,-57.56,39.0,0.0,0.0,,,C,338429120453490
Raw,1713027215426,332433420000000,18,0.0,-1396730000006041703,-0.9915919303894043,15.706804333603941,-28.19281711970467,10.70334291328031,8,27,0.0,16399,579233351917708,17,38.3,572.3273315429688,0.042794376611709595,16,0.0,0.0,1575420030,,,,0,0.0,1,-57.56,33.3,0.0,0.0,,,C,338429120453490
Raw,1713027215426,332433420000000,18,0.0,-1396730000006041703,-0.9915919303894043,15.706804333603941,-28.19281711970467,10.70334291328031,8,32,0.0,16399,579233354378894,6,49.5,280.6029052734375,0.025792080909013748,16,0.0,0.0,1575420030,,,,0,0.0,1,-57.56,44.5,0.0,0.0,,,C,338429120453490
Raw,1713027215426,332433420000000,18,0.0,-1396730000006041703,-0.9915919303894043,15.706804333603941,-28.19281711970467,10.70334291328031,8,5,0.0,49359,71615360638498,8,45.9,337.7933044433594,0.0481206476688385,16,0.0,0.0,1602562560,,,,0,0.0,3,-59.26,41.9,3804.664306640625,6.591939449310303,,,C,338429120453490
Raw,1713027215426,332433420000000,18,0.0,-1396730000006041703,-0.9915919303894043,15.706804333603941,-28.19281711970467,10.70334291328031,8,20,0.0,49359,71615361402179,35,31.1,-163.11514282226562,0.7519999742507935,16,0.0,0.0,1603124990,,,,0,0.0,3,-59.26,27.1,3804.664306640625,6.591939449310303,,,C,338429120453490
Raw,1713027215426,332433420000000,18,0.0,-1396730000006041703,-0.9915919303894043,15.706804333603941,-28.19281711970467,10.70334291328031,8,21,0.0,49359,71615351631178,14,39.7,-719.2996826171875,0.03632500767707825,16,0.0,0.0,1604249980,,,,0,0.0,3,-59.26,35.7,3804.664306640625,6.591939449310303,,,C,338429120453490
Raw,1713027215426,332433420000000,18,0.0,-1396730000006041703,-0.9915919303894043,15.706804333603941,-28.19281711970467,10.70334291328031,8,60,0.0,16399,579219297180542,12,41.3,-1.8627829551696777,1.2348999977111816,16,0.0,0.0,1561097980,,,,0,0.0,5,-65.39,37.0,-1535.930908203125,6.232457637786865,,,I,338429120453490
Raw,1713027215426,332433420000000,18,0.0,-1396730000006041703,-0.9915919303894043,15.706804333603941,-28.19281711970467,10.70334291328031,8,43,0.0,16399,579219351610890,24,35.1,-296.33984375,2.408174514770508,16,0.0,0.0,1561097980,,,,0,0.0,5,-65.39,30.8,-1535.930908203125,6.232457637786865,,,I,338429120453490
Raw,1713027215426,332433420000000,18,0.0,-1396730000006041703,-0.9915919303894043,15.706804333603941,-28.19281711970467,10.70334291328031,8,42,0.0,16399,579219353135771,16,39.0,-40.24822998046875,0.038537390530109406,16,0.0,0.0,1561097980,,,,0,0.0,5,-65.39,34.7,-1535.930908203125,6.232457637786865,,,I,338429120453490
Raw,1713027215426,332433420000000,18,0.0,-1396730000006041703,-0.9915919303894043,15.706804333603941,-28.19281711970467,10.70334291328031,8,39,0.0,16399,579219296008367,13,40.3,-118.55010986328125,0.027968943119049072,16,0.0,0.0,1561097980,,,,0,0.0,5,-65.39,36.0,-1535.930908203125,6.232457637786865,,,I,338429120453490
Raw,1713027215426,332433420000000,18,0.0,-1396730000006041703,-0.9915919303894043,15.706804333603941,-28.19281711970467,10.70334291328031,8,34,0.0,16399,579219353417019,6,49.1,244.828857421875,0.027322283014655113,16,0.0,0.0,1561097980,,,,0,0.0,5,-65.39,44.800000000000004,-1535.930908203125,6.232457637786865,,,I,338429120453490
Raw,1713027215426,332433420000000,18,0.0,-1396730000006041703,-0.9915919303894043,15.706804333603941,-28.19281711970467,10.70334291328031,8,21,0.0,16399,579219347756782,19,37.2,420.99200439453125,1.7872999906539917,16,0.0,0.0,1561097980,,,,0,0.0,5,-65.39,32.900000000000006,-1535.930908203125,6.232457637786865,,,I,338429120453490
Raw,1713027215426,332433420000000,18,0.0,-1396730000006041703,-0.9915919303894043,15.706804333603941,-28.19281711970467,10.70334291328031,8,16,0.0,16399,579219295336643,13,40.7,-179.33148193359375,0.029468942433595657,16,0.0,0.0,1561097980,,,,0,0.0,5,-65.39,36.400000000000006,-1535.930908203125,6.232457637786865,,,I,338429120453490
Raw,1713027215426,332433420000000,18,0.0,-1396730000006041703,-0.9915919303894043,15.706804333603941,-28.19281711970467,10.70334291328031,8,14,0.0,16399,579219350955525,46,29.9,-302.8462829589844,0.8585000038146973,16,0.0,0.0,1561097980,,,,0,0.0,5,-65.39,25.599999999999998,-1535.930908203125,6.232457637786865,,,I,338429120453490
Raw,1713027215426,332433420000000,18,0.0,-1396730000006041703,-0.9915919303894043,15.706804333603941,-28.19281711970467,10.70334291328031,8,13,0.0,16399,579219294052067,12,41.8,4.56360387802124,0.0300663560628891,16,0.0,0.0,1561097980,,,,0,0.0,5,-65.39,37.5,-1535.930908203125,6.232457637786865,,,I,338429120453490
Raw,1713027215426,332433420000000,18,0.0,-1396730000006041703,-0.9915919303894043,15.706804333603941,-28.19281711970467,10.70334291328031,8,12,0.0,16399,579219347359487,14,39.5,483.6217346191406,0.04258276894688606,16,0.0,0.0,1561097980,,,,0,0.0,5,-65.39,35.2,-1535.930908203125,6.232457637786865,,,I,338429120453490
Raw,1713027215426,332433420000000,18,0.0,-1396730000006041703,-0.9915919303894043,15.706804333603941,-28.19281711970467,10.70334291328031,8,11,0.0,16399,579219354488084,13,40.5,-67.68692016601562,0.030968941748142242,16,0.0,0.0,1561097980,,,,0,0.0,5,-65.39,36.2,-1535.930908203125,6.232457637786865,,,I,338429120453490
Raw,1713027215426,332433420000000,18,0.0,-1396730000006041703,-0.9915919303894043,15.706804333603941,-28.19281711970467,10.70334291328031,8,9,0.0,16399,579219295361191,10,44.1,-269.5725402832031,0.02695322595536709,16,0.0,0.0,1561097980,,,,0,0.0,5,-65.39,39.800000000000004,-1535.930908203125,6.232457637786865,,,I,338429120453490
Raw,1713027215426,332433420000000,18,0.0,-1396730000006041703,-0.9915919303894043,15.706804333603941,-28.19281711970467,10.70334291328031,8,6,0.0,16399,579219297414831,16,38.8,-237.21295166015625,0.03253738954663277,16,0.0,0.0,1561097980,,,,0,0.0,5,-65.39,34.5,-1535.930908203125,6.232457637786865,,,I,338429120453490
Raw,1713027215426,332433420000000,18,0.0,-1396730000006041703,-0.9915919303894043,15.706804333603941,-28.19281711970467,10.70334291328031,8,5,0.0,16399,579219300567693,27,33.5,-5.300290107727051,4.395600318908691,16,0.0,0.0,1561097980,,,,0,0.0,5,-65.39,29.2,-1535.930908203125,6.232457637786865,,,I,338429120453490
Raw,1713027215426,332433420000000,18,0.0,-1396730000006041703,-0.9915919303894043,15.706804333603941,-28.19281711970467,10.70334291328031,8,2,0.0,16399,579219296916895,16,38.7,-6.202875137329102,1.6589000225067139,16,0.0,0.0,1561097980,,,,0,0.0,5,-65.39,34.400000000000006,-1535.930908203125,6.232457637786865,,,I,338429120453490
Raw,1713027215426,332433420000000,18,0.0,-1396730000006041703,-0.9915919303894043,15.706804333603941,-28.19281711970467,10.70334291328031,8,4,0.0,23567,579233338998140,70,26.8,-537.6842651367188,1.118499994277954,16,0.0,0.0,1575420030,,,,0,0.0,6,-61.3,22.5,-1459.7955322265625,6.558165073394775,,,C,338429120453490
Raw,1713027215426,332433420000000,18,0.0,-1396730000006041703,-0.9915919303894043,15.706804333603941,-28.19281711970467,10.70334291328031,8,10,0.0,23567,579233340568127,27,33.3,-392.1007080078125,3.1271278858184814,16,0.0,0.0,1575420030,,,,0,0.0,6,-61.3,28.999999999999996,-1459.7955322265625,6.558165073394775,,,C,338429120453490
Raw,1713027215426,332433420000000,18,0.0,-1396730000006041703,-0.9915919303894043,15.706804333603941,-28.19281711970467,10.70334291328031,8,12,0.0,23567,579233344928479,24,34.7,-257.4117736816406,4.640796184539795,16,0.0,0.0,1575420030,,,,0,0.0,6,-61.3,30.400000000000002,-1459.7955322265625,6.558165073394775,,,C,338429120453490
Raw,1713027215426,332433420000000,18,0.0,-1396730000006041703,-0.9915919303894043,15.706804333603941,-28.19281711970467,10.70334291328031,8,19,0.0,23567,579233347663253,19,37.2,-79.17354583740234,0.038595523685216904,16,0.0,0.0,1575420030,,,,0,0.0,6,-61.3,32.900000000000006,-1459.7955322265625,6.558165073394775,,,C,338429120453490
Raw,1713027215426,332433420000000,18,0.0,-1396730000006041703,-0.9915919303894043,15.706804333603941,-28.19281711970467,10.70334291328031,8,33,0.0,23567,579233344769840,11,42.7,158.17941284179688,0.03219833970069885,16,0.0,0.0,1575420030,,,,0,0.0,6,-61.3,38.400000000000006,-1459.7955322265625,6.558165073394775,,,C,338429120453490
Raw,1713027215426,332433420000000,18,0.0,-1396730000006041703,-0.9915919303894043,15.706804333603941,-28.19281711970467,10.70334291328031,8,8,0.0,81935,579233355457571,12,28.7,211.6474151611328,0.9539999961853027,16,0.0,0.0,1176450050,,,,0,0.0,1,-39.05,23.7,-7861.56787109375,6.028910160064697,,,Q,338429120453490
Raw,1713027215426,332433420000000,18,0.0,-1396730000006041703,-0.9915919303894043,15.706804333603941,-28.19281711970467,10.70334291328031,8,10,0.0,81935,579233349853920,4,39.9,387.0015869140625,0.05947423353791237,16,0.0,0.0,1176450050,,,,0,0.0,1,-39.05,34.9,-7861.56787109375,6.028910160064697,,,Q,338429120453490
Raw,1713027215426,332433420000000,18,0.0,-1396730000006041703,-0.9915919303894043,15.706804333603941,-28.19281711970467,10.70334291328031,8,32,0.0,81935,579233354386775,18,25.0,281.2664489746094,1.9824999570846558,16,0.0,0.0,1176450050,,,,0,0.0,1,-39.05,20.0,-7861.56787109375,6.028910160064697,,,Q,338429120453490
Raw,1713027215426,332433420000000,18,0.0,-1396730000006041703,-0.9915919303894043,15.706804333603941,-28.19281711970467,10.70334291328031,8,4,0.0,81935,579233339004463,11,29.7,-537.671630859375,1.7223196029663086,16,0.0,0.0,1176450050,,,,0,0.0,6,-39.05,24.4,-7848.66796875,41.545536041259766,,,Q,338429120453490
Raw,1713027215426,332433420000000,18,0.0,-1396730000006041703,-0.9915919303894043,15.706804333603941,-28.19281711970467,10.70334291328031,8,10,0.0,81935,579233340574518,11,29.3,-392.18060302734375,2.4283037185668945,16,0.0,0.0,1176450050,,,,0,0.0,6,-39.05,24.0,-7848.66796875,41.545536041259766,,,Q,338429120453490
Raw,1713027215426,332433420000000,18,0.0,-1396730000006041703,-0.9915919303894043,15.706804333603941,-28.19281711970467,10.70334291328031,8,12,0.0,81935,579233344934862,8,32.9,-257.49359130859375,0.7921410202980042,16,0.0,0.0,1176450050,,,,0,0.0,6,-39.05,27.599999999999998,-7848.66796875,41.545536041259766,,,Q,338429120453490
Raw,1713027215426,332433420000000,18,0.0,-1396730000006041703,-0.9915919303894043,15.706804333603941,-28.19281711970467,10.70334291328031,8,19,0.0,81935,579233347669647,12,28.4,-78.43607330322266,0.9120000004768372,16,0.0,0.0,1176450050,,,,0,0.0,6,-39.05,23.099999999999998,-7848.66796875,41.545536041259766,,,Q,338429120453490
Raw,1713027215426,332433420000000,18,0.0,-1396730000006041703,-0.9915919303894043,15.706804333603941,-28.19281711970467,10.70334291328031,8,33,0.0,81935,579233344776228,9,31.8,158.23641967773438,1.565340280532837,16,0.0,0.0,1176450050,,,,0,0.0,6,-39.05,26.5,-7848.66796875,41.545536041259766,,,Q,338429120453490
Raw,1713027215426,332433420000000,18,0.0,-1396730000006041703,-0.9915919303894043,15.706804333603941,-28.19281711970467,10.70334291328031,8,21,0.0,16399,579219347763077,5,37.8,421.1286926269531,0.08861479163169861,16,0.0,0.0,1176450050,,,,0,0.0,5,-39.05,33.3,-7832.9453125,36.97254943847656,,,Q,338429120453490
Raw,1713027215426,332433420000000,18,0.0,-1396730000006041703,-0.9915919303894043,15.706804333603941,-28.19281711970467,10.70334291328031,8,34,0.0,16399,579219353423306,4,39.0,244.93968200683594,0.0954742357134819,16,0.0,0.0,1176450050,,,,0,0.0,5,-39.05,34.5,-7832.9453125,36.97254943847656,,,Q,338429120453490
Raw,1713027215426,332433420000000,18,0.0,-1396730000006041703,-0.9915919303894043,15.706804333603941,-28.19281711970467,10.70334291328031,8,39,0.0,16399,579219296014666,5,37.5,-118.42650604248047,0.10211478918790817,16,0.0,0.0,1176450050,,,,0,0.0,5,-39.05,33.0,-7832.9453125,36.97254943847656,,,Q,338429120453490
Raw,1713027215426,332433420000000,18,0.0,-1396730000006041703,-0.9915919303894043,15.706804333603941,-28.19281711970467,10.70334291328031,8,42,0.0,16399,579219353142014,8,32.2,-40.00370407104492,1.6301250457763672,16,0.0,0.0,1176450050,,,,0,0.0,5,-39.05,27.700000000000003,-7832.9453125,36.97254943847656,,,Q,338429120453490
Raw,1713027215426,332433420000000,18,0.0,-1396730000006041703,-0.9915919303894043,15.706804333603941,-28.19281711970467,10.70334291328031,8,43,0.0,16399,579219351617128,8,31.5,-296.3267822265625,0.7879999876022339,16,0.0,0.0,1176450050,,,,0,0.0,5,-39.05,27.0,-7832.9453125,36.97254943847656,,,Q,338429120453490
Raw,1713027215426,332433420000000,18,0.0,-1396730000006041703,-0.9915919303894043,15.706804333603941,-28.19281711970467,10.70334291328031,8,21,0.0,16399,579219347756675,4,41.7,421.1253356933594,0.09780868887901306,16,0.0,0.0,1575420030,,,,0,0.0,5,-61.3,34.7,-1453.382568359375,35.10756301879883,,,P,338429120453490
Raw,1713027215426,332433420000000,18,0.0,-1396730000006041703,-0.9915919303894043,15.706804333603941,-28.19281711970467,10.70334291328031,8,33,0.0,16399,579219342639957,12,30.6,-476.95208740234375,1.059499979019165,16,0.0,0.0,1575420030,,,,0,0.0,5,-61.3,23.6,-1453.382568359375,35.10756301879883,,,P,338429120453490
Raw,1713027215426,332433420000000,18,0.0,-1396730000006041703,-0.9915919303894043,15.706804333603941,-28.19281711970467,10.70334291328031,8,34,0.0,16399,579219353416933,2,48.3,244.9490203857422,0.08570025116205215,16,0.0,0.0,1575420030,,,,0,0.0,5,-61.3,41.3,-1453.382568359375,35.10756301879883,,,P,338429120453490
Raw,1713027215426,332433420000000,18,0.0,-1396730000006041703,-0.9915919303894043,15.706804333603941,-28.19281711970467,10.70334291328031,8,39,0.0,16399,579219296008279,3,44.7,-118.44568634033203,0.09299757331609726,16,0.0,0.0,1575420030,,,,0,0.0,5,-61.3,37.7,-1453.382568359375,35.10756301879883,,,P,338429120453490
Raw,1713027215426,332433420000000,18,0.0,-1396730000006041703,-0.9915919303894043,15.706804333603941,-28.19281711970467,10.70334291328031,8,42,0.0,16399,579219353135679,3,43.3,-40.17637634277344,0.05939195305109024,16,0.0,0.0,1575420030,,,,0,0.0,5,-61.3,36.3,-1453.382568359375,35.10756301879883,,,P,338429120453490
Raw,1713027215426,332433420000000,18,0.0,-1396730000006041703,-0.9915919303894043,15.706804333603941,-28.19281711970467,10.70334291328031,8,43,0.0,16399,579219351610803,8,35.4,-296.24920654296875,0.6979999542236328,16,0.0,0.0,1575420030,,,,0,0.0,5,-61.3,28.4,-1453.382568359375,35.10756301879883,,,P,338429120453490
