NMEA,$GPGSV,2,1,08,03,14,263,23,08,56,242,21,10,30,050,43,21,51,325,41,1*65,1713027213567
NMEA,$GPGSV,2,2,08,27,40,187,33,32,55,056,44,36,00,000,38,40,00,000,33,1*6B,1713027213567
NMEA,$GPGSV,2,1,06,03,14,263,16,08,56,242,23,10,30,050,31,27,40,187,23,8*6B,1713027213567
NMEA,$GPGSV,2,2,06,28,19,125,19,32,55,056,20,8*67,1713027213567
NMEA,$GLGSV,2,1,06,,00,000,38,70,40,232,17,69,64,009,40,84,73,029,27,1*76,1713027213567
NMEA,$GLGSV,2,2,06,85,23,330,40,68,15,031,17,1*78,1713027213567
NMEA,$GAGSV,2,1,07,04,28,203,23,10,35,319,23,11,10,308,17,12,57,338,27,7*74,1713027213567
NMEA,$GAGSV,2,2,07,19,74,117,27,24,06,259,20,33,51,093,31,7*4D,1713027213567
NMEA,$GAGSV,2,1,06,04,28,203,23,10,35,319,22,12,57,338,27,19,74,117,21,1*71,1713027213567
NMEA,$GAGSV,2,2,06,24,06,259,11,33,51,093,24,1*75,1713027213567
NMEA,$GBGSV,4,1,16,60,29,116,35,43,57,308,23,42,74,282,37,39,27,063,38,1*7E,1713027213567
NMEA,$GBGSV,4,2,16,34,68,161,43,33,23,237,22,21,43,038,34,16,28,072,38,1*73,1713027213567
NMEA,$GBGSV,4,3,16,14,49,246,27,13,18,070,38,12,38,144,35,11,82,295,38,1*7C,1713027213567
NMEA,$GBGSV,4,4,16,09,31,094,36,06,31,084,33,05,46,138,29,02,27,112,32,1*78,1713027213567
NMEA,$GBGSV,2,1,07,21,43,038,30,33,23,237,22,34,68,161,36,39,27,063,34,3*7C,1713027213567
NMEA,$GBGSV,2,2,07,42,74,282,35,43,57,308,27,44,15,144,18,3*4F,1713027213567
NMEA,$GBGSV,2,1,06,21,43,038,33,33,23,237,20,34,68,161,30,39,27,063,29,5*70,1713027213567
NMEA,$GBGSV,2,2,06,42,74,282,26,43,57,308,27,5*76,1713027213567
NMEA,$GNGSA,A,3,02,08,10,21,27,28,32,,,,,,0.8,0.5,0.6,1*3C,1713027213581
NMEA,$PSSGR,GSA,A,3,08,10,27,28,32,,,,,,,,0.8,0.5,0.6,1,8*49,1713027213581
NMEA,$GNGSA,A,3,69,84,85,,,,,,,,,,0.8,0.5,0.6,2*37,1713027213581
NMEA,$GNGSA,A,3,04,10,12,19,33,,,,,,,,0.8,0.5,0.6,3*36,1713027213581
NMEA,$PSSGR,GSA,A,3,304,310,312,319,333,,,,,,,,0.8,0.5,0.6,3,1*78,1713027213581
NMEA,$GNGSA,A,3,05,06,09,11,12,13,14,16,21,33,34,39,0.8,0.5,0.6,4*38,1713027213581
NMEA,$PSSGR,GSA,A,3,221,233,234,239,242,243,,,,,,,0.8,0.5,0.6,4,5*49,1713027213581
NMEA,$GNVTG,,T,,M,0.0,N,0.0,K,A*3D,1713027213581
NMEA,$GNDTM,W84,,0000.000000,N,00000.000000,E,0.000,W84*41,1713027213581
NMEA,$GNRMC,165334.00,A,3210.125752,N,03448.801926,E,0.0,,130424,5.1,E,A,V*74,1713027213581
NMEA,$GNGNS,165334.00,3210.125752,N,03448.801926,E,AAAANN,30,0.5,27.2,19.1,,,V*15,1713027213581
NMEA,$GNGGA,165334.00,3210.125752,N,03448.801926,E,1,12,0.5,27.2,M,19.1,M,,*45,1713027213581
NMEA,$PSMSG,magcal=PASS,bluesky=0*00,1713027213591
NMEA,$GPGSV,2,1,07,08,56,242,19,10,30,050,46,21,51,325,37,27,40,187,33,1*6A,1713027214566
NMEA,$GPGSV,2,2,07,32,55,056,45,36,00,000,40,40,00,000,34,1*52,1713027214566
NMEA,$GPGSV,2,1,06,03,14,263,16,08,56,242,26,10,30,050,35,27,40,187,25,8*6C,1713027214566
NMEA,$GPGSV,2,2,06,28,19,125,18,32,55,056,20,8*66,1713027214566
NMEA,$GLGSV,2,1,06,,00,000,38,70,40,232,17,69,64,009,41,84,73,029,26,1*76,1713027214566
NMEA,$GLGSV,2,2,06,85,23,330,39,68,15,031,17,1*76,1713027214566
NMEA,$GAGSV,2,1,07,04,28,203,21,10,35,319,23,11,10,308,17,12,57,338,30,7*70,1713027214566
NMEA,$GAGSV,2,2,07,19,74,117,32,24,06,259,20,33,51,093,38,7*40,1713027214566
NMEA,$GAGSV,2,1,06,04,28,203,24,10,35,319,25,12,57,338,28,19,74,117,24,1*7B,1713027214566
NMEA,$GAGSV,2,2,06,24,06,259,11,33,51,093,26,1*77,1713027214566
NMEA,$GBGSV,4,1,16,60,29,116,37,43,57,308,32,42,74,282,35,39,27,063,37,1*71,1713027214566
NMEA,$GBGSV,4,2,16,34,68,161,46,33,23,237,25,21,43,038,35,16,28,072,36,1*7E,1713027214566
NMEA,$GBGSV,4,3,16,14,49,246,29,13,18,070,38,12,38,144,36,11,82,295,38,1*71,1713027214566
NMEA,$GBGSV,4,4,16,09,31,094,41,06,31,084,34,05,46,138,29,02,27,112,35,1*78,1713027214566
NMEA,$GBGSV,2,1,07,21,43,038,33,33,23,237,25,34,68,161,42,39,27,063,37,3*78,1713027214566
NMEA,$GBGSV,2,2,07,42,74,282,35,43,57,308,27,44,15,144,18,3*4F,1713027214566
NMEA,$GBGSV,2,1,06,21,43,038,33,33,23,237,18,34,68,161,34,39,27,063,32,5*75,1713027214566
NMEA,$GBGSV,2,2,06,42,74,282,30,43,57,308,29,5*7F,1713027214566
NMEA,$GNGSA,A,3,02,08,10,21,27,28,32,,,,,,0.8,0.4,0.6,1*3D,1713027214580
NMEA,$PSSGR,GSA,A,3,08,10,27,28,32,,,,,,,,0.8,0.4,0.6,1,8*48,1713027214580
NMEA,$GNGSA,A,3,69,84,85,,,,,,,,,,0.8,0.4,0.6,2*36,1713027214580
NMEA,$GNGSA,A,3,04,10,12,19,33,,,,,,,,0.8,0.4,0.6,3*37,1713027214580
NMEA,$PSSGR,GSA,A,3,304,310,312,319,333,,,,,,,,0.8,0.4,0.6,3,1*79,1713027214580
NMEA,$GNGSA,A,3,05,06,09,11,12,13,14,16,21,33,34,39,0.8,0.4,0.6,4*39,1713027214580
NMEA,$PSSGR,GSA,A,3,221,233,234,239,242,243,,,,,,,0.8,0.4,0.6,4,5*48,1713027214580
NMEA,$GNVTG,,T,,M,0.0,N,0.0,K,A*3D,1713027214580
NMEA,$GNDTM,W84,,0000.000000,N,00000.000000,E,0.000,W84*41,1713027214580
NMEA,$GNRMC,165335.00,A,3210.125725,N,03448.802001,E,0.0,,130424,5.1,E,A,V*7A,1713027214580
NMEA,$GNGNS,165335.00,3210.125725,N,03448.802001,E,AAAANN,30,0.4,27.0,19.1,,,V*18,1713027214580
NMEA,$GNGGA,165335.00,3210.125725,N,03448.802001,E,1,12,0.4,27.0,M,19.1,M,,*48,1713027214580
NMEA,$PSMSG,magcal=PASS,bluesky=0*00,1713027214584
NMEA,$GPGSV,2,1,08,02,35,318,31,08,56,242,19,10,30,050,44,21,51,325,39,1*6A,1713027215566
NMEA,$GPGSV,2,2,08,27,40,187,33,32,55,056,45,36,00,000,38,40,00,000,34,1*6D,1713027215566
NMEA,$GPGSV,2,1,06,03,14,263,16,08,56,242,24,10,30,050,35,27,40,187,25,8*6E,1713027215566
NMEA,$GPGSV,2,2,06,28,19,125,18,32,55,056,20,8*66,1713027215566
NMEA,$GLGSV,2,1,06,,00,000,35,70,40,232,17,69,64,009,42,84,73,029,27,1*79,1713027215566
NMEA,$GLGSV,2,2,06,85,23,330,36,68,15,031,17,1*79,1713027215566
NMEA,$GAGSV,2,1,07,04,28,203,23,10,35,319,29,11,10,308,17,12,57,338,30,7*78,1713027215566
NMEA,$GAGSV,2,2,07,19,74,117,33,24,06,259,20,33,51,093,38,7*41,1713027215566
NMEA,$GAGSV,2,1,06,04,28,203,24,10,35,319,24,12,57,338,28,19,74,117,23,1*7D,1713027215566
NMEA,$GAGSV,2,2,06,24,06,259,11,33,51,093,27,1*76,1713027215566
NMEA,$GBGSV,4,1,16,60,29,116,37,43,57,308,31,42,74,282,35,39,27,063,36,1*73,1713027215566
NMEA,$GBGSV,4,2,16,34,68,161,45,33,23,237,25,21,43,038,33,16,28,072,36,1*7B,1713027215566
NMEA,$GBGSV,4,3,16,14,49,246,26,13,18,070,38,12,38,144,35,11,82,295,36,1*73,1713027215566
NMEA,$GBGSV,4,4,16,09,31,094,40,06,31,084,35,05,46,138,29,02,27,112,34,1*79,1713027215566
NMEA,$GBGSV,2,1,07,21,43,038,35,33,23,237,24,34,68,161,41,39,27,063,38,3*73,1713027215566
NMEA,$GBGSV,2,2,07,42,74,282,36,43,57,308,28,44,15,144,18,3*43,1713027215566
NMEA,$GBGSV,2,1,06,21,43,038,33,33,23,237,18,34,68,161,35,39,27,063,33,5*75,1713027215566
NMEA,$GBGSV,2,2,06,42,74,282,28,43,57,308,27,5*78,1713027215566
NMEA,$GNGSA,A,3,02,08,10,21,27,28,32,,,,,,0.7,0.4,0.6,1*32,1713027215581
NMEA,$PSSGR,GSA,A,3,08,10,27,28,32,,,,,,,,0.7,0.4,0.6,1,8*47,1713027215581
NMEA,$GNGSA,A,3,69,84,85,,,,,,,,,,0.7,0.4,0.6,2*39,1713027215581
NMEA,$GNGSA,A,3,04,10,12,19,33,,,,,,,,0.7,0.4,0.6,3*38,1713027215581
NMEA,$PSSGR,GSA,A,3,304,310,312,319,333,,,,,,,,0.7,0.4,0.6,3,1*76,1713027215581
NMEA,$GNGSA,A,3,05,06,09,11,12,13,14,16,21,33,34,39,0.7,0.4,0.6,4*36,1713027215581
NMEA,$PSSGR,GSA,A,3,221,233,234,239,242,243,,,,,,,0.7,0.4,0.6,4,5*47,1713027215581
NMEA,$GNVTG,,T,,M,0.0,N,0.0,K,A*3D,1713027215581
NMEA,$GNDTM,W84,,0000.000000,N,00000.000000,E,0.000,W84*41,1713027215581
NMEA,$GNRMC,165336.00,A,3210.125713,N,03448.802053,E,0.0,,130424,5.1,E,A,V*7B,1713027215581
NMEA,$GNGNS,165336.00,3210.125713,N,03448.802053,E,AAAANN,30,0.4,26.9,19.1,,,V*11,1713027215581
NMEA,$GNGGA,165336.00,3210.125713,N,03448.802053,E,1,12,0.4,26.9,M,19.1,M,,*41,1713027215581
NMEA,$PSMSG,magcal=PASS,bluesky=0*00,1713027215586
NMEA,$GPGSV,2,1,08,02,35,318,29,08,56,242,28,10,30,050,44,21,51,325,42,1*6D,1713027216563
NMEA,$GPGSV,2,2,08,27,40,187,37,32,55,056,44,36,00,000,40,40,00,000,34,1*67,1713027216563
NMEA,$GPGSV,2,1,06,03,14,263,16,08,56,242,27,10,30,050,35,27,40,187,25,8*6D,1713027216563
NMEA,$GPGSV,2,2,06,28,19,125,21,32,55,056,26,8*6A,1713027216563
NMEA,$GLGSV,2,1,06,,00,000,37,70,40,232,16,69,64,009,41,84,73,029,26,1*78,1713027216563
NMEA,$GLGSV,2,2,06,85,23,330,36,68,15,031,18,1*76,1713027216563
NMEA,$GAGSV,2,1,07,04,28,203,26,10,35,319,28,11,10,308,16,12,57,338,36,7*7B,1713027216563
NMEA,$GAGSV,2,2,07,19,74,117,33,24,06,259,20,33,51,093,39,7*40,1713027216563
NMEA,$GAGSV,2,1,06,04,28,203,27,10,35,319,23,12,57,338,29,19,74,117,23,1*78,1713027216563
NMEA,$GAGSV,2,2,06,24,06,259,11,33,51,093,29,1*78,1713027216563
NMEA,$GBGSV,4,1,16,60,29,116,37,43,57,308,33,42,74,282,37,39,27,063,36,1*73,1713027216563
NMEA,$GBGSV,4,2,16,34,68,161,45,33,23,237,27,21,43,038,38,16,28,072,39,1*7D,1713027216563
NMEA,$GBGSV,4,3,16,14,49,246,27,13,18,070,38,12,38,144,33,11,82,295,37,1*75,1713027216563
NMEA,$GBGSV,4,4,16,09,31,094,41,06,31,084,38,05,46,138,33,02,27,112,32,1*78,1713027216563
NMEA,$GBGSV,2,1,07,21,43,038,37,33,23,237,22,34,68,161,43,39,27,063,39,3*74,1713027216563
NMEA,$GBGSV,2,2,07,42,74,282,38,43,57,308,35,44,15,144,18,3*41,1713027216563
NMEA,$GBGSV,2,1,06,21,43,038,32,33,23,237,18,34,68,161,36,39,27,063,33,5*77,1713027216563
NMEA,$GBGSV,2,2,06,42,74,282,24,43,57,308,27,5*74,1713027216563
NMEA,$GNGSA,A,3,02,08,10,21,27,28,32,,,,,,0.7,0.4,0.6,1*32,1713027216574
NMEA,$PSSGR,GSA,A,3,08,10,27,28,32,,,,,,,,0.7,0.4,0.6,1,8*47,1713027216574
NMEA,$GNGSA,A,3,69,84,85,,,,,,,,,,0.7,0.4,0.6,2*39,1713027216574
NMEA,$GNGSA,A,3,04,10,12,19,33,,,,,,,,0.7,0.4,0.6,3*38,1713027216574
NMEA,$PSSGR,GSA,A,3,304,310,312,319,333,,,,,,,,0.7,0.4,0.6,3,1*76,1713027216574
NMEA,$GNGSA,A,3,05,06,09,11,12,13,14,16,21,33,34,39,0.7,0.4,0.6,4*36,1713027216574
NMEA,$PSSGR,GSA,A,3,221,233,234,239,242,243,,,,,,,0.7,0.4,0.6,4,5*47,1713027216574
NMEA,$GNVTG,66.7,T,61.6,M,0.9,N,1.7,K,A*34,1713027216574
NMEA,$GNDTM,W84,,0000.000000,N,00000.000000,E,0.000,W84*41,1713027216574
NMEA,$GNRMC,165337.00,A,3210.125821,N,03448.802387,E,0.9,66.7,130424,5.1,E,A,V*6E,1713027216574
NMEA,$GNGNS,165337.00,3210.125821,N,03448.802387,E,AAAANN,30,0.4,27.0,19.1,,,V*1C,1713027216574
NMEA,$GNGGA,165337.00,3210.125821,N,03448.802387,E,1,12,0.4,27.0,M,19.1,M,,*4C,1713027216574
NMEA,$PSMSG,magcal=PASS,bluesky=0*00,1713027216579
NMEA,$GPGSV,3,1,10,02,35,318,36,03,14,263,21,08,56,242,34,10,30,050,39,1*6B,1713027217568
NMEA,$GPGSV,3,2,10,21,51,325,40,27,40,187,35,28,19,125,31,32,55,056,44,1*6E,1713027217568
NMEA,$GPGSV,3,3,10,36,00,000,36,40,00,000,37,1*65,1713027217568
NMEA,$GPGSV,2,1,06,03,14,263,16,08,56,242,23,10,30,050,35,27,40,187,21,8*6D,1713027217568
NMEA,$GPGSV,2,2,06,28,19,125,23,32,55,056,28,8*66,1713027217568
NMEA,$GLGSV,2,1,06,,00,000,32,70,40,232,16,69,64,009,32,84,73,029,25,1*7A,1713027217568
NMEA,$GLGSV,2,2,06,85,23,330,33,68,15,031,24,1*7C,1713027217568
NMEA,$GAGSV,2,1,07,04,28,203,28,10,35,319,33,11,10,308,16,12,57,338,37,7*7E,1713027217568
NMEA,$GAGSV,2,2,07,19,74,117,31,24,06,259,15,33,51,093,41,7*4B,1713027217568
NMEA,$GAGSV,2,1,06,04,28,203,27,10,35,319,28,12,57,338,31,19,74,117,26,1*7F,1713027217568
NMEA,$GAGSV,2,2,06,24,06,259,11,33,51,093,31,1*71,1713027217568
NMEA,$GBGSV,4,1,16,60,29,116,39,43,57,308,40,42,74,282,39,39,27,063,39,1*78,1713027217568
NMEA,$GBGSV,4,2,16,34,68,161,40,33,23,237,25,21,43,038,41,16,28,072,41,1*7B,1713027217568
NMEA,$GBGSV,4,3,16,14,49,246,28,13,18,070,42,12,38,144,31,11,82,295,36,1*74,1713027217568
NMEA,$GBGSV,4,4,16,09,31,094,41,06,31,084,41,05,46,138,36,02,27,112,36,1*77,1713027217568
NMEA,$GBGSV,2,1,07,21,43,038,42,33,23,237,24,34,68,161,40,39,27,063,39,3*73,1713027217568
NMEA,$GBGSV,2,2,07,42,74,282,39,43,57,308,38,44,15,144,15,3*40,1713027217568
NMEA,$GBGSV,2,1,06,21,43,038,30,33,23,237,18,34,68,161,33,39,27,063,31,5*72,1713027217568
NMEA,$GBGSV,2,2,06,42,74,282,20,43,57,308,25,5*72,1713027217568
NMEA,$GNGSA,A,3,02,08,10,21,27,28,32,,,,,,0.7,0.4,0.6,1*32,1713027217588
NMEA,$PSSGR,GSA,A,3,08,10,27,28,32,,,,,,,,0.7,0.4,0.6,1,8*47,1713027217588
NMEA,$GNGSA,A,3,69,84,85,,,,,,,,,,0.7,0.4,0.6,2*39,1713027217588
NMEA,$GNGSA,A,3,04,10,12,19,33,,,,,,,,0.7,0.4,0.6,3*38,1713027217588
NMEA,$PSSGR,GSA,A,3,304,310,312,319,333,,,,,,,,0.7,0.4,0.6,3,1*76,1713027217588
NMEA,$GNGSA,A,3,05,06,09,11,12,13,14,16,21,33,34,39,0.7,0.4,0.6,4*36,1713027217588
NMEA,$PSSGR,GSA,A,3,221,233,234,239,242,243,,,,,,,0.7,0.4,0.6,4,5*47,1713027217588
NMEA,$GNVTG,52.9,T,47.8,M,3.7,N,6.9,K,A*33,1713027217588
NMEA,$GNDTM,W84,,0000.000000,N,00000.000000,E,0.000,W84*41,1713027217588
NMEA,$GNRMC,165338.00,A,3210.126300,N,03448.803110,E,3.7,52.9,130424,5.1,E,A,V*63,1713027217588
NMEA,$GNGNS,165338.00,3210.126300,N,03448.803110,E,AAAANN,30,0.4,26.8,19.1,,,V*1C,1713027217588
NMEA,$GNGGA,165338.00,3210.126300,N,03448.803110,E,1,12,0.4,26.8,M,19.1,M,,*4C,1713027217588
NMEA,$PSMSG,magcal=PASS,bluesky=0*00,1713027217599
NMEA,$GPGSV,3,1,09,02,35,318,40,08,56,242,31,10,30,050,36,21,51,325,42,1*6F,1713027218572
NMEA,$GPGSV,3,2,09,27,40,187,35,28,19,125,34,32,55,056,44,36,00,000,36,1*64,1713027218572
NMEA,$GPGSV,3,3,09,40,00,000,38,1*52,1713027218572
NMEA,$GPGSV,2,1,06,03,14,263,16,08,56,242,27,10,30,050,30,27,40,187,27,8*6A,1713027218572
NMEA,$GPGSV,2,2,06,28,19,125,24,32,55,056,28,8*61,1713027218572
NMEA,$GLGSV,2,1,06,,00,000,34,70,40,232,22,69,64,009,27,84,73,029,23,1*79,1713027218572
NMEA,$GLGSV,2,2,06,85,23,330,34,68,15,031,24,1*7B,1713027218572
NMEA,$GAGSV,2,1,07,04,28,203,24,10,35,319,37,11,10,308,16,12,57,338,32,7*73,1713027218572
NMEA,$GAGSV,2,2,07,19,74,117,32,24,06,259,15,33,51,093,39,7*47,1713027218572
NMEA,$GAGSV,2,1,06,04,28,203,21,10,35,319,26,12,57,338,30,19,74,117,31,1*70,1713027218572
NMEA,$GAGSV,2,2,06,24,06,259,11,33,51,093,26,1*77,1713027218572
NMEA,$GBGSV,5,1,17,60,29,116,39,44,15,144,23,43,57,308,43,42,74,282,38,1*7E,1713027218572
NMEA,$GBGSV,5,2,17,39,27,063,40,34,68,161,36,33,23,237,27,21,43,038,40,1*7A,1713027218572
NMEA,$GBGSV,5,3,17,16,28,072,42,14,49,246,29,13,18,070,40,12,38,144,38,1*71,1713027218572
NMEA,$GBGSV,5,4,17,11,82,295,34,09,31,094,38,06,31,084,40,05,46,138,41,1*7B,1713027218572
NMEA,$GBGSV,5,5,17,02,27,112,37,1*41,1713027218572
NMEA,$GBGSV,2,1,07,21,43,038,41,33,23,237,22,34,68,161,35,39,27,063,39,3*74,1713027218572
NMEA,$GBGSV,2,2,07,42,74,282,38,43,57,308,41,44,15,144,22,3*4B,1713027218572
NMEA,$GBGSV,2,1,06,21,43,038,33,33,23,237,17,34,68,161,32,39,27,063,31,5*7F,1713027218572
NMEA,$GBGSV,2,2,06,42,74,282,27,43,57,308,32,5*73,1713027218572
NMEA,$GNGSA,A,3,02,08,10,21,27,28,32,,,,,,0.7,0.4,0.6,1*32,1713027218592
NMEA,$PSSGR,GSA,A,3,08,10,27,28,32,,,,,,,,0.7,0.4,0.6,1,8*47,1713027218592
NMEA,$GNGSA,A,3,69,84,85,,,,,,,,,,0.7,0.4,0.6,2*39,1713027218592
NMEA,$GNGSA,A,3,04,10,12,19,33,,,,,,,,0.7,0.4,0.6,3*38,1713027218592
NMEA,$PSSGR,GSA,A,3,304,310,312,319,333,,,,,,,,0.7,0.4,0.6,3,1*76,1713027218592
NMEA,$GNGSA,A,3,05,06,09,11,12,13,14,16,21,33,34,39,0.7,0.4,0.6,4*36,1713027218592
NMEA,$PSSGR,GSA,A,3,221,233,234,239,242,243,,,,,,,0.7,0.4,0.6,4,5*47,1713027218592
NMEA,$GNVTG,35.3,T,30.2,M,3.2,N,6.0,K,A*3E,1713027218592
NMEA,$GNDTM,W84,,0000.000000,N,00000.000000,E,0.000,W84*41,1713027218592
NMEA,$GNRMC,165339.00,A,3210.127065,N,03448.803688,E,3.2,35.3,130424,5.1,E,A,V*6B,1713027218592
NMEA,$GNGNS,165339.00,3210.127065,N,03448.803688,E,AAAANN,30,0.4,26.8,19.1,,,V*1A,1713027218592
NMEA,$GNGGA,165339.00,3210.127065,N,03448.803688,E,1,12,0.4,26.8,M,19.1,M,,*4A,1713027218592
NMEA,$PSMSG,magcal=PASS,bluesky=0*00,1713027218603
NMEA,$GPGSV,3,1,09,02,35,318,41,08,56,242,32,10,30,050,36,21,51,325,39,1*61,1713027219576
NMEA,$GPGSV,3,2,09,27,40,187,37,28,19,125,32,32,55,056,46,36,00,000,36,1*62,1713027219576
NMEA,$GPGSV,3,3,09,40,00,000,37,1*5D,1713027219576
NMEA,$GPGSV,2,1,06,03,14,263,17,08,56,242,25,10,30,050,30,27,40,187,29,8*67,1713027219576
NMEA,$GPGSV,2,2,06,28,19,125,31,32,55,056,26,8*6B,1713027219576
NMEA,$GLGSV,2,1,07,,00,000,36,70,40,232,23,69,64,009,38,84,73,029,26,1*70,1713027219576
NMEA,$GLGSV,2,2,07,83,27,132,18,85,23,330,37,68,15,031,22,1*48,1713027219576
NMEA,$GAGSV,2,1,07,04,28,203,26,10,35,319,37,11,10,308,16,12,57,338,32,7*71,1713027219576
NMEA,$GAGSV,2,2,07,19,74,117,33,24,06,259,25,33,51,093,37,7*4B,1713027219576
NMEA,$GAGSV,2,1,05,04,28,203,21,10,35,319,24,12,57,338,31,19,74,117,32,1*73,1713027219576
NMEA,$GAGSV,2,2,05,33,51,093,32,1*4F,1713027219576
NMEA,$GBGSV,5,1,17,60,29,116,39,44,15,144,25,43,57,308,42,42,74,282,41,1*77,1713027219576
NMEA,$GBGSV,5,2,17,39,27,063,36,34,68,161,34,33,23,237,30,21,43,038,39,1*71,1713027219576
NMEA,$GBGSV,5,3,17,16,28,072,38,14,49,246,28,13,18,070,29,12,38,144,33,1*79,1713027219576
NMEA,$GBGSV,5,4,17,11,82,295,35,09,31,094,34,06,31,084,38,05,46,138,39,1*76,1713027219576
NMEA,$GBGSV,5,5,17,02,27,112,37,1*41,1713027219576
NMEA,$GBGSV,2,1,07,21,43,038,37,33,23,237,25,34,68,161,34,39,27,063,34,3*7E,1713027219576
NMEA,$GBGSV,2,2,07,42,74,282,41,43,57,308,41,44,15,144,22,3*45,1713027219576
NMEA,$GBGSV,2,1,06,21,43,038,33,33,23,237,17,34,68,161,30,39,27,063,30,5*7C,1713027219576
NMEA,$GBGSV,2,2,06,42,74,282,28,43,57,308,33,5*7D,1713027219576
NMEA,$GNGSA,A,3,02,08,10,21,27,28,32,,,,,,0.7,0.4,0.5,1*31,1713027219594
NMEA,$PSSGR,GSA,A,3,08,10,27,28,32,,,,,,,,0.7,0.4,0.5,1,8*44,1713027219594
NMEA,$GNGSA,A,3,69,84,85,,,,,,,,,,0.7,0.4,0.5,2*3A,1713027219594
NMEA,$GNGSA,A,3,04,10,12,19,24,33,,,,,,,0.7,0.4,0.5,3*3D,1713027219594
NMEA,$PSSGR,GSA,A,3,304,310,312,319,333,,,,,,,,0.7,0.4,0.5,3,1*75,1713027219594
NMEA,$GNGSA,A,3,05,06,09,11,12,13,14,16,21,33,34,39,0.7,0.4,0.5,4*35,1713027219594
NMEA,$PSSGR,GSA,A,3,221,233,234,239,242,243,,,,,,,0.7,0.4,0.5,4,5*44,1713027219594
NMEA,$GNVTG,11.6,T,6.5,M,2.4,N,4.4,K,A*0E,1713027219594
NMEA,$GNDTM,W84,,0000.000000,N,00000.000000,E,0.000,W84*41,1713027219594
NMEA,$GNRMC,165340.00,A,3210.127879,N,03448.803861,E,2.4,11.6,130424,5.1,E,A,V*6D,1713027219594
NMEA,$GNGNS,165340.00,3210.127879,N,03448.803861,E,AAAANN,31,0.4,27.3,19.1,,,V*13,1713027219594
NMEA,$GNGGA,165340.00,3210.127879,N,03448.803861,E,1,12,0.4,27.3,M,19.1,M,,*42,1713027219594
NMEA,$PSMSG,magcal=PASS,bluesky=0*00,1713027219602
NMEA,$GPGSV,3,1,10,02,35,318,38,03,14,263,32,08,56,242,39,10,30,050,34,1*67,1713027220574
NMEA,$GPGSV,3,2,10,21,51,325,45,27,40,187,34,28,19,125,34,32,55,056,43,1*68,1713027220574
NMEA,$GPGSV,3,3,10,36,00,000,36,40,00,000,35,1*67,1713027220574
NMEA,$GPGSV,2,1,06,03,14,263,32,08,56,242,29,10,30,050,23,27,40,187,22,8*65,1713027220574
NMEA,$GPGSV,2,2,06,28,19,125,30,32,55,056,26,8*6A,1713027220574
NMEA,$GLGSV,2,1,07,,00,000,41,70,40,232,23,69,64,009,41,84,73,029,26,1*7E,1713027220574
NMEA,$GLGSV,2,2,07,83,27,132,26,85,23,330,41,68,15,031,25,1*43,1713027220574
NMEA,$GAGSV,2,1,07,04,28,203,28,10,35,319,35,11,10,308,16,12,57,338,35,7*7A,1713027220574
NMEA,$GAGSV,2,2,07,19,74,117,31,24,06,259,26,33,51,093,43,7*49,1713027220574
NMEA,$GAGSV,2,1,06,04,28,203,21,10,35,319,31,12,57,338,28,19,74,117,27,1*78,1713027220574
NMEA,$GAGSV,2,2,06,24,06,259,24,33,51,093,39,1*7F,1713027220574
NMEA,$GBGSV,5,1,17,60,29,116,35,44,15,144,28,43,57,308,36,42,74,282,43,1*77,1713027220574
NMEA,$GBGSV,5,2,17,39,27,063,30,34,68,161,40,33,23,237,31,21,43,038,35,1*79,1713027220574
NMEA,$GBGSV,5,3,17,16,28,072,29,14,49,246,35,13,18,070,25,12,38,144,35,1*7F,1713027220574
NMEA,$GBGSV,5,4,17,11,82,295,30,09,31,094,31,06,31,084,34,05,46,138,37,1*74,1713027220574
NMEA,$GBGSV,5,5,17,02,27,112,37,1*41,1713027220574
NMEA,$GBGSV,2,1,07,21,43,038,33,33,23,237,32,34,68,161,33,39,27,063,30,3*7F,1713027220574
NMEA,$GBGSV,2,2,07,42,74,282,41,43,57,308,34,44,15,144,24,3*41,1713027220574
NMEA,$GBGSV,2,1,06,21,43,038,28,33,23,237,18,34,68,161,28,39,27,063,22,5*73,1713027220574
NMEA,$GBGSV,2,2,06,42,74,282,32,43,57,308,32,5*77,1713027220574
NMEA,$GNGSA,A,3,02,03,08,10,21,27,28,32,,,,,0.6,0.4,0.5,1*33,1713027220592
NMEA,$PSSGR,GSA,A,3,03,08,10,27,28,32,,,,,,,0.6,0.4,0.5,1,8*46,1713027220592
NMEA,$GNGSA,A,3,68,69,83,84,85,,,,,,,,0.6,0.4,0.5,2*3E,1713027220592
NMEA,$GNGSA,A,3,04,10,12,19,24,33,,,,,,,0.6,0.4,0.5,3*3C,1713027220592
NMEA,$PSSGR,GSA,A,3,304,310,312,319,324,333,,,,,,,0.6,0.4,0.5,3,1*41,1713027220592
NMEA,$GNGSA,A,3,05,06,09,11,12,13,14,16,21,33,34,39,0.6,0.4,0.5,4*34,1713027220592
NMEA,$PSSGR,GSA,A,3,221,234,239,242,243,,,,,,,,0.6,0.4,0.5,4,5*77,1713027220592
NMEA,$GNVTG,349.8,T,344.7,M,2.3,N,4.2,K,A*38,1713027220592
NMEA,$GNDTM,W84,,0000.000000,N,00000.000000,E,0.000,W84*41,1713027220592
NMEA,$GNRMC,165341.00,A,3210.128646,N,03448.803609,E,2.3,349.8,130424,5.1,E,A,V*56,1713027220592
NMEA,$GNGNS,165341.00,3210.128646,N,03448.803609,E,AAAANN,35,0.4,26.9,19.1,,,V*10,1713027220592
NMEA,$GNGGA,165341.00,3210.128646,N,03448.803609,E,1,12,0.4,26.9,M,19.1,M,,*45,1713027220592
NMEA,$PSMSG,magcal=PASS,bluesky=0*00,1713027220605
NMEA,$GPGSV,3,1,10,02,35,318,37,03,14,263,31,08,56,242,41,10,30,050,35,1*65,1713027221571
NMEA,$GPGSV,3,2,10,21,51,325,45,27,40,187,34,28,19,125,32,32,55,056,40,1*6D,1713027221571
NMEA,$GPGSV,3,3,10,36,00,000,34,40,00,000,33,1*63,1713027221571
NMEA,$GPGSV,2,1,06,03,14,263,23,08,56,242,33,10,30,050,26,27,40,187,27,8*6E,1713027221571
NMEA,$GPGSV,2,2,06,28,19,125,30,32,55,056,27,8*6B,1713027221571
NMEA,$GLGSV,2,1,07,,00,000,38,70,40,232,21,69,64,009,36,84,73,029,25,1*71,1713027221571
NMEA,$GLGSV,2,2,07,83,27,132,26,85,23,330,34,68,15,031,25,1*41,1713027221571
NMEA,$GAGSV,2,1,07,04,28,203,32,10,35,319,36,11,10,308,16,12,57,338,32,7*75,1713027221571
NMEA,$GAGSV,2,2,07,19,74,117,33,24,06,259,25,33,51,093,43,7*48,1713027221571
NMEA,$GAGSV,2,1,06,04,28,203,19,10,35,319,33,12,57,338,28,19,74,117,27,1*71,1713027221571
NMEA,$GAGSV,2,2,06,24,06,259,24,33,51,093,36,1*70,1713027221571
NMEA,$GBGSV,5,1,17,60,29,116,33,44,15,144,29,43,57,308,44,42,74,282,44,1*72,1713027221571
NMEA,$GBGSV,5,2,17,39,27,063,30,34,68,161,39,33,23,237,33,21,43,038,37,1*77,1713027221571
NMEA,$GBGSV,5,3,17,16,28,072,26,14,49,246,34,13,18,070,25,12,38,144,34,1*70,1713027221571
NMEA,$GBGSV,5,4,17,11,82,295,29,09,31,094,33,06,31,084,28,05,46,138,37,1*73,1713027221571
NMEA,$GBGSV,5,5,17,02,27,112,29,1*4E,1713027221571
NMEA,$GBGSV,2,1,07,21,43,038,35,33,23,237,30,34,68,161,33,39,27,063,27,3*7D,1713027221571
NMEA,$GBGSV,2,2,07,42,74,282,44,43,57,308,40,44,15,144,27,3*44,1713027221571
NMEA,$GBGSV,2,1,07,21,43,038,30,33,23,237,25,34,68,161,29,39,27,063,22,5*74,1713027221571
NMEA,$GBGSV,2,2,07,42,74,282,31,43,57,308,28,44,15,144,20,5*49,1713027221571
NMEA,$GNGSA,A,3,02,03,08,10,21,27,28,32,,,,,0.6,0.4,0.5,1*33,1713027221590
NMEA,$PSSGR,GSA,A,3,03,08,10,27,28,32,,,,,,,0.6,0.4,0.5,1,8*46,1713027221590
NMEA,$GNGSA,A,3,68,69,83,84,85,,,,,,,,0.6,0.4,0.5,2*3E,1713027221590
NMEA,$GNGSA,A,3,04,10,12,19,24,33,,,,,,,0.6,0.4,0.5,3*3C,1713027221590
NMEA,$PSSGR,GSA,A,3,304,310,312,319,324,333,,,,,,,0.6,0.4,0.5,3,1*41,1713027221590
NMEA,$GNGSA,A,3,05,06,09,11,12,13,14,16,21,33,34,39,0.6,0.4,0.5,4*34,1713027221590
NMEA,$PSSGR,GSA,A,3,221,234,239,242,243,,,,,,,,0.6,0.4,0.5,4,5*77,1713027221590
NMEA,$GNVTG,11.3,T,6.2,M,1.0,N,1.9,K,A*03,1713027221590
NMEA,$GNDTM,W84,,0000.000000,N,00000.000000,E,0.000,W84*41,1713027221590
NMEA,$GNRMC,165342.00,A,3210.129129,N,03448.803328,E,1.0,11.3,130424,5.1,E,A,V*69,1713027221590
NMEA,$GNGNS,165342.00,3210.129129,N,03448.803328,E,AAAANN,35,0.4,26.5,19.1,,,V*16,1713027221590
NMEA,$GNGGA,165342.00,3210.129129,N,03448.803328,E,1,12,0.4,26.5,M,19.1,M,,*43,1713027221590
NMEA,$PSMSG,magcal=PASS,bluesky=0*00,1713027221600
NMEA,$GPGSV,3,1,10,02,35,318,38,03,14,263,29,08,56,242,43,10,30,050,34,1*60,1713027222568
NMEA,$GPGSV,3,2,10,21,51,325,44,27,40,187,32,28,19,125,32,32,55,056,39,1*64,1713027222568
NMEA,$GPGSV,3,3,10,36,00,000,34,40,00,000,33,1*63,1713027222568
NMEA,$GPGSV,2,1,06,03,14,263,23,08,56,242,32,10,30,050,26,27,40,187,24,8*6C,1713027222568
NMEA,$GPGSV,2,2,06,28,19,125,21,32,55,056,27,8*6B,1713027222568
NMEA,$GLGSV,2,1,07,,00,000,37,70,40,232,27,69,64,009,28,84,73,029,26,1*74,1713027222568
NMEA,$GLGSV,2,2,07,83,27,132,26,85,23,330,29,68,15,031,25,1*4D,1713027222568
NMEA,$GAGSV,2,1,07,04,28,203,32,10,35,319,37,11,10,308,16,12,57,338,33,7*75,1713027222568
NMEA,$GAGSV,2,2,07,19,74,117,33,24,06,259,23,33,51,093,41,7*4C,1713027222568
NMEA,$GAGSV,2,1,06,04,28,203,24,10,35,319,33,12,57,338,29,19,74,117,27,1*7E,1713027222568
NMEA,$GAGSV,2,2,06,24,06,259,20,33,51,093,34,1*76,1713027222568
NMEA,$GBGSV,5,1,17,60,29,116,33,44,15,144,32,43,57,308,44,42,74,282,45,1*79,1713027222568
NMEA,$GBGSV,5,2,17,39,27,063,30,34,68,161,40,33,23,237,28,21,43,038,36,1*72,1713027222568
NMEA,$GBGSV,5,3,17,16,28,072,26,14,49,246,30,13,18,070,27,12,38,144,37,1*75,1713027222568
NMEA,$GBGSV,5,4,17,11,82,295,29,09,31,094,32,06,31,084,28,05,46,138,37,1*72,1713027222568
NMEA,$GBGSV,5,5,17,02,27,112,29,1*4E,1713027222568
NMEA,$GBGSV,2,1,07,21,43,038,38,33,23,237,29,34,68,161,31,39,27,063,22,3*7F,1713027222568
NMEA,$GBGSV,2,2,07,42,74,282,45,43,57,308,40,44,15,144,28,3*4A,1713027222568
NMEA,$GBGSV,2,1,07,21,43,038,27,33,23,237,27,34,68,161,27,39,27,063,23,5*7F,1713027222568
NMEA,$GBGSV,2,2,07,42,74,282,29,43,57,308,30,44,15,144,22,5*4B,1713027222568
NMEA,$GNGSA,A,3,02,03,08,10,21,27,28,32,,,,,0.6,0.4,0.5,1*33,1713027222589
NMEA,$PSSGR,GSA,A,3,03,08,10,27,28,32,,,,,,,0.6,0.4,0.5,1,8*46,1713027222589
NMEA,$GNGSA,A,3,68,69,70,83,84,85,,,,,,,0.6,0.4,0.5,2*39,1713027222589
NMEA,$GNGSA,A,3,04,10,12,19,24,33,,,,,,,0.6,0.4,0.5,3*3C,1713027222589
NMEA,$PSSGR,GSA,A,3,304,310,312,319,324,333,,,,,,,0.6,0.4,0.5,3,1*41,1713027222589
NMEA,$GNGSA,A,3,05,06,09,11,12,13,14,16,21,33,34,39,0.6,0.4,0.5,4*34,1713027222589
NMEA,$PSSGR,GSA,A,3,221,234,239,242,243,244,,,,,,,0.6,0.4,0.5,4,5*45,1713027222589
NMEA,$GNVTG,,T,,M,0.0,N,0.0,K,A*3D,1713027222589
NMEA,$GNDTM,W84,,0000.000000,N,00000.000000,E,0.000,W84*41,1713027222589
NMEA,$GNRMC,165343.00,A,3210.129379,N,03448.802952,E,0.0,,130424,5.1,E,A,V*75,1713027222589
NMEA,$GNGNS,165343.00,3210.129379,N,03448.802952,E,AAAANN,36,0.4,26.0,19.1,,,V*10,1713027222589
NMEA,$GNGGA,165343.00,3210.129379,N,03448.802952,E,1,12,0.4,26.0,M,19.1,M,,*46,1713027222589
NMEA,$PSMSG,magcal=PASS,bluesky=0*00,1713027222594
NMEA,$GPGSV,3,1,10,02,35,318,39,03,14,263,33,08,56,242,42,10,30,050,35,1*6A,1713027223567
NMEA,$GPGSV,3,2,10,21,51,325,45,27,40,187,34,28,19,125,30,32,55,056,44,1*6B,1713027223567
NMEA,$GPGSV,3,3,10,36,00,000,34,40,00,000,33,1*63,1713027223567
NMEA,$GPGSV,2,1,06,03,14,263,19,08,56,242,34,10,30,050,24,27,40,187,24,8*61,1713027223567
NMEA,$GPGSV,2,2,06,28,19,125,21,32,55,056,30,8*6D,1713027223567
NMEA,$GLGSV,2,1,07,,00,000,39,70,40,232,27,69,64,009,33,84,73,029,28,1*7E,1713027223567
NMEA,$GLGSV,2,2,07,83,27,132,24,85,23,330,36,68,15,031,21,1*45,1713027223567
NMEA,$GAGSV,2,1,07,04,28,203,31,10,35,319,37,11,10,308,16,12,57,338,32,7*77,1713027223567
NMEA,$GAGSV,2,2,07,19,74,117,32,24,06,259,24,33,51,093,41,7*4A,1713027223567
NMEA,$GAGSV,2,1,06,04,28,203,25,10,35,319,33,12,57,338,28,19,74,117,26,1*7F,1713027223567
NMEA,$GAGSV,2,2,06,24,06,259,20,33,51,093,32,1*70,1713027223567
NMEA,$GBGSV,5,1,17,60,29,116,33,44,15,144,30,43,57,308,45,42,74,282,45,1*7A,1713027223567
NMEA,$GBGSV,5,2,17,39,27,063,26,34,68,161,36,33,23,237,35,21,43,038,36,1*78,1713027223567
NMEA,$GBGSV,5,3,17,16,28,072,25,14,49,246,33,13,18,070,23,12,38,144,33,1*75,1713027223567
NMEA,$GBGSV,5,4,17,11,82,295,30,09,31,094,31,06,31,084,27,05,46,138,31,1*70,1713027223567
NMEA,$GBGSV,5,5,17,02,27,112,29,1*4E,1713027223567
NMEA,$GBGSV,2,1,07,21,43,038,35,33,23,237,32,34,68,161,33,39,27,063,24,3*7C,1713027223567
NMEA,$GBGSV,2,2,07,42,74,282,46,43,57,308,41,44,15,144,26,3*46,1713027223567
NMEA,$GBGSV,2,1,07,21,43,038,29,33,23,237,26,34,68,161,27,39,27,063,23,5*70,1713027223567
NMEA,$GBGSV,2,2,07,42,74,282,29,43,57,308,32,44,15,144,22,5*49,1713027223567
NMEA,$GNGSA,A,3,02,03,08,10,21,27,28,32,,,,,0.6,0.4,0.5,1*33,1713027223584
NMEA,$PSSGR,GSA,A,3,03,08,10,27,28,32,,,,,,,0.6,0.4,0.5,1,8*46,1713027223584
NMEA,$GNGSA,A,3,68,69,70,83,84,85,,,,,,,0.6,0.4,0.5,2*39,1713027223584
NMEA,$GNGSA,A,3,04,10,12,19,24,33,,,,,,,0.6,0.4,0.5,3*3C,1713027223584
NMEA,$PSSGR,GSA,A,3,304,310,312,319,324,333,,,,,,,0.6,0.4,0.5,3,1*41,1713027223584
NMEA,$GNGSA,A,3,05,06,09,11,12,13,14,16,21,33,34,39,0.6,0.4,0.5,4*34,1713027223584
NMEA,$PSSGR,GSA,A,3,221,234,239,242,243,244,,,,,,,0.6,0.4,0.5,4,5*45,1713027223584
NMEA,$GNVTG,11.4,T,6.3,M,1.3,N,2.4,K,A*08,1713027223584
NMEA,$GNDTM,W84,,0000.000000,N,00000.000000,E,0.000,W84*41,1713027223584
NMEA,$GNRMC,165344.00,A,3210.129355,N,03448.802753,E,1.3,11.4,130424,5.1,E,A,V*6B,1713027223584
NMEA,$GNGNS,165344.00,3210.129355,N,03448.802753,E,AAAANN,36,0.4,25.9,19.1,,,V*1C,1713027223584
NMEA,$GNGGA,165344.00,3210.129355,N,03448.802753,E,1,12,0.4,25.9,M,19.1,M,,*4A,1713027223584
NMEA,$PSMSG,magcal=PASS,bluesky=0*00,1713027223588
NMEA,$GPGSV,3,1,09,02,35,318,39,03,14,263,33,08,56,242,40,10,30,050,30,1*65,1713027224570
NMEA,$GPGSV,3,2,09,21,51,325,36,27,40,187,35,32,55,056,46,36,00,000,34,1*61,1713027224570
NMEA,$GPGSV,3,3,09,40,00,000,34,1*5E,1713027224570
NMEA,$GPGSV,2,1,06,03,14,263,23,08,56,242,35,10,30,050,21,27,40,187,22,8*6A,1713027224570
NMEA,$GPGSV,2,2,06,28,19,125,27,32,55,056,32,8*69,1713027224570
NMEA,$GLGSV,2,1,07,,00,000,38,70,40,232,23,69,64,009,27,84,73,029,28,1*7E,1713027224570
NMEA,$GLGSV,2,2,07,83,27,132,24,85,23,330,39,68,15,031,21,1*4A,1713027224570
NMEA,$GAGSV,2,1,07,04,28,203,28,10,35,319,34,11,10,308,16,12,57,338,32,7*7C,1713027224570
NMEA,$GAGSV,2,2,07,19,74,117,28,24,06,259,22,33,51,093,36,7*47,1713027224570
NMEA,$GAGSV,2,1,06,04,28,203,23,10,35,319,33,12,57,338,23,19,74,117,26,1*72,1713027224570
NMEA,$GAGSV,2,2,06,24,06,259,20,33,51,093,32,1*70,1713027224570
NMEA,$GBGSV,5,1,17,60,29,116,33,44,15,144,31,43,57,308,45,42,74,282,44,1*7A,1713027224570
NMEA,$GBGSV,5,2,17,39,27,063,30,34,68,161,33,33,23,237,28,21,43,038,36,1*76,1713027224570
NMEA,$GBGSV,5,3,17,16,28,072,31,14,49,246,32,13,18,070,23,12,38,144,34,1*76,1713027224570
NMEA,$GBGSV,5,4,17,11,82,295,32,09,31,094,27,06,31,084,30,05,46,138,31,1*73,1713027224570
NMEA,$GBGSV,5,5,17,02,27,112,25,1*42,1713027224570
NMEA,$GBGSV,2,1,07,21,43,038,35,33,23,237,28,34,68,161,30,39,27,063,29,3*79,1713027224570
NMEA,$GBGSV,2,2,07,42,74,282,41,43,57,308,39,44,15,144,27,3*4F,1713027224570
NMEA,$GBGSV,2,1,07,21,43,038,29,33,23,237,26,34,68,161,24,39,27,063,23,5*73,1713027224570
NMEA,$GBGSV,2,2,07,42,74,282,30,43,57,308,31,44,15,144,22,5*42,1713027224570
NMEA,$GNGSA,A,3,02,03,08,10,21,27,28,32,,,,,0.6,0.4,0.5,1*33,1713027224589
NMEA,$PSSGR,GSA,A,3,03,08,10,27,28,32,,,,,,,0.6,0.4,0.5,1,8*46,1713027224589
NMEA,$GNGSA,A,3,68,69,70,83,84,85,,,,,,,0.6,0.4,0.5,2*39,1713027224589
NMEA,$GNGSA,A,3,04,10,12,19,24,33,,,,,,,0.6,0.4,0.5,3*3C,1713027224589
NMEA,$PSSGR,GSA,A,3,304,310,312,319,324,333,,,,,,,0.6,0.4,0.5,3,1*41,1713027224589
NMEA,$GNGSA,A,3,05,06,09,11,12,13,14,16,21,33,34,39,0.6,0.4,0.5,4*34,1713027224589
NMEA,$PSSGR,GSA,A,3,221,234,239,242,243,244,,,,,,,0.6,0.4,0.5,4,5*45,1713027224589
NMEA,$GNVTG,199.8,T,194.7,M,2.9,N,5.3,K,A*32,1713027224589
NMEA,$GNDTM,W84,,0000.000000,N,00000.000000,E,0.000,W84*41,1713027224589
NMEA,$GNRMC,165345.00,A,3210.128686,N,03448.802448,E,2.9,199.8,130424,5.1,E,A,V*5D,1713027224589
NMEA,$GNGNS,165345.00,3210.128686,N,03448.802448,E,AAAANN,36,0.4,25.7,19.1,,,V*10,1713027224589
NMEA,$GNGGA,165345.00,3210.128686,N,03448.802448,E,1,12,0.4,25.7,M,19.1,M,,*46,1713027224589
NMEA,$PSMSG,magcal=PASS,bluesky=0*00,1713027224600
NMEA,$GPGSV,2,1,08,02,35,318,40,08,56,242,43,10,30,050,29,21,51,325,42,1*64,1713027225572
NMEA,$GPGSV,2,2,08,27,40,187,33,32,55,056,48,36,00,000,33,40,00,000,34,1*6B,1713027225572
NMEA,$GPGSV,2,1,06,03,14,263,23,08,56,242,38,10,30,050,21,27,40,187,29,8*6C,1713027225572
NMEA,$GPGSV,2,2,06,28,19,125,33,32,55,056,37,8*69,1713027225572
NMEA,$GLGSV,2,1,07,,00,000,43,70,40,232,24,69,64,009,40,84,73,029,26,1*7A,1713027225572
NMEA,$GLGSV,2,2,07,83,27,132,24,85,23,330,43,68,15,031,21,1*47,1713027225572
NMEA,$GAGSV,2,1,07,04,28,203,35,10,35,319,40,11,10,308,16,12,57,338,36,7*77,1713027225572
NMEA,$GAGSV,2,2,07,19,74,117,30,24,06,259,31,33,51,093,35,7*4F,1713027225572
NMEA,$GAGSV,2,1,06,04,28,203,25,10,35,319,37,12,57,338,26,19,74,117,20,1*73,1713027225572
NMEA,$GAGSV,2,2,06,24,06,259,18,33,51,093,23,1*7B,1713027225572
NMEA,$GBGSV,4,1,16,60,29,116,36,44,15,144,29,43,57,308,44,42,74,283,41,1*73,1713027225572
NMEA,$GBGSV,4,2,16,39,27,063,30,34,68,161,34,33,23,237,24,21,43,038,37,1*7C,1713027225572
NMEA,$GBGSV,4,3,16,16,28,072,30,14,49,246,42,13,18,070,25,12,38,144,30,1*72,1713027225572
NMEA,$GBGSV,4,4,16,11,82,295,34,09,31,094,33,05,46,138,31,02,27,112,25,1*79,1713027225572
NMEA,$GBGSV,2,1,07,21,43,038,37,33,23,237,29,34,68,161,27,39,27,063,30,3*74,1713027225572
NMEA,$GBGSV,2,2,07,42,74,283,41,43,57,308,37,44,15,144,23,3*44,1713027225572
NMEA,$GBGSV,2,1,07,21,43,038,22,33,23,237,22,34,68,161,22,39,27,063,18,5*72,1713027225572
NMEA,$GBGSV,2,2,07,42,74,283,33,43,57,308,31,44,15,144,22,5*40,1713027225572
NMEA,$GNGSA,A,3,02,03,08,10,21,27,28,32,,,,,0.6,0.4,0.5,1*33,1713027225591
NMEA,$PSSGR,GSA,A,3,03,08,10,27,28,32,,,,,,,0.6,0.4,0.5,1,8*46,1713027225591
NMEA,$GNGSA,A,3,68,69,70,83,84,85,,,,,,,0.6,0.4,0.5,2*39,1713027225591
NMEA,$GNGSA,A,3,04,10,12,19,24,33,,,,,,,0.6,0.4,0.5,3*3C,1713027225591
NMEA,$PSSGR,GSA,A,3,304,310,312,319,324,333,,,,,,,0.6,0.4,0.5,3,1*41,1713027225591
NMEA,$GNGSA,A,3,05,06,09,11,12,13,14,16,21,33,34,39,0.6,0.4,0.5,4*34,1713027225591
NMEA,$PSSGR,GSA,A,3,221,234,239,242,243,244,,,,,,,0.6,0.4,0.5,4,5*45,1713027225591
NMEA,$GNVTG,11.4,T,6.3,M,1.7,N,3.1,K,A*08,1713027225591
NMEA,$GNDTM,W84,,0000.000000,N,00000.000000,E,0.000,W84*41,1713027225591
NMEA,$GNRMC,165346.00,A,3210.128152,N,03448.802240,E,1.7,11.4,130424,5.1,E,A,V*6E,1713027225591
NMEA,$GNGNS,165346.00,3210.128152,N,03448.802240,E,AAAANN,36,0.4,25.9,19.1,,,V*1D,1713027225591
NMEA,$GNGGA,165346.00,3210.128152,N,03448.802240,E,1,12,0.4,25.9,M,19.1,M,,*4B,1713027225591
NMEA,$PSMSG,magcal=PASS,bluesky=0*00,1713027225598
NMEA,$GPGSV,3,1,09,02,35,318,36,03,14,263,28,08,56,242,44,10,30,050,31,1*65,1713027226566
NMEA,$GPGSV,3,2,09,21,51,325,42,27,40,187,32,32,55,056,46,36,00,000,39,1*68,1713027226566
NMEA,$GPGSV,3,3,09,40,00,000,34,1*5E,1713027226566
NMEA,$GPGSV,2,1,06,03,14,263,23,08,56,242,39,10,30,050,23,27,40,187,29,8*6F,1713027226566
NMEA,$GPGSV,2,2,06,28,19,125,24,32,55,056,36,8*6E,1713027226566
NMEA,$GLGSV,2,1,07,,00,000,45,70,40,232,25,69,64,009,40,84,73,029,27,1*7C,1713027226566
NMEA,$GLGSV,2,2,07,83,27,132,22,85,23,330,46,68,15,031,21,1*44,1713027226566
NMEA,$GAGSV,2,1,07,04,28,203,37,10,35,319,33,11,10,308,19,12,57,338,36,7*7E,1713027226566
NMEA,$GAGSV,2,2,07,19,74,117,32,24,06,259,25,33,51,093,33,7*4E,1713027226566
NMEA,$GAGSV,2,1,06,04,28,203,26,10,35,319,38,12,57,338,22,19,74,117,23,1*78,1713027226566
NMEA,$GAGSV,2,2,06,24,06,259,18,33,51,093,23,1*7B,1713027226566
NMEA,$GBGSV,5,1,17,60,29,116,36,44,15,144,26,43,57,308,38,42,74,283,40,1*76,1713027226566
NMEA,$GBGSV,5,2,17,39,27,063,33,34,68,161,38,33,23,237,29,21,43,038,41,1*7F,1713027226566
NMEA,$GBGSV,5,3,17,16,28,072,31,14,49,246,39,13,18,070,30,12,38,144,24,1*7E,1713027226566
NMEA,$GBGSV,5,4,17,11,82,295,35,09,31,094,34,06,31,084,31,05,46,138,31,1*77,1713027226566
NMEA,$GBGSV,5,5,17,02,27,112,25,1*42,1713027226566
NMEA,$GBGSV,2,1,07,21,43,038,41,33,23,237,27,34,68,161,35,39,27,063,33,3*7B,1713027226566
NMEA,$GBGSV,2,2,07,42,74,283,41,43,57,308,30,44,15,144,23,3*43,1713027226566
NMEA,$GBGSV,2,1,07,21,43,038,34,33,23,237,22,34,68,161,22,39,27,063,23,5*7D,1713027226566
NMEA,$GBGSV,2,2,07,42,74,283,32,43,57,308,35,44,15,144,22,5*45,1713027226566
NMEA,$GNGSA,A,3,02,03,08,10,21,27,28,32,,,,,0.6,0.4,0.5,1*33,1713027226589
NMEA,$PSSGR,GSA,A,3,03,08,10,27,28,32,,,,,,,0.6,0.4,0.5,1,8*46,1713027226589
NMEA,$GNGSA,A,3,69,70,83,84,85,,,,,,,,0.6,0.4,0.5,2*37,1713027226589
NMEA,$GNGSA,A,3,04,10,12,19,24,33,,,,,,,0.6,0.4,0.5,3*3C,1713027226589
NMEA,$PSSGR,GSA,A,3,304,310,312,319,324,333,,,,,,,0.6,0.4,0.5,3,1*41,1713027226589
NMEA,$GNGSA,A,3,05,06,09,11,12,13,14,16,21,33,34,39,0.6,0.4,0.5,4*34,1713027226589
NMEA,$PSSGR,GSA,A,3,221,234,239,242,243,244,,,,,,,0.6,0.4,0.5,4,5*45,1713027226589
NMEA,$GNVTG,11.4,T,6.3,M,0.8,N,1.4,K,A*01,1713027226589
NMEA,$GNDTM,W84,,0000.000000,N,00000.000000,E,0.000,W84*41,1713027226589
NMEA,$GNRMC,165347.00,A,3210.127891,N,03448.802183,E,0.8,11.4,130424,5.1,E,A,V*64,1713027226589
NMEA,$GNGNS,165347.00,3210.127891,N,03448.802183,E,AAAANN,35,0.4,25.8,19.1,,,V*1B,1713027226589
NMEA,$GNGGA,165347.00,3210.127891,N,03448.802183,E,1,12,0.4,25.8,M,19.1,M,,*4E,1713027226589
NMEA,$PSMSG,magcal=PASS,bluesky=0*00,1713027226621
NMEA,$GPGSV,3,1,09,02,35,318,37,03,14,263,24,08,56,242,43,10,30,050,34,1*6A,1713027227573
NMEA,$GPGSV,3,2,09,21,51,325,42,27,40,187,32,32,55,056,42,36,00,000,40,1*62,1713027227573
NMEA,$GPGSV,3,3,09,40,00,000,34,1*5E,1713027227573
NMEA,$GPGSV,2,1,06,03,14,263,18,08,56,242,39,10,30,050,27,27,40,187,30,8*6B,1713027227573
NMEA,$GPGSV,2,2,06,28,19,125,23,32,55,056,36,8*69,1713027227573
NMEA,$GLGSV,2,1,07,,00,000,43,70,40,232,28,69,64,009,40,84,73,029,27,1*77,1713027227573
NMEA,$GLGSV,2,2,07,83,27,132,22,85,23,330,45,68,15,031,21,1*47,1713027227573
NMEA,$GAGSV,2,1,07,04,28,203,34,10,35,319,36,11,10,308,19,12,57,338,35,7*7B,1713027227573
NMEA,$GAGSV,2,2,07,19,74,117,31,24,06,259,29,33,51,093,26,7*45,1713027227573
NMEA,$GAGSV,2,1,06,04,28,203,26,10,35,319,36,12,57,338,22,19,74,117,20,1*75,1713027227573
NMEA,$GAGSV,2,2,06,24,06,259,18,33,51,093,24,1*7C,1713027227573
NMEA,$GBGSV,5,1,17,60,29,116,36,44,15,144,26,43,57,308,38,42,74,283,40,1*76,1713027227573
NMEA,$GBGSV,5,2,17,39,27,063,30,34,68,161,38,33,23,237,31,21,43,038,44,1*70,1713027227573
NMEA,$GBGSV,5,3,17,16,28,072,29,14,49,246,40,13,18,070,24,12,38,144,25,1*7D,1713027227573
NMEA,$GBGSV,5,4,17,11,82,295,31,09,31,094,33,06,31,084,33,05,46,138,31,1*76,1713027227573
NMEA,$GBGSV,5,5,17,02,27,112,27,1*40,1713027227573
NMEA,$GBGSV,2,1,07,21,43,038,37,33,23,237,31,34,68,161,35,39,27,063,25,3*7A,1713027227573
NMEA,$GBGSV,2,2,07,42,74,283,39,43,57,308,33,44,15,144,24,3*48,1713027227573
NMEA,$GBGSV,2,1,07,21,43,038,36,33,23,237,20,34,68,161,18,39,27,063,26,5*71,1713027227573
NMEA,$GBGSV,2,2,07,42,74,283,34,43,57,308,33,44,15,144,22,5*45,1713027227573
NMEA,$GNGSA,A,3,02,03,08,10,21,27,28,32,,,,,0.6,0.4,0.5,1*33,1713027227598
NMEA,$PSSGR,GSA,A,3,03,08,10,27,28,32,,,,,,,0.6,0.4,0.5,1,8*46,1713027227598
NMEA,$GNGSA,A,3,69,70,84,85,,,,,,,,,0.6,0.4,0.5,2*3C,1713027227598
NMEA,$GNGSA,A,3,04,10,12,19,24,33,,,,,,,0.6,0.4,0.5,3*3C,1713027227598
NMEA,$PSSGR,GSA,A,3,304,310,312,319,324,333,,,,,,,0.6,0.4,0.5,3,1*41,1713027227598
NMEA,$GNGSA,A,3,05,06,09,11,12,13,14,16,21,33,34,39,0.6,0.4,0.5,4*34,1713027227598
NMEA,$PSSGR,GSA,A,3,221,234,239,242,243,244,,,,,,,0.6,0.4,0.5,4,5*45,1713027227598
NMEA,$GNVTG,,T,,M,0.0,N,0.0,K,A*3D,1713027227598
NMEA,$GNDTM,W84,,0000.000000,N,00000.000000,E,0.000,W84*41,1713027227598
NMEA,$GNRMC,165348.00,A,3210.127822,N,03448.802188,E,0.0,,130424,5.1,E,A,V*7A,1713027227598
NMEA,$GNGNS,165348.00,3210.127822,N,03448.802188,E,AAAANN,34,0.4,25.7,19.1,,,V*19,1713027227598
NMEA,$GNGGA,165348.00,3210.127822,N,03448.802188,E,1,12,0.4,25.7,M,19.1,M,,*4D,1713027227598
NMEA,$PSMSG,magcal=PASS,bluesky=0*00,1713027227613
NMEA,$GPGSV,3,1,10,02,35,318,38,03,14,263,31,08,56,242,43,10,30,050,34,1*69,1713027228565
NMEA,$GPGSV,3,2,10,21,51,325,41,27,40,187,31,28,19,125,30,32,55,056,41,1*6F,1713027228565
NMEA,$GPGSV,3,3,10,36,00,000,38,40,00,000,34,1*68,1713027228565
NMEA,$GPGSV,2,1,06,03,14,263,24,08,56,242,38,10,30,050,24,27,40,187,32,8*64,1713027228565
NMEA,$GPGSV,2,2,06,28,19,125,23,32,55,056,35,8*6A,1713027228565
NMEA,$GLGSV,2,1,07,,00,000,43,70,40,232,29,69,64,009,39,84,73,029,26,1*79,1713027228565
NMEA,$GLGSV,2,2,07,83,27,132,22,85,23,330,45,68,15,031,20,1*46,1713027228565
NMEA,$GAGSV,2,1,07,04,28,203,38,10,35,319,33,11,10,308,19,12,57,338,35,7*72,1713027228565
NMEA,$GAGSV,2,2,07,19,74,117,34,24,06,259,32,33,51,093,34,7*49,1713027228565
NMEA,$GAGSV,2,1,06,04,28,203,27,10,35,319,34,12,57,338,19,19,74,117,20,1*7E,1713027228565
NMEA,$GAGSV,2,2,06,24,06,259,18,33,51,093,23,1*7B,1713027228565
NMEA,$GBGSV,5,1,17,60,29,116,31,44,15,144,25,43,57,308,40,42,74,283,39,1*73,1713027228565
NMEA,$GBGSV,5,2,17,39,27,063,29,34,68,161,39,33,23,237,28,21,43,038,44,1*71,1713027228565
NMEA,$GBGSV,5,3,17,16,28,072,24,14,49,246,37,13,18,070,26,12,38,144,27,1*70,1713027228565
NMEA,$GBGSV,5,4,17,11,82,295,33,09,31,094,33,06,31,084,34,05,46,138,28,1*7B,1713027228565
NMEA,$GBGSV,5,5,17,02,27,112,27,1*40,1713027228565
NMEA,$GBGSV,2,1,07,21,43,038,40,33,23,237,28,34,68,161,35,39,27,063,27,3*70,1713027228565
NMEA,$GBGSV,2,2,07,42,74,283,40,43,57,308,33,44,15,144,22,3*40,1713027228565
NMEA,$GBGSV,2,1,07,21,43,038,36,33,23,237,20,34,68,161,21,39,27,063,28,5*75,1713027228565
NMEA,$GBGSV,2,2,07,42,74,283,34,43,57,308,30,44,15,144,22,5*46,1713027228565
NMEA,$GNGSA,A,3,02,03,08,10,21,27,28,32,,,,,0.6,0.4,0.5,1*33,1713027228585
NMEA,$PSSGR,GSA,A,3,03,08,10,27,28,32,,,,,,,0.6,0.4,0.5,1,8*46,1713027228585
NMEA,$GNGSA,A,3,69,70,84,85,,,,,,,,,0.6,0.4,0.5,2*3C,1713027228585
NMEA,$GNGSA,A,3,04,10,12,19,24,33,,,,,,,0.6,0.4,0.5,3*3C,1713027228585
NMEA,$PSSGR,GSA,A,3,304,310,312,319,333,,,,,,,,0.6,0.4,0.5,3,1*74,1713027228585
NMEA,$GNGSA,A,3,05,06,09,11,12,13,14,16,21,33,34,39,0.6,0.4,0.5,4*34,1713027228585
NMEA,$PSSGR,GSA,A,3,221,234,239,242,243,,,,,,,,0.6,0.4,0.5,4,5*77,1713027228585
NMEA,$GNVTG,307.1,T,302.0,M,1.5,N,2.8,K,A*37,1713027228585
NMEA,$GNDTM,W84,,0000.000000,N,00000.000000,E,0.000,W84*41,1713027228585
NMEA,$GNRMC,165349.00,A,3210.127840,N,03448.801838,E,1.5,307.1,130424,5.1,E,A,V*51,1713027228585
NMEA,$GNGNS,165349.00,3210.127840,N,03448.801838,E,AAAANN,34,0.4,25.5,19.1,,,V*1F,1713027228585
NMEA,$GNGGA,165349.00,3210.127840,N,03448.801838,E,1,12,0.4,25.5,M,19.1,M,,*4B,1713027228585
NMEA,$PSMSG,magcal=PASS,bluesky=0*00,1713027228589
NMEA,$GPGSV,3,1,10,02,35,318,37,03,14,263,36,08,56,242,37,10,30,050,32,1*64,1713027229568
NMEA,$GPGSV,3,2,10,21,52,326,45,27,40,187,34,28,19,125,28,32,54,056,41,1*66,1713027229568
NMEA,$GPGSV,3,3,10,36,00,000,36,40,00,000,34,1*66,1713027229568
NMEA,$GPGSV,2,1,06,03,14,263,30,08,56,242,35,10,30,050,27,27,40,187,29,8*65,1713027229568
NMEA,$GPGSV,2,2,06,28,19,125,25,32,54,056,28,8*61,1713027229568
NMEA,$GLGSV,2,1,07,,00,000,41,70,40,232,30,69,64,009,38,84,73,029,26,1*72,1713027229568
NMEA,$GLGSV,2,2,07,83,27,132,22,85,23,330,41,68,15,031,22,1*40,1713027229568
NMEA,$GAGSV,2,1,07,04,28,203,30,10,35,319,34,11,10,308,19,12,57,338,36,7*7E,1713027229568
NMEA,$GAGSV,2,2,07,19,74,117,31,24,06,259,32,33,51,093,31,7*49,1713027229568
NMEA,$GAGSV,2,1,06,04,28,203,26,10,35,319,35,12,57,338,25,19,74,117,20,1*71,1713027229568
NMEA,$GAGSV,2,2,06,24,06,259,20,33,51,093,24,1*77,1713027229568
NMEA,$GBGSV,5,1,17,60,29,116,31,44,15,144,24,43,57,308,42,42,74,283,41,1*7F,1713027229568
NMEA,$GBGSV,5,2,17,39,27,063,30,34,68,161,41,33,23,237,30,21,43,038,44,1*7F,1713027229568
NMEA,$GBGSV,5,3,17,16,28,072,30,14,49,246,42,13,18,070,24,12,38,144,29,1*7B,1713027229568
NMEA,$GBGSV,5,4,17,11,82,295,33,09,31,094,29,06,31,084,31,05,46,138,28,1*75,1713027229568
NMEA,$GBGSV,5,5,17,02,27,112,27,1*40,1713027229568
NMEA,$GBGSV,2,1,07,21,43,038,40,33,23,237,26,34,68,161,36,39,27,063,26,3*7C,1713027229568
NMEA,$GBGSV,2,2,07,42,74,283,34,43,57,308,42,44,15,144,22,3*45,1713027229568
NMEA,$GBGSV,2,1,07,21,43,038,28,33,23,237,23,34,68,161,22,39,27,063,24,5*76,1713027229568
NMEA,$GBGSV,2,2,07,42,74,283,33,43,57,308,24,44,15,144,22,5*44,1713027229568
NMEA,$GNGSA,A,3,02,03,08,10,21,27,28,32,,,,,0.6,0.4,0.5,1*33,1713027229586
NMEA,$PSSGR,GSA,A,3,03,08,10,27,28,32,,,,,,,0.6,0.4,0.5,1,8*46,1713027229586
NMEA,$GNGSA,A,3,69,70,84,85,,,,,,,,,0.6,0.4,0.5,2*3C,1713027229586
NMEA,$GNGSA,A,3,04,10,12,19,24,33,,,,,,,0.6,0.4,0.5,3*3C,1713027229586
NMEA,$PSSGR,GSA,A,3,304,310,312,319,333,,,,,,,,0.6,0.4,0.5,3,1*74,1713027229586
NMEA,$GNGSA,A,3,05,06,09,11,12,13,14,16,21,33,34,39,0.6,0.4,0.5,4*34,1713027229586
NMEA,$PSSGR,GSA,A,3,221,234,239,242,243,,,,,,,,0.6,0.4,0.5,4,5*77,1713027229586
NMEA,$GNVTG,281.3,T,276.2,M,7.4,N,13.8,K,A*0D,1713027229586
NMEA,$GNDTM,W84,,0000.000000,N,00000.000000,E,0.000,W84*41,1713027229586
NMEA,$GNRMC,165350.00,A,3210.128288,N,03448.800131,E,7.4,281.3,130424,5.1,E,A,V*53,1713027229586
NMEA,$GNGNS,165350.00,3210.128288,N,03448.800131,E,AAAANN,34,0.4,25.2,19.1,,,V*10,1713027229586
NMEA,$GNGGA,165350.00,3210.128288,N,03448.800131,E,1,12,0.4,25.2,M,19.1,M,,*44,1713027229586
NMEA,$PSMSG,magcal=PASS,bluesky=0*00,1713027229590
NMEA,$GPGSV,3,1,10,02,35,318,39,03,14,263,39,08,56,242,42,10,30,050,35,1*60,1713027230567
NMEA,$GPGSV,3,2,10,21,52,326,40,27,40,187,33,28,19,125,27,32,54,056,38,1*65,1713027230567
NMEA,$GPGSV,3,3,10,36,00,000,38,40,00,000,34,1*68,1713027230567
NMEA,$GPGSV,2,1,06,03,14,263,30,08,56,242,33,10,30,050,26,27,40,187,29,8*62,1713027230567
NMEA,$GPGSV,2,2,06,28,19,125,25,32,54,056,21,8*68,1713027230567
NMEA,$GLGSV,2,1,07,,00,000,35,70,40,232,29,69,64,009,32,84,73,029,26,1*73,1713027230567
NMEA,$GLGSV,2,2,07,83,27,132,22,85,23,330,36,68,15,031,22,1*40,1713027230567
NMEA,$GAGSV,2,1,07,04,28,203,28,10,35,319,37,11,10,308,19,12,57,338,39,7*7B,1713027230567
NMEA,$GAGSV,2,2,07,19,74,117,25,24,06,259,27,33,51,093,31,7*48,1713027230567
NMEA,$GAGSV,2,1,07,04,28,203,26,10,35,319,28,11,10,308,17,12,57,338,32,1*78,1713027230567
NMEA,$GAGSV,2,2,07,19,74,117,20,24,06,259,23,33,51,093,24,1*4B,1713027230567
NMEA,$GBGSV,4,1,16,60,29,116,31,44,15,144,24,43,57,308,41,42,74,283,43,1*7E,1713027230567
NMEA,$GBGSV,4,2,16,39,27,063,31,34,68,161,40,33,23,237,34,21,43,038,36,1*7E,1713027230567
NMEA,$GBGSV,4,3,16,16,28,072,32,14,49,246,42,13,18,070,24,12,38,144,31,1*70,1713027230567
NMEA,$GBGSV,4,4,16,11,82,295,34,09,31,094,27,05,46,138,28,02,27,112,26,1*77,1713027230567
NMEA,$GBGSV,2,1,07,21,43,038,37,33,23,237,33,34,68,161,39,39,27,063,27,3*76,1713027230567
NMEA,$GBGSV,2,2,07,42,74,283,37,43,57,308,41,44,15,144,21,3*46,1713027230567
NMEA,$GBGSV,2,1,07,21,43,038,28,33,23,237,30,34,68,161,26,39,27,063,21,5*75,1713027230567
NMEA,$GBGSV,2,2,07,42,74,283,28,43,57,308,25,44,15,144,22,5*4F,1713027230567
NMEA,$GNGSA,A,3,02,03,08,10,21,27,28,32,,,,,0.6,0.4,0.5,1*33,1713027230593
NMEA,$PSSGR,GSA,A,3,03,08,10,27,28,32,,,,,,,0.6,0.4,0.5,1,8*46,1713027230593
NMEA,$GNGSA,A,3,69,70,84,85,,,,,,,,,0.6,0.4,0.5,2*3C,1713027230593
NMEA,$GNGSA,A,3,04,10,12,19,24,33,,,,,,,0.6,0.4,0.5,3*3C,1713027230593
NMEA,$PSSGR,GSA,A,3,304,310,312,319,324,333,,,,,,,0.6,0.4,0.5,3,1*41,1713027230593
NMEA,$GNGSA,A,3,05,06,09,11,12,13,14,16,21,33,34,39,0.6,0.4,0.5,4*34,1713027230593
NMEA,$PSSGR,GSA,A,3,221,234,239,242,243,,,,,,,,0.6,0.4,0.5,4,5*77,1713027230593
NMEA,$GNVTG,269.7,T,264.6,M,10.6,N,19.5,K,A*3B,1713027230593
NMEA,$GNDTM,W84,,0000.000000,N,00000.000000,E,0.000,W84*41,1713027230593
NMEA,$GNRMC,165351.00,A,3210.128295,N,03448.797020,E,10.6,269.7,130424,5.1,E,A,V*68,1713027230593
NMEA,$GNGNS,165351.00,3210.128295,N,03448.797020,E,AAAANN,34,0.4,25.0,19.1,,,V*1F,1713027230593
NMEA,$GNGGA,165351.00,3210.128295,N,03448.797020,E,1,12,0.4,25.0,M,19.1,M,,*4B,1713027230593
NMEA,$PSMSG,magcal=PASS,bluesky=0*00,1713027230599
NMEA,$GPGSV,3,1,10,02,35,318,38,03,14,263,35,08,56,242,36,10,30,050,33,1*68,1713027231580
NMEA,$GPGSV,3,2,10,21,52,326,42,27,40,187,39,28,19,125,26,32,54,056,39,1*6D,1713027231580
NMEA,$GPGSV,3,3,10,36,00,000,41,40,00,000,34,1*66,1713027231580
NMEA,$GPGSV,2,1,06,03,14,263,26,08,56,242,35,10,30,050,29,27,40,187,24,8*61,1713027231580
NMEA,$GPGSV,2,2,06,28,19,125,20,32,54,056,21,8*6D,1713027231580
NMEA,$GLGSV,2,1,07,,00,000,25,70,40,232,29,69,64,009,36,84,73,029,21,1*71,1713027231580
NMEA,$GLGSV,2,2,07,83,27,132,20,85,23,330,31,68,15,031,21,1*46,1713027231580
NMEA,$GAGSV,2,1,07,04,28,203,31,10,35,319,33,11,10,308,21,12,57,338,39,7*7C,1713027231580
NMEA,$GAGSV,2,2,07,19,74,117,29,24,06,259,27,33,51,093,31,7*44,1713027231580
NMEA,$GAGSV,2,1,07,04,28,203,23,10,35,319,28,11,10,308,17,12,57,338,32,1*7D,1713027231580
NMEA,$GAGSV,2,2,07,19,74,117,20,24,06,259,21,33,51,093,21,1*4C,1713027231580
NMEA,$GBGSV,4,1,16,60,29,116,32,44,15,144,24,43,57,308,38,42,74,283,41,1*71,1713027231580
NMEA,$GBGSV,4,2,16,39,27,063,32,34,68,161,38,33,23,237,37,21,43,038,38,1*7F,1713027231580
NMEA,$GBGSV,4,3,16,16,28,072,29,14,49,246,40,13,18,070,25,12,38,144,29,1*70,1713027231580
NMEA,$GBGSV,4,4,16,11,82,295,35,09,31,094,26,05,46,138,29,02,27,112,26,1*76,1713027231580
NMEA,$GBGSV,2,1,07,21,43,038,34,33,23,237,34,34,68,161,42,39,27,063,30,3*78,1713027231580
NMEA,$GBGSV,2,2,07,42,74,283,34,43,57,308,40,44,15,144,21,3*44,1713027231580
NMEA,$GBGSV,2,1,07,21,43,038,30,33,23,237,34,34,68,161,25,39,27,063,22,5*78,1713027231580
NMEA,$GBGSV,2,2,07,42,74,283,25,43,57,308,30,44,15,144,22,5*46,1713027231580
NMEA,$GNGSA,A,3,02,03,08,10,21,27,28,32,,,,,0.6,0.4,0.5,1*33,1713027231604
NMEA,$PSSGR,GSA,A,3,03,08,10,27,28,32,,,,,,,0.6,0.4,0.5,1,8*46,1713027231604
NMEA,$GNGSA,A,3,69,70,84,85,,,,,,,,,0.6,0.4,0.5,2*3C,1713027231604
NMEA,$GNGSA,A,3,04,10,12,19,24,33,,,,,,,0.6,0.4,0.5,3*3C,1713027231604
NMEA,$PSSGR,GSA,A,3,304,310,312,319,324,333,,,,,,,0.6,0.4,0.5,3,1*41,1713027231604
NMEA,$GNGSA,A,3,05,06,09,11,12,13,14,16,21,33,34,39,0.6,0.4,0.5,4*34,1713027231604
NMEA,$PSSGR,GSA,A,3,221,234,239,242,243,,,,,,,,0.6,0.4,0.5,4,5*77,1713027231604
NMEA,$GNVTG,270.5,T,265.4,M,11.6,N,21.5,K,A*38,1713027231604
NMEA,$GNDTM,W84,,0000.000000,N,00000.000000,E,0.000,W84*41,1713027231604
NMEA,$GNRMC,165352.00,A,3210.128290,N,03448.793219,E,11.6,270.5,130424,5.1,E,A,V*69,1713027231604
NMEA,$GNGNS,165352.00,3210.128290,N,03448.793219,E,AAAANN,34,0.4,24.8,19.1,,,V*1C,1713027231604
NMEA,$GNGGA,165352.00,3210.128290,N,03448.793219,E,1,12,0.4,24.8,M,19.1,M,,*48,1713027231604
NMEA,$PSMSG,magcal=PASS,bluesky=0*00,1713027231609
NMEA,$GPGSV,3,1,10,02,35,318,33,03,14,263,38,08,56,242,37,10,30,050,33,1*6F,1713027232569
NMEA,$GPGSV,3,2,10,21,52,326,40,27,40,187,33,28,19,125,25,32,54,056,41,1*69,1713027232569
NMEA,$GPGSV,3,3,10,36,00,000,36,40,00,000,34,1*66,1713027232569
NMEA,$GPGSV,2,1,06,03,14,263,28,08,56,242,35,10,30,050,27,27,40,187,22,8*67,1713027232569
NMEA,$GPGSV,2,2,06,28,19,125,20,32,54,056,21,8*6D,1713027232569
NMEA,$GLGSV,2,1,07,,00,000,26,70,40,232,28,69,64,009,34,84,73,029,23,1*73,1713027232569
NMEA,$GLGSV,2,2,07,83,27,132,28,85,23,330,30,68,15,031,21,1*4F,1713027232569
NMEA,$GAGSV,2,1,07,04,28,203,29,10,35,319,28,11,10,308,23,12,57,338,38,7*7C,1713027232569
NMEA,$GAGSV,2,2,07,19,74,117,27,24,06,259,21,33,51,093,31,7*4C,1713027232569
NMEA,$GAGSV,2,1,07,04,28,203,25,10,35,319,23,11,10,308,17,12,57,338,30,1*72,1713027232569
NMEA,$GAGSV,2,2,07,19,74,117,20,24,06,259,21,33,51,093,21,1*4C,1713027232569
NMEA,$GBGSV,5,1,17,60,29,116,32,44,15,144,24,43,57,308,38,42,74,283,41,1*71,1713027232569
NMEA,$GBGSV,5,2,17,39,27,063,33,34,68,161,37,33,23,237,40,21,43,038,39,1*70,1713027232569
NMEA,$GBGSV,5,3,17,16,28,072,30,14,49,246,39,13,18,070,27,12,38,144,34,1*78,1713027232569
NMEA,$GBGSV,5,4,17,11,82,295,36,09,31,094,26,06,31,084,24,05,46,138,29,1*7A,1713027232569
NMEA,$GBGSV,5,5,17,02,27,112,26,1*41,1713027232569
NMEA,$GBGSV,2,1,07,21,43,038,35,33,23,237,37,34,68,161,39,39,27,063,32,3*74,1713027232569
NMEA,$GBGSV,2,2,07,42,74,283,36,43,57,308,37,44,15,144,21,3*46,1713027232569
NMEA,$GBGSV,2,1,07,21,43,038,29,33,23,237,37,34,68,161,25,39,27,063,23,5*72,1713027232569
NMEA,$GBGSV,2,2,07,42,74,283,28,43,57,308,29,44,15,144,22,5*43,1713027232569
NMEA,$GNGSA,A,3,02,03,08,10,21,27,28,32,,,,,0.6,0.4,0.5,1*33,1713027232588
NMEA,$PSSGR,GSA,A,3,03,08,10,27,28,32,,,,,,,0.6,0.4,0.5,1,8*46,1713027232588
NMEA,$GNGSA,A,3,69,70,83,84,85,,,,,,,,0.6,0.4,0.5,2*37,1713027232588
NMEA,$GNGSA,A,3,04,10,12,19,24,33,,,,,,,0.6,0.4,0.5,3*3C,1713027232588
NMEA,$PSSGR,GSA,A,3,304,310,312,319,324,333,,,,,,,0.6,0.4,0.5,3,1*41,1713027232588
NMEA,$GNGSA,A,3,05,06,09,11,12,13,14,16,21,33,34,39,0.6,0.4,0.5,4*34,1713027232588
NMEA,$PSSGR,GSA,A,3,221,234,239,242,243,,,,,,,,0.6,0.4,0.5,4,5*77,1713027232588
NMEA,$GNVTG,270.8,T,265.7,M,14.8,N,27.4,K,A*3A,1713027232588
NMEA,$GNDTM,W84,,0000.000000,N,00000.000000,E,0.000,W84*41,1713027232588
NMEA,$GNRMC,165353.00,A,3210.128248,N,03448.788197,E,14.8,270.8,130424,5.1,E,A,V*64,1713027232588
NMEA,$GNGNS,165353.00,3210.128248,N,03448.788197,E,AAAANN,35,0.4,24.3,19.1,,,V*1D,1713027232588
NMEA,$GNGGA,165353.00,3210.128248,N,03448.788197,E,1,12,0.4,24.3,M,19.1,M,,*48,1713027232588
NMEA,$PSMSG,magcal=PASS,bluesky=0*00,1713027232593
NMEA,$GPGSV,3,1,10,02,35,318,29,03,14,263,40,08,56,242,39,10,30,050,28,1*6F,1713027233570
NMEA,$GPGSV,3,2,10,21,52,326,38,27,40,187,37,28,19,125,34,32,54,056,40,1*63,1713027233570
NMEA,$GPGSV,3,3,10,36,00,000,40,40,00,000,34,1*67,1713027233570
NMEA,$GPGSV,2,1,06,03,14,263,30,08,56,242,34,10,30,050,27,27,40,187,23,8*6E,1713027233570
NMEA,$GPGSV,2,2,06,28,19,125,20,32,54,056,21,8*6D,1713027233570
NMEA,$GLGSV,2,1,07,,00,000,33,70,40,232,32,69,64,009,33,84,73,029,23,1*7B,1713027233570
NMEA,$GLGSV,2,2,07,83,27,132,26,85,23,330,33,68,15,031,21,1*42,1713027233570
NMEA,$GAGSV,2,1,07,04,28,203,26,10,35,319,25,11,10,308,23,12,57,338,36,7*70,1713027233570
NMEA,$GAGSV,2,2,07,19,74,117,26,24,06,259,28,33,51,093,29,7*4D,1713027233570
NMEA,$GAGSV,2,1,07,04,28,203,21,10,35,319,20,11,10,308,17,12,57,338,29,1*7D,1713027233570
NMEA,$GAGSV,2,2,07,19,74,117,20,24,06,259,19,33,51,093,23,1*45,1713027233570
NMEA,$GBGSV,5,1,17,60,29,116,32,44,15,144,24,43,57,308,36,42,74,283,41,1*7F,1713027233570
NMEA,$GBGSV,5,2,17,39,27,063,30,34,68,161,37,33,23,237,40,21,43,038,32,1*78,1713027233570
NMEA,$GBGSV,5,3,17,16,28,072,28,14,49,246,42,13,18,070,24,12,38,144,26,1*7D,1713027233570
NMEA,$GBGSV,5,4,17,11,82,295,37,09,31,094,25,06,31,084,24,05,46,138,29,1*78,1713027233570
NMEA,$GBGSV,5,5,17,02,27,112,26,1*41,1713027233570
NMEA,$GBGSV,2,1,07,21,43,038,26,33,23,237,37,34,68,161,37,39,27,063,27,3*7C,1713027233570
NMEA,$GBGSV,2,2,07,42,74,283,34,43,57,308,37,44,15,144,21,3*44,1713027233570
NMEA,$GBGSV,2,1,07,21,43,038,29,33,23,237,38,34,68,161,26,39,27,063,22,5*7F,1713027233570
NMEA,$GBGSV,2,2,07,42,74,283,27,43,57,308,28,44,15,144,22,5*4D,1713027233570
NMEA,$GNGSA,A,3,02,03,08,10,21,27,28,32,,,,,0.6,0.4,0.5,1*33,1713027233593
NMEA,$PSSGR,GSA,A,3,03,08,10,27,28,32,,,,,,,0.6,0.4,0.5,1,8*46,1713027233593
NMEA,$GNGSA,A,3,69,70,83,84,85,,,,,,,,0.6,0.4,0.5,2*37,1713027233593
NMEA,$GNGSA,A,3,04,10,12,19,24,33,,,,,,,0.6,0.4,0.5,3*3C,1713027233593
NMEA,$PSSGR,GSA,A,3,304,310,312,324,333,,,,,,,,0.6,0.4,0.5,3,1*7A,1713027233593
NMEA,$GNGSA,A,3,05,06,09,11,12,13,14,16,21,33,34,39,0.6,0.4,0.5,4*34,1713027233593
NMEA,$PSSGR,GSA,A,3,221,234,239,242,243,,,,,,,,0.6,0.4,0.5,4,5*77,1713027233593
NMEA,$GNVTG,271.9,T,266.8,M,16.8,N,31.2,K,A*35,1713027233593
NMEA,$GNDTM,W84,,0000.000000,N,00000.000000,E,0.000,W84*41,1713027233593
NMEA,$GNRMC,165354.00,A,3210.128263,N,03448.782629,E,16.8,271.9,130424,5.1,E,A,V*60,1713027233593
NMEA,$GNGNS,165354.00,3210.128263,N,03448.782629,E,AAAANN,34,0.4,23.8,19.1,,,V*16,1713027233593
NMEA,$GNGGA,165354.00,3210.128263,N,03448.782629,E,1,12,0.4,23.8,M,19.1,M,,*42,1713027233593
NMEA,$PSMSG,magcal=PASS,bluesky=0*00,1713027233599
NMEA,$GPGSV,3,1,10,02,35,318,29,03,14,263,43,08,56,242,38,10,30,050,29,1*6C,1713027234571
NMEA,$GPGSV,3,2,10,21,52,326,27,27,40,187,41,28,19,125,34,32,54,056,37,1*6C,1713027234571
NMEA,$GPGSV,3,3,10,36,00,000,41,40,00,000,34,1*66,1713027234571
NMEA,$GPGSV,2,1,06,03,14,263,34,08,56,242,32,10,30,050,21,27,40,187,23,8*6A,1713027234571
NMEA,$GPGSV,2,2,06,28,19,125,20,32,54,056,21,8*6D,1713027234571
NMEA,$GLGSV,2,1,07,,00,000,26,70,40,232,27,69,64,009,25,84,73,029,23,1*7C,1713027234571
NMEA,$GLGSV,2,2,07,83,27,132,26,85,23,330,27,68,15,031,21,1*47,1713027234571
NMEA,$GAGSV,2,1,07,04,28,203,31,10,35,319,23,11,10,308,22,12,57,338,36,7*71,1713027234571
NMEA,$GAGSV,2,2,07,19,74,117,21,24,06,259,30,33,51,093,28,7*42,1713027234571
NMEA,$GAGSV,2,1,07,04,28,203,23,10,35,319,20,11,10,308,16,12,57,338,29,1*7E,1713027234571
NMEA,$GAGSV,2,2,07,19,74,117,20,24,06,259,25,33,51,093,22,1*4B,1713027234571
NMEA,$GBGSV,5,1,17,60,29,116,29,44,15,144,24,43,57,308,30,42,74,283,39,1*7C,1713027234571
NMEA,$GBGSV,5,2,17,39,27,063,25,34,68,161,39,33,23,237,28,21,43,038,31,1*7F,1713027234571
NMEA,$GBGSV,5,3,17,16,28,072,28,14,49,246,37,13,18,070,24,12,38,144,29,1*70,1713027234571
NMEA,$GBGSV,5,4,17,11,82,295,34,09,31,094,25,06,31,084,24,05,46,138,27,1*75,1713027234571
NMEA,$GBGSV,5,5,17,02,27,112,26,1*41,1713027234571
NMEA,$GBGSV,2,1,07,21,43,038,28,33,23,237,27,34,68,161,37,39,27,063,27,3*73,1713027234571
NMEA,$GBGSV,2,2,07,42,74,283,33,43,57,308,22,44,15,144,21,3*47,1713027234571
NMEA,$GBGSV,2,1,07,21,43,038,22,33,23,237,26,34,68,161,30,39,27,063,22,5*7C,1713027234571
NMEA,$GBGSV,2,2,07,42,74,283,29,43,57,308,28,44,15,144,22,5*43,1713027234571
NMEA,$GNGSA,A,3,02,03,08,10,21,27,28,32,,,,,0.6,0.4,0.5,1*33,1713027234593
NMEA,$PSSGR,GSA,A,3,03,08,10,27,28,32,,,,,,,0.6,0.4,0.5,1,8*46,1713027234593
NMEA,$GNGSA,A,3,69,70,83,85,,,,,,,,,0.6,0.4,0.5,2*3B,1713027234593
NMEA,$GNGSA,A,3,04,10,12,19,24,33,,,,,,,0.6,0.4,0.5,3*3C,1713027234593
NMEA,$PSSGR,GSA,A,3,304,310,312,324,333,,,,,,,,0.6,0.4,0.5,3,1*7A,1713027234593
NMEA,$GNGSA,A,3,05,06,09,11,12,13,14,16,21,33,34,39,0.6,0.4,0.5,4*34,1713027234593
NMEA,$PSSGR,GSA,A,3,221,234,239,242,243,,,,,,,,0.6,0.4,0.5,4,5*77,1713027234593
NMEA,$GNVTG,274.3,T,269.2,M,17.2,N,31.9,K,A*3F,1713027234593
NMEA,$GNDTM,W84,,0000.000000,N,00000.000000,E,0.000,W84*41,1713027234593
NMEA,$GNRMC,165355.00,A,3210.128567,N,03448.777011,E,17.2,274.3,130424,5.1,E,A,V*61,1713027234593
NMEA,$GNGNS,165355.00,3210.128567,N,03448.777011,E,AAAANN,33,0.4,23.3,19.1,,,V*1F,1713027234593
NMEA,$GNGGA,165355.00,3210.128567,N,03448.777011,E,1,12,0.4,23.3,M,19.1,M,,*4C,1713027234593
NMEA,$PSMSG,magcal=PASS,bluesky=0*00,1713027234606
NMEA,$GPGSV,3,1,10,02,35,318,39,03,14,263,45,08,56,242,41,10,30,050,23,1*6F,1713027235572
NMEA,$GPGSV,3,2,10,21,52,326,41,27,40,187,36,28,19,125,34,32,54,056,30,1*6B,1713027235572
NMEA,$GPGSV,3,3,10,36,00,000,35,40,00,000,34,1*65,1713027235572
NMEA,$GPGSV,2,1,06,03,14,263,36,08,56,242,31,10,30,050,21,27,40,187,20,8*68,1713027235572
NMEA,$GPGSV,2,2,06,28,19,125,20,32,54,056,21,8*6D,1713027235572
NMEA,$GLGSV,2,1,07,,00,000,34,70,40,232,30,69,64,009,32,84,73,029,19,1*76,1713027235572
NMEA,$GLGSV,2,2,07,83,27,132,27,85,23,330,36,68,15,031,20,1*47,1713027235572
NMEA,$GAGSV,2,1,07,04,28,203,23,10,35,319,37,11,10,308,31,12,57,338,33,7*70,1713027235572
NMEA,$GAGSV,2,2,07,19,74,117,21,24,06,259,32,33,51,093,27,7*4F,1713027235572
NMEA,$GAGSV,2,1,07,04,28,203,23,10,35,319,26,11,10,308,24,12,57,338,27,1*77,1713027235572
NMEA,$GAGSV,2,2,07,19,74,117,20,24,06,259,28,33,51,093,22,1*46,1713027235572
NMEA,$GBGSV,4,1,16,60,29,116,29,44,15,144,24,43,57,308,38,42,74,283,41,1*7B,1713027235572
NMEA,$GBGSV,4,2,16,39,27,063,25,34,68,161,40,33,23,237,37,21,43,038,29,1*76,1713027235572
NMEA,$GBGSV,4,3,16,16,28,072,21,14,49,246,42,13,18,070,24,12,38,144,29,1*7B,1713027235572
NMEA,$GBGSV,4,4,16,11,82,295,36,09,31,094,25,05,46,138,27,02,27,112,26,1*78,1713027235572
NMEA,$GBGSV,2,1,07,21,43,038,24,33,23,237,35,34,68,161,37,39,27,063,19,3*71,1713027235572
NMEA,$GBGSV,2,2,07,42,74,283,35,43,57,308,39,44,15,144,21,3*4B,1713027235572
NMEA,$GBGSV,2,1,07,21,43,038,22,33,23,237,34,34,68,161,27,39,27,063,22,5*79,1713027235572
NMEA,$GBGSV,2,2,07,42,74,283,29,43,57,308,23,44,15,144,22,5*48,1713027235572
NMEA,$GNGSA,A,3,02,03,08,10,21,27,28,32,,,,,0.7,0.4,0.5,1*32,1713027235591
NMEA,$PSSGR,GSA,A,3,03,08,10,27,28,32,,,,,,,0.7,0.4,0.5,1,8*47,1713027235591
NMEA,$GNGSA,A,3,69,70,83,85,,,,,,,,,0.7,0.4,0.5,2*3A,1713027235591
NMEA,$GNGSA,A,3,04,10,12,19,24,33,,,,,,,0.7,0.4,0.5,3*3D,1713027235591
NMEA,$PSSGR,GSA,A,3,304,310,312,324,333,,,,,,,,0.7,0.4,0.5,3,1*7B,1713027235591
NMEA,$GNGSA,A,3,05,09,11,12,13,14,16,21,33,34,39,42,0.7,0.4,0.5,4*35,1713027235591
NMEA,$PSSGR,GSA,A,3,221,234,239,242,243,,,,,,,,0.7,0.4,0.5,4,5*76,1713027235591
NMEA,$GNVTG,275.6,T,270.5,M,17.8,N,32.9,K,A*3D,1713027235591
NMEA,$GNDTM,W84,,0000.000000,N,00000.000000,E,0.000,W84*41,1713027235591
NMEA,$GNRMC,165356.00,A,3210.128959,N,03448.771270,E,17.8,275.6,130424,5.1,E,A,V*6E,1713027235591
NMEA,$GNGNS,165356.00,3210.128959,N,03448.771270,E,AAAANN,32,0.4,22.5,19.1,,,V*18,1713027235591
NMEA,$GNGGA,165356.00,3210.128959,N,03448.771270,E,1,12,0.4,22.5,M,19.1,M,,*4A,1713027235591
NMEA,$PSMSG,magcal=PASS,bluesky=0*00,1713027235600
NMEA,$GPGSV,2,1,08,02,35,318,40,03,14,263,45,08,56,242,41,21,52,326,43,1*6B,1713027236568
NMEA,$GPGSV,2,2,08,27,40,187,39,32,54,056,38,36,00,000,40,40,00,000,34,1*63,1713027236568
NMEA,$GPGSV,2,1,06,03,14,263,35,08,56,242,30,10,30,050,25,27,40,187,20,8*6E,1713027236568
NMEA,$GPGSV,2,2,06,28,19,125,20,32,54,056,21,8*6D,1713027236568
NMEA,$GLGSV,2,1,07,,00,000,34,70,40,232,31,69,64,009,34,84,73,029,25,1*7E,1713027236568
NMEA,$GLGSV,2,2,07,83,27,132,23,85,23,330,35,68,15,031,20,1*40,1713027236568
