     3.03           OBSERVATION DATA    M                   RINEX VERSION / TYPE
GnssLogger          samsung 14          20240413 165351 UTC PGM / RUN BY / DATE
Google GnssLogger                                           MARKER NAME
Unknown                                                     MARKER NUMBER
Unknown             Unknown                                 OBSERVER / AGENCY
Unknown             GnssLogger          v3.0.6.4            REC # / TYPE / VERS
Unknown             Unknown                                 ANT # / TYPE
        0.0000        0.0000        0.0000                  ANTENNA: DELTA H/E/N
G    6 C1C D1C S1C C5Q D5Q S5Q                              SYS / # / OBS TYPES
R    3 C1C D1C S1C                                          SYS / # / OBS TYPES
C    6 C2I D2I S2I C7Q D7Q S7Q                              SYS / # / OBS TYPES
E    6 C1C D1C S1C C5Q D5Q S5Q                              SYS / # / OBS TYPES
  2024    04    13    16    53   51.0000000     GPS         TIME OF FIRST OBS
 6 R04  6 R05  1 R06 -4 R19  3 R20  2 R21  4                GLONASS SLOT / FRQ #

 C1C    0.000 C1P    0.000 C2C    0.000 C2P    0.000        GLONASS COD/PHS/BIS
                                                            END OF HEADER
> 2024 04 13 16 53 51.4260416  0 28                      
G10  22842071.12328     -2027.55228        48.30028  22839715.05426     -1518.10026        35.50026
G21  21666526.43527      1652.20227        45.70027                                                
G27  22220634.33426     -2999.60026        37.90026  22218287.55924     -2235.40024        27.90024
G32  21483376.32828     -1467.55028        48.50028  21481015.46224     -1099.15024        24.60024
R05  19606677.03927     -1798.73227        44.10027
R20  19378747.83225       878.60025        31.30025
R21  22309119.57727      3855.21827        44.00027
C60  38631576.87526        11.70026        38.80026                                                
C43  22314346.45924      1540.85024        26.80024  22312484.74825      1166.73725        31.40025
C42  21856696.48326       216.21026        40.90026  21854821.88125       173.70325        30.30025
C39  38983217.54027       623.72727        42.20027  38981329.14725       468.80025        33.30025
C34  21771812.04828     -1267.97628        47.70028  21769925.15425      -953.61925        34.20025
C33  25004091.58724      2483.35024        25.90024                                                
C21  23468353.15726     -2183.25026        38.30026  23466469.26126     -1645.69626        37.50026
C16  39184719.14327       940.08927        42.10027                                                
C14  22510850.82225      1587.55025        31.40025                                                
C13  39569454.49627       -17.86327        42.20027                                                
C12  23587335.38726     -2511.81626        39.60026                                                
C11  21451336.60827       359.48327        42.10027                                                
C09  39177537.61526      1410.05826        40.60026                                                
C06  38561805.87726      1242.80026        37.30026                                                
C02  38710627.05026        54.95026        36.40026                                                
E12  24317608.23025      1356.70925        30.90025  24315698.55225      1017.43425        32.60025
E19  23497392.55325       434.00025        31.50025  23495475.08124       310.45024        26.70024
E33  24364348.27226      -830.25026        35.70026  24362423.60524      -608.90024        28.90024
G08                                                  21160132.30524      -814.70024        27.70024
E04                                                  26094151.95424      2117.70024        27.80024
E10                                                  25623168.40924      1543.55024        27.60024
> 2024 04 13 16 53 52.4260416  0 29                      
G08  21162685.69024     -1112.60024        24.40024  21160348.20825      -840.47425        30.90025
G10  22842457.90828     -2044.89128        50.60028  22840103.93726     -1527.67126        40.00026
G21  21666218.90127      1634.75527        42.10027                                                
G27  22221208.19026     -3018.67826        38.40026  22218864.11325     -2256.57225        29.50025
G32  21483653.38928     -1485.45228        49.70028                                                
R05  19607019.75527     -1816.71927        45.00027
R20  19378580.60025       855.95025        29.70025
R21  22308395.63127      3837.53627        42.90027
C60  38631572.43126         8.85026        41.40026                                                
C43  22314074.00026      1532.02026        36.30026  22312190.10525      1154.05025        33.80025
C42  21856658.16326       198.51026        39.30026  21854783.26125       149.70025        34.20025
C39  38983098.27526       606.19226        41.20026  38981212.28126       456.20826        36.90026
C34  21772056.43128     -1285.77228        49.80028  21770171.63626      -969.60626        38.10026
C33  25003641.35224      2478.55024        29.40024  25001749.06223      1863.60023        22.40023
C21  23468776.81626     -2203.35026        39.10026  23466891.42126     -1661.09926        37.50026
C16  39184539.32026       922.60426        39.80026                                                
C14  22510543.58725      1566.55025        32.90025                                                
C13  39569460.54527       -35.13727        41.80027                                                
C12  23587823.80226     -2529.32826        40.20026                                                
C11  21451270.40727       341.62627        41.80027                                                
C09  39177268.45427      1392.58327        45.10027                                                
C06  38561574.79026      1224.04726        38.50026                                                
C02  38710626.20326        10.70026        38.90026                                                
E04  26095517.56124      2815.30024        25.10024  26093613.87924      2100.60024        29.20024
E10  25624708.19624      2048.85024        27.10024  25622776.93325      1529.74425        30.20025
E12  24317353.75925      1340.65025        34.40025  24315442.88125      1008.22625        33.50025
E19  23497313.46126       404.49426        36.30026  23495398.38624       304.80024        28.90024
E33  24364503.91727      -842.88627        42.30027  24362586.14525      -629.92125        31.60025
G28                                                  23814958.56023      1864.60023        22.60023
> 2024 04 13 16 53 53.4260417  0 29                      
G02  22884626.40626      2486.75126        36.40026                                                
G10  22842875.20928     -2033.50428        49.40028  22840521.83826     -1518.67726        39.90026
G21  21665931.99027      1645.98727        44.00027                                                
G27  22221813.76126     -3007.60026        38.30026                                                
G32  21483968.76128     -1474.57828        49.50028  21481606.09624     -1103.75024        25.00024
R05  19607386.69127     -1805.69927        45.90027
R20  19378440.88725       872.25025        31.10025
R21  22307713.29426      3849.11826        39.70026
C60  38631603.30026         9.70026        41.30026                                                
C43  22313795.48425      1543.11925        35.10025  22311925.37825      1162.85025        31.50025
C42  21856647.66026       209.58326        39.00026  21854776.05625       156.98325        32.20025
C39  38983012.52526       617.32226        40.30026  38981124.13226       464.73126        37.50026
C34  21772331.63128     -1274.88828        49.10028  21770446.83626      -961.19626        39.00026
C21  23469227.99426     -2192.21626        37.20026  23467340.80126     -1652.59926        37.80026
C16  39184390.31426       933.82626        40.70026                                                
C14  22510268.96825      1577.00025        29.90025                                                
C13  39569496.51027       -23.76427        41.80027                                                
C12  23588334.03926     -2518.34526        39.50026                                                
C11  21451234.42226       352.46426        40.50026                                                
C09  39177031.00827      1403.73527        44.10027                                                
C06  38561365.22526      1235.23026        38.80026                                                
C05  37616160.97625        27.60025        33.50025                                                
C02  38710642.68226        32.30026        38.70026                                                
E04  26095002.80824      2825.55024        26.80024  26093107.22025      2109.93925        29.70025
E10  25624332.54625      2060.50325        33.30025  25622416.57324      1539.00124        29.30024
E12  24317131.90325      1352.70825        34.70025  24315218.32725      1010.46025        32.90025
E19  23497267.28326       416.06026        37.20026  23495350.41024       307.80024        28.40024
E33  24364690.67827      -831.23827        42.70027  24362775.60425      -620.95425        31.80025
G08                                                  21160589.53124      -830.55024        28.70024
> 2024 04 13 16 53 54.4260417  0 34                      
G02  22884136.92325      2485.10025        34.40025                                                
G08  21163163.02825     -1114.90025        33.30025  21160801.86325      -832.18525        32.00025
G10  22843262.32028     -2033.04528        49.40028  22840908.34926     -1518.06326        39.80026
G21  21665623.58227      1643.83127        46.60027                                                
G27  22222387.34327     -3010.82527        41.80027                                                
G32  21484246.44728     -1475.28328        48.50028  21481894.57525     -1102.65225        31.00025
R06  20929245.16623      2588.00023        19.50023
R05  19607724.03627     -1807.58727        45.20027
R20  19378263.48925       867.80025        29.90025
R21  22306992.97126      3847.12226        39.50026
R04  23021208.63023     -3850.80023        22.20023
C60  38631600.08126        17.65026        41.20026                                                
C43  22313511.65926      1540.91326        36.90026                                                
C42  21856609.06627       207.01627        41.70027  21854731.16624       156.46624        28.90024
C39  38982891.78726       617.87126        40.40026  38981004.89326       465.92726        37.20026
C34  21772579.03828     -1277.26828        49.60028  21770692.14526      -961.86426        40.20026
C33  25002717.76025      2480.70025        31.00025                                                
C21  23469649.88127     -2192.69327        41.80027  23467762.38726     -1651.86126        36.80026
C16  39184216.51327       934.13727        43.10027                                                
C14  22509972.25225      1575.70025        31.50025                                                
C13  39569499.88727       -22.91827        41.90027                                                
C12  23588821.58026     -2519.79526        37.00026                                                
C11  21451164.64926       350.25926        40.90026                                                
C09  39176762.17327      1403.86227        45.40027                                                
C06  38561129.66727      1235.44827        42.60027                                                
C05  37616135.57326        61.20026        37.10026                                                
C02  38710638.86426        40.35026        36.60026                                                
E04  26094483.34625      2822.40025        29.90025  26092571.27025      2108.23725        32.50025
E10  25623938.39825      2057.10025        31.80025  25622023.02424      1537.35024        28.10024
E11  26825696.03823      2364.00023        20.30023                                                
E12  24316873.56026      1351.74226        40.40026  24314960.58425      1009.13925        34.60025
E19  23497184.61926       414.68626        37.70026  23495273.14224       309.15024        28.20024
E33  24364848.74827      -831.29427        43.50027  24362935.17225      -621.17225        34.40025
G28                                                  23814035.86724      1866.35024        25.70024
> 2024 04 13 16 53 55.4260417  0 34                      
G02  22883663.41026      2486.53226        40.90026                                                
G03  23994635.50024      2468.05024        26.10024                                                
G08  21163372.44326     -1114.19526        38.70026  21161016.37424      -834.50024        28.40024
G10  22843649.81127     -2025.44927        43.50027  22841294.94126     -1513.23526        39.60026
G21  21665307.76027      1647.61827        45.40027                                                
G27  22222957.10826     -3010.70026        40.10026  22220610.33224     -2246.90024        25.90024
G28  23815903.43426      2504.03626        35.60026  23813556.65824      1869.50024        27.50024
G32  21484529.01128     -1469.69028        48.50028  21482175.34025     -1097.90025        33.10025
R05  19608058.16426     -1804.04326        36.40026
R20  19378128.14224       869.85024        29.10024
R21  22306265.53426      3848.56226        37.40026
R04  23021900.71024     -3838.15024        27.60024
C60  38631596.94327        17.40027        43.10027                                                
C43  22313213.22527      1543.28127        44.50027  22311327.53024      1162.45024        29.30024
C42  21856568.15327       209.10927        42.90027  21854694.45024       157.60024        24.90024
C39  38982774.42727       624.82127        43.00027  38980885.43525       470.56625        35.40025
C34  21772823.52927     -1275.32127        44.00027  21770935.43626      -961.22626        37.70026
C33  25002219.36424      2484.90024        29.00024                                                
C21  23470070.94927     -2185.78827        44.80027  23468181.65725     -1647.70425        34.00025
C16  39184036.19727       941.08827        45.70027                                                
C14  22509664.82425      1571.95025        31.90025                                                
C13  39569504.54327       -15.44627        46.60027                                                
C12  23589308.00226     -2519.57026        35.50026                                                
C11  21451100.95226       352.74926        39.80026                                                
C09  39176494.31827      1409.66227        44.90027                                                
C06  38560889.09327      1241.80127        45.00027                                                
C05  37616120.14326        60.35026        40.00026                                                
C02  38710625.23226        62.25026        40.70026                                                
E04  26093941.48125      2822.20025        32.60025                                                
E10  25623541.63226      2060.61326        37.20026  25621629.25625      1540.09625        32.90025
E12  24316617.69627      1355.41427        41.60027  24314702.32226      1012.11126        36.30026
E19  23497106.53225       417.33125        35.40025  23495192.05825       311.91025        31.20025
E24  28368094.81723     -1886.75023        19.60023                                                
E33  24365006.29827      -826.75227        45.20027  24363094.52126      -616.99126        35.80026
> 2024 04 13 16 53 56.4260418  0 33                      
G02  22883216.76827      2490.35527        44.90027                                                
G08  21163621.61926     -1114.54526        35.90026  21161258.65525      -832.00325        31.60025
G10  22844063.27326     -2025.98526        41.30026  22841709.30325     -1511.89925        35.30025
G21  21665023.30627      1649.59527        47.40027                                                
G27  22223564.23626     -3011.80926        39.70026  22221212.06425     -2248.79225        31.80025
G28  23815447.19826      2502.71126        38.70026  23813110.61624      1868.40024        28.70024
G32  21484838.74528     -1469.80128        48.90028  21482481.47725     -1097.01725        33.20025
R06  20928301.32824      2589.55024        26.10024
R05  19608444.34625     -1803.70025        31.20025
R20  19377993.28424       870.90024        27.20024
R21  22305600.34326      3854.56026        38.40026
C60  38631625.77127         8.95027        43.50027                                                
C44  25454753.73024     -3102.85024        27.50024                                                
C43  22312949.15627      1545.05227        47.30027  22311061.06326      1164.37626        36.50026
C42  21856557.70927       209.93727        42.70027  21854685.80525       159.49025        31.30025
C39  38982683.33927       624.64627        43.80027  38980796.74525       471.23625        35.20025
C34  21773098.78726     -1276.11726        40.20026  21771212.19326      -961.14526        36.80026
C33  25001784.11425      2488.35025        31.10025  24999910.41123      1868.75023        21.30023
C21  23470522.78427     -2185.21727        44.50027  23468632.29326     -1646.11426        37.30026
C16  39183884.85027       940.63327        46.60027                                                
C14  22509401.35525      1577.20025        32.80025                                                
C13  39569538.16827       -15.61127        44.40027                                                
C12  23589820.09727     -2519.88127        41.80027                                                
C11  21451065.92526       353.09326        38.30026                                                
C09  39176251.83427      1408.66227        42.10027                                                
C06  38560685.28227      1241.02727        44.30027                                                
C05  37616141.17727        59.40027        44.80027                                                
C02  38710648.06526        37.00026        41.10026                                                
E04  26093439.97724      2822.62824        28.70024  26091526.40124      2108.30024        26.70024
E10  25623173.83526      2065.28426        40.90026  25621266.55525      1542.41125        31.30025
E12  24316391.10226      1359.76926        36.40026  24314474.22925      1014.03325        35.00025
E19  23497054.11726       417.43226        36.20026  23495144.13926       311.77926        36.30026
E33  24365194.61627      -826.87227        43.60027  24363280.44125      -617.58425        31.20025
> 2024 04 13 16 53 57.4260418  0 35                      
G02  22882747.19527      2484.25027        46.20027                                                
G08  21163828.97726     -1118.59526        37.00026  21161469.91025      -838.06225        29.50025
G10  22844450.50726     -2034.73826        41.40026  22842097.43625     -1519.29725        34.90025
G21  21664707.82627      1642.70427        43.70027                                                
G27  22224138.24027     -3019.14627        42.40027  22221787.26825     -2255.20925        33.50025
G28  23814972.82826      2493.12026        36.80026  23812635.94626      1860.65226        36.30026
G32  21485118.35328     -1479.27328        51.40028  21482766.48125     -1104.99725        30.90025
R06  20927808.97024      2578.60024        27.20024
R05  19608763.52627     -1811.30027        41.50027
R20  19377827.40025       866.40025        30.20025
R19  22041281.92923     -3115.25023        21.60023
R21  22304867.25326      3847.48026        40.50026
R04  23023462.87924     -3858.95024        26.10024
C44  25455362.51024     -3110.25024        29.20024                                                
C43  22312652.86327      1538.36827        45.90027  22310765.36926      1159.19226        37.50026
C42  21856520.73627       202.76727        45.00027  21854642.23725       152.21525        32.00025
C39  38982565.72226       614.92726        40.50026  38980677.92925       463.97325        34.20025
C34  21773339.42226     -1284.66626        38.10026  21771457.02525      -967.66725        34.10025
C33  25001302.84925      2482.83825        34.30025                                                
C21  23470942.39527     -2194.05227        42.80027  23469052.20426     -1653.28326        37.30026
C16  39183707.27527       930.49727        42.50027                                                
C14  22509100.26525      1571.70025        32.40025                                                
C13  39569542.86625       -27.95025        33.10025                                                
C12  23590304.16326     -2524.95226        37.60026                                                
C11  21450992.67826       345.24026        39.30026                                                
C09  39175984.92126      1398.59126        38.10026                                                
C06  38560443.85127      1230.77727        41.90027                                                
C05  37616130.28627        48.50027        42.80027                                                
E04  26092899.65225      2815.29125        30.10025                                                
E10  25622782.80726      2059.02926        41.40026  25620873.72924      1536.80024        29.20024
E12  24316130.48426      1350.78726        36.60026  24314218.10826      1007.42826        36.00026
E19  23496979.67026       408.56826        37.00026  23495065.19626       305.03426        36.90026
E24  28368822.06425     -1893.40025        29.60025                                                
E33  24365350.41026      -836.80926        41.40026  24363439.53326      -624.85426        37.70026
G03                                                  23991361.71723      1836.15023        22.20023
> 2024 04 13 16 53 58.4260418  0 34                      
G02  22882268.40527      2483.07027        43.00027                                                
G03  23993233.00126      2459.86926        37.00026  23990885.62626      1837.45726        36.80026
G08  21164034.91427     -1121.56427        43.70027  21161682.74225      -838.51925        33.70025
G10  22844830.92326     -2039.43026        38.50026  22842491.04324     -1523.15024        28.10024
G21  21664398.41928      1640.99828        49.60028                                                
G27  22224718.31826     -3019.13226        39.20026  22222359.55124     -2254.25024        27.20024
G28  23814508.72926      2489.10326        39.00026  23812161.35425      1859.51525        35.00025
G32  21485401.93628     -1482.73128        47.80028  21483047.06625     -1107.40625        31.10025
R05  19609105.86927     -1813.24827        44.60027
R19  22041811.04225     -3118.85025        29.80025
R21  22304142.03427      3845.99527        45.40027
R04  23024188.65624     -3855.50024        29.10024
C60  38631621.75526         5.20026        39.00026                                                
C44  25455958.17725     -3112.45025        32.10025                                                
C43  22312361.74326      1536.50526        40.40026  22310471.85226      1157.60226        36.40026
C42  21856479.64427       200.97827        47.00027  21854602.34426       151.35826        36.10026
C39  38982444.58525       611.45925        34.30025  38980558.29124       458.60024        26.90024
C34  21773594.22427     -1286.49627        44.50027  21771704.93225      -969.75325        32.20025
C33  25000821.36226      2476.74426        35.70026  24998954.55423      1866.45023        22.20023
C21  23471365.98226     -2197.77426        39.70026  23469473.69225     -1656.20725        32.50025
C16  39183527.97825       923.75025        33.50025                                                
C14  22508792.05826      1569.54526        39.20026                                                
C13  39569546.44325       -29.10025        29.50025                                                
C12  23590789.50626     -2531.25826        39.10026                                                
C11  21450927.30225       342.55025        33.80025                                                
C09  39175715.38726      1395.03626        35.50026                                                
C06  38560213.29026      1227.04826        38.10026                                                
C05  37616122.17126        58.70026        40.90026                                                
E04  26092371.39725      2813.28925        32.50025                                                
E10  25622395.45526      2057.48126        39.00026  25620482.47926      1536.78126        36.00026
E12  24315875.93926      1348.10026        39.00026  24313959.66625      1006.99425        33.00025
E19  23496903.20226       405.27126        35.60026  23494986.03025       302.66525        31.90025
E24  28369186.59125     -1894.97025        30.00025  28367285.30724     -1415.00024        28.80024
E33  24365511.67728      -840.57028        47.50028  24363598.40227      -627.67427        44.00027
> 2024 04 13 16 53 59.4260419  0 35                      
G02  22881822.56027      2482.53427        41.70027                                                
G03  23992794.95026      2463.06826        35.50026  23990449.37424      1839.60024        28.40024
G08  21164277.09227     -1120.34227        46.10027  21161927.01926      -836.58126        37.90026
G10  22845252.07726     -2038.10526        40.10026  22842902.30425     -1521.53825        30.60025
G21  21664114.16228      1641.16328        49.50028                                                
G27  22225319.04826     -3013.18626        38.50026  22222967.17625     -2253.63725        31.70025
G28  23814070.67826      2492.59726        37.30026                                                
G32  21485713.06727     -1482.18127        44.70027  21483359.69625     -1107.18325        31.90025
R06  20926812.98524      2576.50024        24.80024
R05  19609473.36026     -1813.52426        40.00026
R20  19377516.14124       862.65024        28.90024
R19  22042405.47725     -3118.55025        29.70025
R21  22303450.65926      3845.53826        38.40026
C60  38631653.47926        29.05026        37.30026                                                
C44  25456580.19325     -3112.70025        33.40025  25454707.38924     -2343.70024        24.10024
C43  22312096.07428      1536.97828        47.80028  22310206.48225      1157.83925        32.90025
C42  21856472.39528       202.32028        47.90028  21854594.19625       152.40225        35.20025
C39  38982369.88325       611.93525        34.40025  38980472.79724       461.25024        26.60024
C34  21773870.87927     -1284.20627        43.00027  21771981.58725      -968.33125        33.80025
C33  25000368.62126      2475.96226        37.60026  24998512.90625      1861.82525        29.60025
C21  23471812.91826     -2197.13126        41.00026  23469923.92625     -1656.32625        34.00025
C16  39183392.41825       923.60025        30.40025                                                
C14  22508527.28726      1570.39626        37.90026                                                
C13  39569591.65825       -32.65025        29.50025                                                
C12  23591308.69326     -2525.45026        38.40026                                                
C11  21450896.96925       348.45025        33.40025                                                
C09  39175480.59626      1397.62826        37.30026                                                
C06  38560002.18225      1229.65025        32.40025                                                
C02  38710656.58625        26.50025        33.40025                                                
E04  26091856.60026      2819.46826        35.80026  26089954.71724      2106.40024        24.60024
E10  25622032.65226      2058.17226        40.20026  25620119.97626      1536.92026        37.80026
E12  24315644.14626      1348.99326        36.00026  24313734.46825      1007.44425        33.10025
E19  23496854.88226       407.80326        37.40026  23494943.10625       304.45125        32.70025
E24  28369570.87124     -1892.42824        28.80024                                                
E33  24365701.39227      -838.33927        46.80027  24363788.71626      -625.89826        41.00026
> 2024 04 13 16 54 00.4260419  0 31                      
G02  22881354.26027      2481.38827        42.80027                                                
G03  23992316.75625      2462.75025        34.10025                                                
G08  21164486.32328     -1119.61028        47.50028  21162138.64826      -836.30426        37.00026
G10  22845651.37626     -2038.20026        38.90026  22843291.11025     -1522.40925        30.90025
G21  21663798.75628      1639.84428        49.40028                                                
G27  22225882.03426     -3015.03326        37.00026  22223544.55224     -2251.35324        29.30024
G28  23813588.88726      2494.67426        36.60026  23811249.00724      1861.70024        26.40024
G32  21485995.14727     -1482.78627        44.20027  21483641.47625     -1107.56725        32.40025
R06  20926354.27825      2579.00025        31.20025
R05  19609818.69725     -1815.00025        32.10025
R20  19377311.35825       860.65025        30.30025
R21  22302741.02525      3842.00025        33.40025
C44  25457177.65426     -3112.59026        35.90026  25455301.85324     -2345.40024        26.70024
C43  22311798.95428      1535.93628        48.50028  22309911.46125      1156.96025        34.00025
C42  21856434.59728       202.39128        49.10028  21854553.99925       152.03725        33.70025
C39  38982255.03825       611.85025        34.10025  38980357.65124       460.80024        27.80024
C34  21774119.08327     -1282.66627        43.90027  21772226.19325      -966.86825        31.30025
C33  24999879.03525      2476.10025        32.10025  24998037.11125      1866.05025        31.70025
C21  23472238.89926     -2198.02226        40.10026  23470347.50825     -1656.82025        31.70025
C14  22508232.56625      1570.89825        34.70025                                                
C13  39569582.34025       -30.05025        31.40025                                                
C12  23591792.23427     -2525.13527        41.60027                                                
C11  21450829.79125       345.95025        33.50025                                                
C09  39175211.65726      1398.29926        36.40026                                                
C06  38559771.31725      1228.50025        32.50025                                                
E04  26091318.74726      2820.08826        36.20026  26089411.16825      2106.13225        29.70025
E10  25621637.20126      2056.08626        40.90026  25619729.02226      1535.40926        38.60026
E12  24315388.09926      1347.30726        37.40026  24313477.22125      1006.17025        34.40025
E19  23496779.31026       408.26926        36.90026  23494863.63625       304.94925        32.20025
E24  28369944.98724     -1892.05024        27.50024  28368036.80824     -1412.45024        24.80024
E33  24365860.85727      -837.42227        44.80027  24363948.78126      -625.37826        38.90026
> 2024 04 13 16 54 01.4260419  0 36                      
G02  22880889.22227      2483.49127        44.00027                                                
G03  23991849.92026      2467.61626        37.70026  23989512.73824      1841.35024        23.80024
G08  21164705.71127     -1115.52027        47.10027  21162352.04026      -833.18726        38.60026
G10  22846039.24826     -2037.57526        39.70026  22843678.98224     -1521.71424        29.30024
G21  21663490.21028      1642.00728        49.70028                                                
G27  22226468.06826     -3013.00226        38.90026                                                
G28  23813109.75925      2497.37625        35.00025  23810770.47824      1867.20024        26.40024
G32  21486277.19228     -1481.51528        48.60028  21483922.92125     -1106.43025        34.60025
R05  19610167.59526     -1813.24326        36.70026
R20  19377202.17425       863.65025        32.30025
R19  22043572.48424     -3115.15024        28.40024
R21  22302015.46826      3845.04226        40.10026
R04  23026392.59224     -3853.65024        24.60024
C60  38631652.19526        -1.40026        36.90026                                                
C44  25457784.07525     -3114.20025        33.80025                                                
C43  22311504.79828      1538.22428        48.80028  22309616.10626      1159.07926        36.10026
C42  21856393.76528       205.38928        49.50028  21854516.16525       153.75025        33.40025
C39  38982127.56625       612.80025        30.40025                                                
C34  21774363.35426     -1278.94126        40.50026  21772471.36425      -964.30425        31.70025
C33  24999421.49226      2481.27726        39.50026  24997557.38325      1868.96825        30.30025
C21  23472663.64526     -2197.31526        39.90026  23470768.65725     -1656.03025        33.80025
C16  39183027.48624       930.00024        29.00024                                                
C14  22507918.62426      1573.69926        37.00026                                                
C13  39569609.86124       -31.05024        27.70024                                                
C12  23592273.04126     -2520.66926        36.80026                                                
C11  21450752.08525       346.80025        33.80025                                                
C09  39174938.48626      1400.36826        35.70026                                                
C06  38559542.51625      1227.95025        31.00025                                                
C05  37616127.12925        58.80025        35.10025                                                
E04  26090785.05726      2825.80726        35.50026  26088875.37925      2109.08725        30.30025
E10  25621251.60827      2058.28127        41.50027  25619337.13426      1537.01126        38.10026
E11  26822590.13923      2363.65023        20.00023                                                
E12  24315134.11526      1349.65726        36.40026  24313221.13925      1007.51525        33.10025
E19  23496696.80726       411.33526        35.90026  23494785.93025       306.94325        31.00025
E24  28370303.18024     -1885.20024        27.80024                                                
E33  24366018.48827      -835.07527        44.90027  24364105.81226      -623.62626        37.10026
> 2024 04 13 16 54 02.4260420  0 34                      
G02  22880441.92727      2485.23827        43.90027                                                
G03  23991418.81426      2471.58326        37.90026  23989072.93824      1843.35024        28.30024
G08  21164943.74227     -1112.34527        44.70027  21162592.76926      -830.20026        39.80026
G10  22846449.36025     -2034.73125        35.30025  22844096.58824     -1518.20024        26.40024
G21  21663202.40426      1643.54326        40.80026                                                
G27  22227068.24826     -3008.08626        40.10026  22224714.87724     -2246.50024        26.50024
G32  21486590.77028     -1480.62628        50.90028  21484235.00126     -1105.34926        37.20026
R06  20925414.96424      2583.60024        27.20024
R05  19610464.38525     -1816.75025        31.20025
R20  19377098.44125       864.60025        32.40025
R19  22044208.33924     -3106.65024        27.90024
R21  22301328.63927      3846.10727        43.00027
C60  38631681.27126        19.25026        37.00026                                                
C44  25458408.53826     -3111.78026        35.50026                                                
C43  22311236.48028      1540.17028        49.00028  22309350.18626      1161.06126        35.90026
C42  21856383.86828       207.60628        47.90028  21854505.36825       161.90325        34.00025
C39  38982042.12125       613.02025        34.60025                                                
C34  21774637.65926     -1277.47926        37.50026  21772748.96724      -959.45024        28.40024
C33  24998970.30025      2483.15025        32.50025  24997113.08625      1879.22925        30.00025
C21  23473115.42826     -2195.62426        39.80026                                                
C16  39182875.18725       931.85525        35.10025                                                
C14  22507644.90926      1578.69526        36.70026                                                
C12  23592792.57726     -2518.16926        38.70026                                                
C11  21450724.50026       349.41326        35.90026                                                
C09  39174695.95025      1401.50025        30.90025                                                
C06  38559331.15825      1232.55025        34.10025                                                
C02  38710677.48324        14.80024        29.30024                                                
E04  26090273.90725      2831.00025        31.90025  26088370.52424      2110.60024        27.90024
E10  25620886.75626      2060.80626        38.50026  25618974.98026      1538.81526        38.20026
E12  24314910.46526      1351.63826        35.90026  24312989.99524      1009.40024        28.70024
E19  23496653.03325       420.00625        32.30025                                                
E24  28370680.31424     -1883.50024        26.20024                                                
E33  24366207.95326      -832.38526        40.60026                                                
G28                                                  23810324.38325      1864.96025        31.70025
> 2024 04 13 16 54 03.4260420  0 33                      
G02  22879969.33027      2478.96627        45.40027                                                
G08  21165156.47028     -1120.09228        48.40028  21162805.49727      -836.40727        43.30027
G10  22846853.05625     -2042.80025        34.40025                                                
G21  21662896.49227      1637.28427        46.60027                                                
G27  22227637.13026     -3015.30026        37.70026  22225287.35725     -2249.00725        33.50025
G32  21486870.95228     -1486.04828        53.00028  21484518.48027     -1109.82527        41.80027
R06  20924923.18024      2579.45024        27.60024
R05  19610861.48627     -1818.05527        43.60027
R20  19376912.44525       857.40025        30.30025
R21  22300611.71127      3840.01127        46.50027
R04  23027823.67224     -3855.05024        25.10024
C60  38631676.35026         5.55026        40.10026                                                
C44  25459004.40125     -3116.50025        32.80025                                                
C43  22310942.25928      1533.36828        48.40028  22309056.56425      1155.65325        35.20025
C42  21856344.47027       201.11627        45.10027  21854466.57026       151.34226        37.30026
C39  38981928.07625       609.95025        34.20025  38980038.78323       461.15023        22.50023
C34  21774882.76526     -1282.67526        38.50026  21773000.96824      -967.40024        26.00024
C33  24998504.29824      2472.65024        28.00024  24996635.09224      1868.45024        26.70024
C21  23473533.81326     -2200.87326        40.90026  23471643.62224     -1658.65024        26.90024
C16  39182703.58225       927.20025        33.90025                                                
C14  22507342.29427      1571.18327        46.20027                                                
C13  39569642.70924       -28.15024        29.00024                                                
C12  23593278.41625     -2527.03125        34.70025                                                
C11  21450662.31826       342.74726        38.00026                                                
C09  39174433.80726      1397.69826        37.30026                                                
C05  37616127.89925        57.80025        35.10025                                                
E04  26089734.45526      2823.95226        39.00026  26087827.47625      2108.33825        30.40025
E10  25620496.60227      2053.79327        43.90027  25618584.52627      1533.79727        42.00027
E12  24314651.32026      1345.10726        40.50026  24312733.54825      1004.30025        31.00025
E19  23496570.76525       407.50025        33.80025  23494656.89024       305.85024        25.60024
E24  28371039.04125     -1889.28325        35.00025  28369145.25223     -1408.05023        23.10023
E33  24366365.51926      -838.58826        39.50026  24364457.04024      -625.30024        28.40024
G28                                                  23809846.68926      1864.00426        37.60026
> 2024 04 13 16 54 04.4260420  0 34                      
G02  22879501.14926      2477.43626        40.60026                                                
G03  23990488.82825      2462.40025        33.30025                                                
G08  21165372.41528     -1123.94428        48.80028  21163019.64427      -839.66527        44.10027
G10  22847231.18926     -2040.74626        35.50026  22844873.02124     -1525.10024        28.30024
G21  21662583.00427      1635.66527        47.10027                                                
G27  22228215.52526     -3017.33826        37.00026  22225859.75525     -2254.15125        33.70025
G32  21487154.95028     -1487.87228        50.90028  21484801.87926     -1111.49326        41.10026
R06  20924424.42024      2572.05024        28.80024
R05  19611196.14927     -1819.92627        43.80027
R20  19376772.53725       854.30025        30.90025
R19  22045351.71824     -3119.90024        25.50024
R21  22299893.20328      3838.65728        50.20028
C44  25459599.58425     -3116.25025        30.30025                                                
C43  22310647.65827      1531.24227        42.70027  22308762.86326      1153.33126        39.10026
C42  21856308.89027       198.32327        44.50027  21854428.59226       148.99526        36.60026
C39  38981815.74826       607.30026        37.20026  38979919.86124       456.50024        27.80024
C34  21775130.78927     -1286.27827        42.60027                                                
C33  24998013.03425      2475.50025        33.70025                                                
C21  23473956.91627     -2202.25527        45.30027  23472067.02426     -1660.13326        38.10026
C16  39182517.20626       924.29626        35.60026                                                
C14  22507042.29727      1567.79227        43.00027                                                
C13  39569643.40425       -31.65025        33.90025                                                
C12  23593764.17524     -2528.65024        28.50024                                                
C11  21450594.66026       339.71126        39.10026                                                
C09  39174159.89126      1395.56726        37.80026                                                
C06  38558858.65625      1227.21825        34.90025                                                
E04  26089197.62226      2818.58126        40.90026  26087294.83925      2108.67425        30.80025
E10  25620107.56726      2051.91026        37.10026  25618194.29127      1532.46227        43.00027
E11  26821283.90923      2359.60023        23.30023                                                
E12  24314396.59126      1343.20326        40.10026  24312480.01824      1003.95024        26.90024
E19  23496495.31326       404.10526        36.70026  23494582.93724       301.40024        28.60024
E24  28371396.18924     -1888.87324        29.20024                                                
E33  24366528.70126      -841.01126        37.70026  24364616.62524      -628.10024        27.80024
G28                                                  23809372.81224      1861.40024        28.90024
> 2024 04 13 16 54 05.4260421  0 33                      
G02  22879056.38927      2481.89327        42.40027                                                
G03  23990022.18324      2461.35024        28.80024  23987694.89423      1839.20023        23.00023
G08  21165612.98128     -1121.57528        48.30028  21163263.50727      -837.45427        44.20027
G10  22847638.43926     -2037.60526        38.60026  22845289.86525     -1521.70025        32.40025
G21  21662299.83227      1639.86027        47.10027                                                
G27  22228821.83726     -3014.14626        36.90026  22226461.87125     -2251.05625        35.10025
G32  21487459.67127     -1484.35627        47.40027  21485112.89626     -1108.44626        40.50026
R06  20924010.53925      2577.50025        32.20025
R05  19611576.71827     -1816.45327        43.50027
R20  19376639.26225       856.65025        30.60025
R21  22299206.51028      3843.63828        49.00028
C44  25460218.48725     -3114.40025        30.20025                                                
C43  22310381.57427      1534.69927        42.00027  22308497.37926      1156.58626        37.70026
C42  21856295.23227       201.34027        44.40027  21854421.22926       151.84226        38.10026
C39  38981707.65525       611.07425        34.60025  38979827.65725       460.83925        30.80025
C34  21775410.02727     -1284.08627        42.40027  21773523.13323      -966.90023        22.90023
C33  24997561.67825      2477.13825        35.20025  24995723.05124      1866.45024        24.70024
C21  23474412.43228     -2198.13228        47.80028  23472520.14226     -1656.44426        40.60026
C16  39182380.03325       928.70025        33.70025                                                
C14  22506770.81727      1570.12927        44.40027                                                
C13  39569675.91324       -28.75024        27.90024                                                
C12  23594286.84524     -2524.50024        28.90024                                                
C11  21450559.11725       343.02525        35.30025                                                
C09  39173927.98426      1398.58926        36.90026                                                
C06  38558644.73626      1229.70326        37.30026                                                
C02  38710685.98025        62.45025        31.00025                                                
E04  26088691.40526      2820.79026        37.80026  26086784.72525      2106.75725        31.70025
E10  25619744.05026      2057.18426        39.90026  25617832.57326      1536.18326        41.30026
E12  24314167.68226      1347.95826        38.90026                                                
E19  23496443.88026       407.18126        35.50026  23494534.20224       306.60024        25.60024
E24  28371788.15025     -1890.45025        33.70025                                                
E33  24366717.10325      -838.70025        30.60025  24364808.62425      -625.31225        29.50025
G28                                                  23808933.74824      1861.25024        28.40024
> 2024 04 13 16 54 06.4260421  0 35                      
G02  22878590.33127      2483.22827        42.60027                                                
G03  23989574.11326      2467.47926        36.10026  23987225.23924      1842.75024        28.70024
G08  21165827.45228     -1122.71628        47.70028  21163476.48027      -838.51027        42.60027
G10  22848038.18226     -2039.21226        38.90026  22845677.61624     -1522.35024        28.50024
G21  21661986.96827      1640.57927        45.90027                                                
G27  22229389.76426     -3017.45826        35.50026  22227038.19226     -2253.84526        37.20026
G28  23810790.48325      2492.45825        35.10025  23808455.99924      1860.15024        27.50024
G32  21487749.69027     -1487.07027        46.20027  21485396.02026     -1110.40626        39.90026
R06  20923521.99725      2574.05025        32.50025
R05  19611910.80727     -1817.74227        42.90027
R20  19376462.80425       856.80025        30.10025
R21  22298484.13128      3845.76528        48.90028
R04  23029984.92324     -3859.25024        23.90024
C60  38631703.97825         5.95025        35.00025                                                
C44  25460832.58224     -3117.75024        28.80024                                                
C43  22310090.59627      1535.21827        44.20027  22308201.60325      1156.42325        34.10025
C42  21856260.27627       200.64727        43.70027  21854381.47626       150.92926        38.60026
C39  38981604.64725       609.85025        33.70025  38979710.55825       458.63025        32.60025
C34  21775653.57927     -1287.39727        43.70027  21773770.28224      -971.80024        25.90024
C33  24997109.11125      2477.20025        31.90025  24995241.70424      1866.70024        24.90024
C21  23474831.66228     -2199.65828        47.80028  23472942.97026     -1657.69826        40.40026
C16  39182188.28524       928.40024        28.50024                                                
C14  22506466.64726      1569.64726        41.20026                                                
C13  39569677.53225       -29.80025        30.50025                                                
C12  23594758.83825     -2528.05025        31.40025                                                
C11  21450491.78326       341.50726        37.00026                                                
C09  39173657.69126      1394.07426        37.20026                                                
C06  38558411.31726      1225.42326        38.30026                                                
C05  37616123.45025        76.50025        32.60025                                                
E04  26088154.59627      2818.18027        42.00027  26086249.11525      2104.43725        32.10025
E10  25619353.24126      2058.71926        37.40026  25617440.86526      1537.63726        39.60026
E12  24313914.47726      1348.25326        39.50026  24312000.90224      1006.10024        24.00024
E19  23496371.15126       404.21526        38.00026                                                
E24  28372151.31826     -1888.10026        35.90026                                                
E33  24366878.81126      -840.89526        38.40026  24364966.73424      -627.35024        28.50024
> 2024 04 13 16 54 07.4260421  0 33                      
G02  22878113.95127      2488.24627        42.20027                                                
G03  23989095.03426      2473.29526        41.40026  23986754.85525      1847.77825        35.40025
G08  21166042.69327     -1120.30927        41.80027  21163690.52126      -835.44526        39.50026
G10  22848417.40926     -2045.89726        36.60026  22846066.73725     -1527.89625        31.80025
G21  21661678.47128      1643.74128        49.60028                                                
G27  22229959.95826     -3017.94126        39.00026  22227612.28425     -2253.42425        33.70025
G28  23810334.48825      2486.25025        32.60025  23807979.01825      1852.72225        30.10025
G32  21488032.98427     -1493.26027        46.30027  21485677.81425     -1114.42725        32.60025
R06  20923038.12225      2579.45025        33.80025
R05  19612245.66427     -1819.29527        42.20027
R21  22297767.61627      3850.38227        45.20027
R04  23030748.48424     -3860.10024        26.10024
C44  25461430.95824     -3107.50024        28.60024                                                
C43  22309792.89127      1538.60527        46.00027  22307903.29924      1160.05024        28.40024
C42  21856223.39127       202.07627        45.60027  21854343.09326       152.66126        37.60026
C39  38981487.71725       605.63825        34.70025  38979596.62624       452.89024        28.70024
C34  21775900.89727     -1289.43827        45.60027  21774012.80424      -972.20024        26.30024
C33  24996620.13925      2478.43625        34.40025  24994762.92524      1872.75024        27.50024
C21  23475255.55828     -2204.61728        48.20028  23473362.96825     -1658.90025        32.10025
C16  39182013.19625       916.32625        34.30025                                                
C14  22506166.54527      1575.02027        46.20027                                                
C13  39569694.91024       -28.95024        28.40024                                                
C12  23595253.48525     -2535.20025        32.90025                                                
C11  21450429.41626       341.92326        36.90026                                                
C09  39173392.96425      1389.70025        33.40025                                                
C06  38558176.56925      1215.10625        35.10025                                                
E04  26087617.35825      2818.16825        34.20025  26085710.37825      2106.86425        31.00025
E10  25618958.10426      2054.67226        38.70026  25617049.02526      1541.59026        40.40026
E11  26819952.17323      2369.80023        23.20023                                                
E12  24313655.44626      1349.72126        40.00026  24311742.17125      1008.27225        29.80025
E19  23496293.19425       401.01825        34.90025                                                
E24  28372507.16126     -1879.34726        36.10026  28370609.47524     -1404.85024        25.00024
E33  24367039.78925      -846.72225        35.40025  24365124.11525      -633.09325        29.50025
> 2024 04 13 16 54 08.4260422  0 31                      
G02  22877670.35127      2491.33227        44.40027                                                
G03  23988657.73127      2480.49227        43.90027  23986312.45425      1852.42925        34.50025
G08  21166285.01827     -1117.30027        47.00027  21163931.34826      -833.92026        37.80026
G10  22848836.91226     -2057.72926        40.40026  22846488.63825     -1536.12525        31.20025
G21  21661394.66127      1642.74027        45.40027                                                
G27  22230571.02926     -3016.21326        37.50026                                                
G28  23809897.48425      2486.20025        31.60025                                                
G32  21488346.66027     -1501.93127        43.10027  21485994.48824     -1119.35024        26.20024
R06  20922571.13825      2586.25025        32.70025
R05  19612620.79826     -1825.40026        35.70026
R21  22297080.28526      3851.03226        39.90026
C44  25462071.10824     -3117.00024        28.10024                                                
C43  22309528.26827      1538.47527        45.70027  22307643.77225      1159.67625        29.60025
C42  21856211.19327       201.05227        46.90027  21854333.29325       151.66325        32.80025
C39  38981400.87025       585.43525        34.90025  38979507.98124       447.15024        25.40024
C34  21776177.39927     -1293.79927        44.70027  21774290.50525      -975.14125        30.30025
C33  24996175.64026      2477.64426        38.50026  24994315.72825      1876.45425        34.00025
C21  23475709.83726     -2212.60926        40.00026  23473820.84525     -1669.00025        32.90025
C16  39181876.28426       903.77026        36.30026                                                
C14  22505893.22727      1577.58127        46.50027                                                
C12  23595771.02025     -2541.13025        35.10025                                                
C11  21450386.03926       338.70426        38.30026                                                
C09  39173158.91925      1381.20025        31.60025                                                
C02  38710688.28125         8.50025        29.90025                                                
E04  26087106.90425      2819.34725        32.00025                                                
E10  25618599.34526      2065.75026        40.90026  25616683.67225      1537.11125        33.10025
E12  24313427.69727      1347.33027        42.80027  24311515.32126      1006.14226        37.60026
E19  23496256.11324       395.77924        29.40024                                                
E24  28372891.88825     -1873.28325        31.70025  28370998.09924     -1398.70024        28.70024
E33  24367227.55225      -857.08525        35.00025                                                
E11                                                  26817624.37823      1766.90023        22.10023
> 2024 04 13 16 54 09.4260422  0 35                      
G02  22877189.85827      2493.80227        42.90027                                                
G03  23988183.53326      2487.20326        39.60026  23985840.05525      1857.65525        30.90025
G08  21166495.54726     -1114.24226        40.50026  21164145.47426      -832.52126        39.60026
G10  22849233.91126     -2063.93126        37.50026  22846882.03925     -1541.08825        34.30025
G21  21661080.55327      1644.60227        47.20027                                                
G27  22231144.30627     -3018.79727        44.20027  22228793.93324     -2254.20024        29.20024
G28  23809444.87125      2471.85025        31.40025  23807071.71424      1845.95024        24.60024
G32  21488633.63527     -1506.96227        44.10027                                                
R06  20922093.34325      2587.30025        32.50025
R05  19612956.63926     -1826.63026        39.70026
R20  19376034.85724       846.55024        25.40024
R19  22048318.27424     -3136.05024        24.10024
R21  22296339.27225      3851.75025        34.70025
R04  23032241.01824     -3849.60024        25.40024
C60  38631744.60726       -14.00026        36.10026                                                
C43  22309230.64827      1540.94727        42.20027  22307346.75225      1161.09625        34.80025
C42  21856174.09227       202.21927        45.70027  21854294.09425       152.20225        29.60025
C39  38981288.22326       581.02826        36.00026  38979402.22824       436.45024        26.50024
C34  21776426.60027     -1295.65927        41.80027  21774536.40925      -976.06525        29.50025
C33  24995695.14726      2493.68226        41.20026  24993836.43426      1879.68426        38.70026
C21  23476137.11527     -2217.83927        41.90027  23474245.72525     -1671.12425        34.60025
C16  39181704.57725       896.05025        33.60025                                                
C14  22505588.41227      1581.66827        43.90027                                                
C13  39569736.14824       -52.10024        29.00024                                                
C12  23596252.26125     -2539.30025        32.90025                                                
