# 
# Header Description:
# 
# Version: v3.0.6.4 Platform: 14 Manufacturer: samsung Model: SM-S906E
# 
# Raw,utcTimeMillis,TimeNanos,LeapSecond,TimeUncertaintyNanos,FullBiasNanos,BiasNanos,BiasUncertaintyNanos,DriftNanosPerSecond,DriftUncertaintyNanosPerSecond,HardwareClockDiscontinuityCount,Svid,TimeOffsetNanos,State,ReceivedSvTimeNanos,ReceivedSvTimeUncertaintyNanos,Cn0DbHz,PseudorangeRateMetersPerSecond,PseudorangeRateUncertaintyMetersPerSecond,AccumulatedDeltaRangeState,AccumulatedDeltaRangeMeters,AccumulatedDeltaRangeUncertaintyMeters,CarrierFrequencyHz,CarrierCycles,CarrierPhase,CarrierPhaseUncertainty,MultipathIndicator,SnrInDb,ConstellationType,AgcDb,BasebandCn0DbHz,FullInterSignalBiasNanos,FullInterSignalBiasUncertaintyNanos,SatelliteInterSignalBiasNanos,SatelliteInterSignalBiasUncertaintyNanos,CodeType,ChipsetElapsedRealtimeNanos
# 
# UncalAccel,utcTimeMillis,elapsedRealtimeNanos,UncalAccelXMps2,UncalAccelYMps2,UncalAccelZMps2,BiasXMps2,BiasYMps2,BiasZMps2
# 
# Accel,utcTimeMillis,elapsedRealtimeNanos,AccelXMps2,AccelYMps2,AccelZMps2
# 
# UncalGyro,utcTimeMillis,elapsedRealtimeNanos,UncalGyroXRadPerSec,UncalGyroYRadPerSec,UncalGyroZRadPerSec,DriftXRadPerSec,DriftYRadPerSec,DriftZRadPerSec
# 
# Gyro,utcTimeMillis,elapsedRealtimeNanos,GyroXRadPerSec,GyroYRadPerSec,GyroZRadPerSec
# 
# UncalMag,utcTimeMillis,elapsedRealtimeNanos,UncalMagXMicroT,UncalMagYMicroT,UncalMagZMicroT,BiasXMicroT,BiasYMicroT,BiasZMicroT
# 
# Mag,utcTimeMillis,elapsedRealtimeNanos,MagXMicroT,MagYMicroT,MagZMicroT
# 
# OrientationDeg,utcTimeMillis,elapsedRealtimeNanos,yawDeg,rollDeg,pitchDeg
# 
# Fix,Provider,LatitudeDegrees,LongitudeDegrees,AltitudeMeters,SpeedMps,AccuracyMeters,BearingDegrees,UnixTimeMillis,SpeedAccuracyMps,BearingAccuracyDegrees,elapsedRealtimeNanos,VerticalAccuracyMeters,MockLocation,NumberOfUsedSignals,VerticalSpeedAccuracyMps,SolutionType
# 
# Nav,Svid,Type,Status,MessageId,Sub-messageId,Data(Bytes)
# 
# Status,UnixTimeMillis,SignalCount,SignalIndex,ConstellationType,Svid,CarrierFrequencyHz,Cn0DbHz,AzimuthDegrees,ElevationDegrees,UsedInFix,HasAlmanacData,HasEphemerisData,BasebandCn0DbHz
# 
# Agc,utcTimeMillis,TimeNanos,LeapSecond,TimeUncertaintyNanos,FullBiasNanos,BiasNanos,BiasUncertaintyNanos,DriftNanosPerSecond,DriftUncertaintyNanosPerSecond,HardwareClockDiscontinuityCount,AgcDb,CarrierFrequencyHz,ConstellationType
# 
Fix,FLP,32.1687809000,34.8133020000,43.251965307031504,0.3067802,3.974,76.66546,1713027120554,0.07067687,45.0,338334694964047,2.3716788,0,,,
Status,,63,0,1,2,1575420030,42.20,317.0,34.0,1,1,1,37.2
Status,,63,1,1,3,1575420030,39.30,262.0,14.0,1,1,1,34.3
Status,,63,2,1,8,1575420030,45.70,243.0,56.0,1,1,1,40.7
Status,,63,3,1,10,1575420030,31.20,49.0,31.0,1,1,1,26.2
Status,,63,4,1,21,1575420030,39.10,325.0,51.0,1,1,1,34.1
Status,,63,5,1,27,1575420030,38.20,187.0,41.0,1,1,1,33.2
Status,,63,6,1,28,1575420030,33.10,126.0,18.0,1,1,1,28.1
Status,,63,7,1,32,1575420030,37.20,57.0,55.0,1,1,1,32.2
Status,,63,8,2,123,1575420030,40.10,0.0,0.0,0,0,0,35.1
Status,,63,9,2,127,1575420030,36.80,0.0,0.0,0,0,0,31.8
Status,,63,10,2,136,1575420030,40.20,0.0,0.0,0,0,0,35.2
Status,,63,11,3,95,1599187460,34.70,0.0,0.0,0,0,0,29.7
Status,,63,12,3,6,1599750020,33.00,232.0,40.0,1,1,0,28.0
Status,,63,13,3,5,1602562560,38.30,9.0,65.0,1,1,1,33.3
Status,,63,14,3,20,1603124990,26.10,28.0,73.0,1,1,0,21.1
Status,,63,15,3,21,1604249980,40.60,330.0,22.0,1,1,1,35.6
Status,,63,16,3,4,1605374980,21.90,31.0,16.0,0,1,0,16.9
Status,,63,17,5,60,1561097980,36.90,116.0,29.0,1,1,0,31.9
Status,,63,18,5,44,1561097980,23.50,144.0,15.0,1,1,0,18.5
Status,,63,19,5,43,1561097980,41.20,309.0,56.0,1,1,0,36.2
Status,,63,20,5,42,1561097980,43.20,280.0,74.0,1,1,0,38.2
Status,,63,21,5,39,1561097980,32.20,63.0,27.0,1,1,0,27.2
Status,,63,22,5,34,1561097980,36.30,161.0,68.0,1,1,0,31.3
Status,,63,23,5,33,1561097980,26.40,237.0,23.0,1,1,0,21.4
Status,,63,24,5,21,1561097980,40.70,37.0,43.0,1,1,0,35.7
Status,,63,25,5,16,1561097980,30.70,72.0,28.0,1,1,0,25.7
Status,,63,26,5,14,1561097980,42.50,245.0,49.0,1,1,0,37.5
Status,,63,27,5,13,1561097980,25.10,69.0,18.0,1,1,0,20.1
Status,,63,28,5,12,1561097980,42.20,144.0,38.0,1,1,0,37.2
Status,,63,29,5,11,1561097980,38.10,298.0,82.0,1,1,0,33.1
Status,,63,30,5,9,1561097980,34.10,95.0,31.0,1,1,0,29.1
Status,,63,31,5,6,1561097980,27.30,84.0,31.0,1,1,0,22.3
Status,,63,32,5,5,1561097980,38.80,138.0,46.0,1,1,0,33.8
Status,,63,33,5,2,1561097980,26.70,112.0,27.0,0,1,0,21.7
Status,,63,34,6,4,1575420030,23.10,203.0,28.0,1,1,0,18.1
Status,,63,35,6,10,1575420030,35.60,319.0,35.0,1,1,0,30.6
Status,,63,36,6,12,1575420030,32.60,338.0,57.0,1,1,0,27.6
Status,,63,37,6,19,1575420030,28.00,118.0,73.0,1,1,0,23.0
Status,,63,38,6,24,1575420030,35.30,259.0,7.0,1,1,0,30.3
Status,,63,39,6,33,1575420030,34.20,92.0,51.0,1,1,0,29.2
Status,,63,40,1,3,1176450050,29.30,262.0,14.0,1,1,1,24.3
Status,,63,41,1,8,1176450050,32.00,243.0,56.0,1,1,1,27.0
Status,,63,42,1,10,1176450050,20.30,49.0,31.0,1,1,1,15.3
Status,,63,43,1,27,1176450050,30.10,187.0,41.0,1,1,1,25.1
Status,,63,44,1,28,1176450050,20.60,126.0,18.0,1,1,1,15.6
Status,,63,45,1,32,1176450050,20.40,57.0,55.0,1,1,1,15.4
Status,,63,46,6,10,1176450050,29.50,319.0,35.0,1,1,0,24.5
Status,,63,47,6,12,1176450050,25.50,338.0,57.0,1,1,0,20.5
Status,,63,48,6,19,1176450050,20.50,118.0,73.0,1,1,0,15.5
Status,,63,49,6,24,1176450050,24.20,259.0,7.0,1,1,0,19.2
Status,,63,50,6,33,1176450050,26.10,92.0,51.0,1,1,0,21.1
Status,,63,51,5,21,1176450050,30.60,37.0,43.0,1,1,0,25.6
Status,,63,52,5,33,1176450050,29.40,237.0,23.0,1,1,0,24.4
Status,,63,53,5,34,1176450050,29.10,161.0,68.0,1,1,0,24.1
Status,,63,54,5,39,1176450050,25.10,63.0,27.0,1,1,0,20.1
Status,,63,55,5,42,1176450050,28.50,280.0,74.0,1,1,0,23.5
Status,,63,56,5,43,1176450050,28.10,309.0,56.0,1,1,0,23.1
Status,,63,57,5,21,1575420030,37.10,37.0,43.0,1,1,0,32.1
Status,,63,58,5,33,1575420030,28.50,237.0,23.0,1,1,0,23.5
Status,,63,59,5,34,1575420030,36.70,161.0,68.0,1,1,0,31.7
Status,,63,60,5,39,1575420030,31.70,63.0,27.0,1,1,0,26.7
Status,,63,61,5,42,1575420030,34.00,280.0,74.0,1,1,0,29.0
Status,,63,62,5,43,1575420030,38.00,309.0,56.0,1,1,0,33.0
Raw,1713027121418,332339413000000,18,0.0,-1396730000005698381,0.3211078643798828,24.11737477814313,-31.95583452376674,9.489240908272992,7,2,0.0,16399,579139342218269,7,47.2,-475.26104736328125,0.04470549151301384,16,0.0,0.0,1575420030,,,,0,0.0,1,-57.11,42.2,0.0,0.0,,,C,338335118220505
Raw,1713027121418,332339413000000,18,0.0,-1396730000005698381,0.3211078643798828,24.11737477814313,-31.95583452376674,9.489240908272992,7,3,0.0,16399,579139338513404,10,44.3,-473.3402099609375,0.02239910326898098,16,0.0,0.0,1575420030,,,,0,0.0,1,-57.11,39.3,0.0,0.0,,,C,338335118220505
Raw,1713027121418,332339413000000,18,0.0,-1396730000005698381,0.3211078643798828,24.11737477814313,-31.95583452376674,9.489240908272992,7,8,0.0,16399,579139348174388,5,50.7,200.3428497314453,0.03450664132833481,16,0.0,0.0,1575420030,,,,0,0.0,1,-57.11,45.7,0.0,0.0,,,C,338335118220505
Raw,1713027121418,332339413000000,18,0.0,-1396730000005698381,0.3211078643798828,24.11737477814313,-31.95583452376674,9.489240908272992,7,10,0.0,16399,579139342627316,21,36.2,385.6965637207031,1.797234058380127,16,0.0,0.0,1575420030,,,,0,0.0,1,-57.11,31.200000000000003,0.0,0.0,,,C,338335118220505
Raw,1713027121418,332339413000000,18,0.0,-1396730000005698381,0.3211078643798828,24.11737477814313,-31.95583452376674,9.489240908272992,7,21,0.0,16399,579139346333185,10,44.1,-317.2589111328125,0.040399108082056046,16,0.0,0.0,1575420030,,,,0,0.0,1,-57.11,39.1,0.0,0.0,,,C,338335118220505
Raw,1713027121418,332339413000000,18,0.0,-1396730000005698381,0.3211078643798828,24.11737477814313,-31.95583452376674,9.489240908272992,7,27,0.0,16399,579139344756315,11,43.2,566.1300659179688,0.04419833794236183,16,0.0,0.0,1575420030,,,,0,0.0,1,-57.11,38.2,0.0,0.0,,,C,338335118220505
Raw,1713027121418,332339413000000,18,0.0,-1396730000005698381,0.3211078643798828,24.11737477814313,-31.95583452376674,9.489240908272992,7,28,0.0,16399,579139339107477,17,38.1,-479.2322692871094,4.026961326599121,16,0.0,0.0,1575420030,,,,0,0.0,1,-57.11,33.1,0.0,0.0,,,C,338335118220505
Raw,1713027121418,332339413000000,18,0.0,-1396730000005698381,0.3211078643798828,24.11737477814313,-31.95583452376674,9.489240908272992,7,32,0.0,16399,579139347125450,12,42.2,270.6861267089844,0.04049757122993469,16,0.0,0.0,1575420030,,,,0,0.0,1,-57.11,37.2,0.0,0.0,,,C,338335118220505
Raw,1713027121418,332339413000000,18,0.0,-1396730000005698381,0.3211078643798828,24.11737477814313,-31.95583452376674,9.489240908272992,7,6,0.0,49359,71521348734217,17,37.0,-495.2637939453125,1.7336503267288208,16,0.0,0.0,1599750020,,,,0,0.0,3,-58.26,33.0,3790.89697265625,8.934127807617188,,,C,338335118220505
Raw,1713027121418,332339413000000,18,0.0,-1396730000005698381,0.3211078643798828,24.11737477814313,-31.95583452376674,9.489240908272992,7,5,0.0,49359,71521353402833,11,42.3,327.0719909667969,0.03058488853275776,16,0.0,0.0,1602562560,,,,0,0.0,3,-58.26,38.3,3790.89697265625,8.934127807617188,,,C,338335118220505
Raw,1713027121418,332339413000000,18,0.0,-1396730000005698381,0.3211078643798828,24.11737477814313,-31.95583452376674,9.489240908272992,7,20,0.0,49359,71521354009346,40,30.1,-174.9525604248047,0.7924999594688416,16,0.0,0.0,1603124990,,,,0,0.0,3,-58.26,26.1,3790.89697265625,8.934127807617188,,,C,338335118220505
Raw,1713027121418,332339413000000,18,0.0,-1396730000005698381,0.3211078643798828,24.11737477814313,-31.95583452376674,9.489240908272992,7,21,0.0,49359,71521344065335,9,44.6,-721.8831176757812,0.04271378368139267,16,0.0,0.0,1604249980,,,,0,0.0,3,-58.26,40.6,3790.89697265625,8.934127807617188,,,C,338335118220505
Raw,1713027121418,332339413000000,18,0.0,-1396730000005698381,0.3211078643798828,24.11737477814313,-31.95583452376674,9.489240908272992,7,4,0.0,49359,71521342138853,80,25.9,719.2498168945312,1.7395000457763672,16,0.0,0.0,1605374980,,,,0,0.0,3,-58.26,21.9,3790.89697265625,8.934127807617188,,,C,338335118220505
Raw,1713027121418,332339413000000,18,0.0,-1396730000005698381,0.3211078643798828,24.11737477814313,-31.95583452376674,9.489240908272992,7,60,0.0,16399,579125289839879,13,41.2,-2.102832317352295,1.2648999691009521,16,0.0,0.0,1561097980,,,,0,0.0,5,-65.28,36.900000000000006,-1536.3243408203125,7.768185138702393,,,I,338335118220505
Raw,1713027121418,332339413000000,18,0.0,-1396730000005698381,0.3211078643798828,24.11737477814313,-31.95583452376674,9.489240908272992,7,43,0.0,16399,579125344176740,8,45.5,-304.5754699707031,0.04224337637424469,16,0.0,0.0,1561097980,,,,0,0.0,5,-65.28,41.2,-1536.3243408203125,7.768185138702393,,,I,338335118220505
Raw,1713027121418,332339413000000,18,0.0,-1396730000005698381,0.3211078643798828,24.11737477814313,-31.95583452376674,9.489240908272992,7,42,0.0,16399,579125345782073,6,47.5,-47.79074478149414,0.03984079137444496,16,0.0,0.0,1561097980,,,,0,0.0,5,-65.28,43.2,-1536.3243408203125,7.768185138702393,,,I,338335118220505
Raw,1713027121418,332339413000000,18,0.0,-1396730000005698381,0.3211078643798828,24.11737477814313,-31.95583452376674,9.489240908272992,7,39,0.0,16399,579125288630634,19,36.5,-122.73930358886719,1.7857999801635742,16,0.0,0.0,1561097980,,,,0,0.0,5,-65.28,32.2,-1536.3243408203125,7.768185138702393,,,I,338335118220505
Raw,1713027121418,332339413000000,18,0.0,-1396730000005698381,0.3211078643798828,24.11737477814313,-31.95583452376674,9.489240908272992,7,34,0.0,16399,579125346152449,13,40.6,235.61874389648438,0.04296894371509552,16,0.0,0.0,1561097980,,,,0,0.0,5,-65.28,36.300000000000004,-1536.3243408203125,7.768185138702393,,,I,338335118220505
Raw,1713027121418,332339413000000,18,0.0,-1396730000005698381,0.3211078643798828,24.11737477814313,-31.95583452376674,9.489240908272992,7,33,0.0,16399,579125335149790,40,30.7,-482.8736877441406,0.7910000085830688,16,0.0,0.0,1561097980,,,,0,0.0,5,-65.28,26.4,-1536.3243408203125,7.768185138702393,,,I,338335118220505
Raw,1713027121418,332339413000000,18,0.0,-1396730000005698381,0.3211078643798828,24.11737477814313,-31.95583452376674,9.489240908272992,7,21,0.0,16399,579125340548351,9,45.0,417.4286804199219,0.048857904970645905,16,0.0,0.0,1561097980,,,,0,0.0,5,-65.28,40.7,-1536.3243408203125,7.768185138702393,,,I,338335118220505
Raw,1713027121418,332339413000000,18,0.0,-1396730000005698381,0.3211078643798828,24.11737477814313,-31.95583452376674,9.489240908272992,7,16,0.0,16399,579125287939820,24,35.0,-183.227783203125,2.4141745567321777,16,0.0,0.0,1561097980,,,,0,0.0,5,-65.28,30.7,-1536.3243408203125,7.768185138702393,,,I,338335118220505
Raw,1713027121418,332339413000000,18,0.0,-1396730000005698381,0.3211078643798828,24.11737477814313,-31.95583452376674,9.489240908272992,7,14,0.0,16399,579125343519488,7,46.8,-310.13848876953125,0.043244075030088425,16,0.0,0.0,1561097980,,,,0,0.0,5,-65.28,42.5,-1536.3243408203125,7.768185138702393,,,I,338335118220505
Raw,1713027121418,332339413000000,18,0.0,-1396730000005698381,0.3211078643798828,24.11737477814313,-31.95583452376674,9.489240908272992,7,13,0.0,16399,579125286713646,46,29.4,4.762579441070557,0.8644999861717224,16,0.0,0.0,1561097980,,,,0,0.0,5,-65.28,25.099999999999998,-1536.3243408203125,7.768185138702393,,,I,338335118220505
Raw,1713027121418,332339413000000,18,0.0,-1396730000005698381,0.3211078643798828,24.11737477814313,-31.95583452376674,9.489240908272992,7,12,0.0,16399,579125340170189,7,46.5,476.9897155761719,0.04774407669901848,16,0.0,0.0,1561097980,,,,0,0.0,5,-65.28,42.2,-1536.3243408203125,7.768185138702393,,,I,338335118220505
Raw,1713027121418,332339413000000,18,0.0,-1396730000005698381,0.3211078643798828,24.11737477814313,-31.95583452376674,9.489240908272992,7,11,0.0,16399,579125347125487,11,42.4,-77.19397735595703,0.039759788662195206,16,0.0,0.0,1561097980,,,,0,0.0,5,-65.28,38.1,-1536.3243408203125,7.768185138702393,,,I,338335118220505
Raw,1713027121418,332339413000000,18,0.0,-1396730000005698381,0.3211078643798828,24.11737477814313,-31.95583452376674,9.489240908272992,7,9,0.0,16399,579125287936269,16,38.4,-272.6042175292969,1.1997742652893066,16,0.0,0.0,1561097980,,,,0,0.0,5,-65.28,34.1,-1536.3243408203125,7.768185138702393,,,I,338335118220505
Raw,1713027121418,332339413000000,18,0.0,-1396730000005698381,0.3211078643798828,24.11737477814313,-31.95583452376674,9.489240908272992,7,6,0.0,16399,579125290000018,35,31.6,-240.75991821289062,0.7384999990463257,16,0.0,0.0,1561097980,,,,0,0.0,5,-65.28,27.3,-1536.3243408203125,7.768185138702393,,,I,338335118220505
Raw,1713027121418,332339413000000,18,0.0,-1396730000005698381,0.3211078643798828,24.11737477814313,-31.95583452376674,9.489240908272992,7,5,0.0,16399,579125293223973,11,43.1,-12.14649772644043,1.066499948501587,16,0.0,0.0,1561097980,,,,0,0.0,5,-65.28,38.800000000000004,-1536.3243408203125,7.768185138702393,,,I,338335118220505
Raw,1713027121418,332339413000000,18,0.0,-1396730000005698381,0.3211078643798828,24.11737477814313,-31.95583452376674,9.489240908272992,7,2,0.0,16399,579125289574397,40,31.0,-13.029878616333008,5.363100051879883,16,0.0,0.0,1561097980,,,,0,0.0,5,-65.28,26.7,-1536.3243408203125,7.768185138702393,,,I,338335118220505
Raw,1713027121418,332339413000000,18,0.0,-1396730000005698381,0.3211078643798828,24.11737477814313,-31.95583452376674,9.489240908272992,7,4,0.0,23567,579139331488891,61,27.4,-541.5662841796875,1.0099999904632568,16,0.0,0.0,1575420030,,,,0,0.0,6,-60.82,23.099999999999998,-1462.9169921875,9.183806419372559,,,C,338335118220505
Raw,1713027121418,332339413000000,18,0.0,-1396730000005698381,0.3211078643798828,24.11737477814313,-31.95583452376674,9.489240908272992,7,10,0.0,23567,579139333105112,14,39.9,-393.0099792480469,0.06651468575000763,16,0.0,0.0,1575420030,,,,0,0.0,6,-60.82,35.6,-1462.9169921875,9.183806419372559,,,C,338335118220505
Raw,1713027121418,332339413000000,18,0.0,-1396730000005698381,0.3211078643798828,24.11737477814313,-31.95583452376674,9.489240908272992,7,12,0.0,23567,579139337507395,19,36.9,-260.2209777832031,0.04159552603960037,16,0.0,0.0,1575420030,,,,0,0.0,6,-60.82,32.6,-1462.9169921875,9.183806419372559,,,C,338335118220505
Raw,1713027121418,332339413000000,18,0.0,-1396730000005698381,0.3211078643798828,24.11737477814313,-31.95583452376674,9.489240908272992,7,19,0.0,23567,579139340297178,31,32.3,-87.5826644897461,0.6754999756813049,16,0.0,0.0,1575420030,,,,0,0.0,6,-60.82,27.999999999999996,-1462.9169921875,9.183806419372559,,,C,338335118220505
Raw,1713027121418,332339413000000,18,0.0,-1396730000005698381,0.3211078643798828,24.11737477814313,-31.95583452376674,9.489240908272992,7,24,0.0,23567,579139324190573,14,39.6,356.2219543457031,0.06501469016075134,16,0.0,0.0,1575420030,,,,0,0.0,6,-60.82,35.300000000000004,-1462.9169921875,9.183806419372559,,,C,338335118220505
Raw,1713027121418,332339413000000,18,0.0,-1396730000005698381,0.3211078643798828,24.11737477814313,-31.95583452376674,9.489240908272992,7,33,0.0,23567,579139337478750,16,38.5,153.40428161621094,0.037808679044246674,16,0.0,0.0,1575420030,,,,0,0.0,6,-60.82,34.2,-1462.9169921875,9.183806419372559,,,C,338335118220505
Raw,1713027121418,332339413000000,18,0.0,-1396730000005698381,0.3211078643798828,24.11737477814313,-31.95583452376674,9.489240908272992,7,3,0.0,81935,579139338521228,7,34.3,-473.0614318847656,0.1170085221529007,16,0.0,0.0,1176450050,,,,0,0.0,1,-38.73,29.299999999999997,-7861.53955078125,6.019638538360596,,,Q,338335118220505
Raw,1713027121418,332339413000000,18,0.0,-1396730000005698381,0.3211078643798828,24.11737477814313,-31.95583452376674,9.489240908272992,7,8,0.0,81935,579139348182242,5,37.0,200.531005859375,0.06304531544446945,16,0.0,0.0,1176450050,,,,0,0.0,1,-38.73,32.0,-7861.53955078125,6.019638538360596,,,Q,338335118220505
Raw,1713027121418,332339413000000,18,0.0,-1396730000005698381,0.3211078643798828,24.11737477814313,-31.95583452376674,9.489240908272992,7,27,0.0,81935,579139344764158,6,35.1,566.2807006835938,0.045520346611738205,16,0.0,0.0,1176450050,,,,0,0.0,1,-38.73,30.1,-7861.53955078125,6.019638538360596,,,Q,338335118220505
Raw,1713027121418,332339413000000,18,0.0,-1396730000005698381,0.3211078643798828,24.11737477814313,-31.95583452376674,9.489240908272992,7,32,0.0,81935,579139347133276,18,25.4,270.716552734375,1.1619999408721924,16,0.0,0.0,1176450050,,,,0,0.0,1,-38.73,20.4,-7861.53955078125,6.019638538360596,,,Q,338335118220505
Raw,1713027121418,332339413000000,18,0.0,-1396730000005698381,0.3211078643798828,24.11737477814313,-31.95583452376674,9.489240908272992,7,10,0.0,81935,579139333111490,7,34.8,-393.01995849609375,0.8739926218986511,16,0.0,0.0,1176450050,,,,0,0.0,6,-38.73,29.499999999999996,-7851.361328125,58.37411117553711,,,Q,338335118220505
Raw,1713027121418,332339413000000,18,0.0,-1396730000005698381,0.3211078643798828,24.11737477814313,-31.95583452376674,9.489240908272992,7,12,0.0,81935,579139337513768,10,30.8,-262.0329284667969,4.703152179718018,16,0.0,0.0,1176450050,,,,0,0.0,6,-38.73,25.5,-7851.361328125,58.37411117553711,,,Q,338335118220505
Raw,1713027121418,332339413000000,18,0.0,-1396730000005698381,0.3211078643798828,24.11737477814313,-31.95583452376674,9.489240908272992,7,19,0.0,81935,579139340303559,18,25.8,-87.54617309570312,1.18149995803833,16,0.0,0.0,1176450050,,,,0,0.0,6,-38.73,20.5,-7851.361328125,58.37411117553711,,,Q,338335118220505
Raw,1713027121418,332339413000000,18,0.0,-1396730000005698381,0.3211078643798828,24.11737477814313,-31.95583452376674,9.489240908272992,7,24,0.0,81935,579139324196912,11,29.5,356.3260498046875,0.8675000071525574,16,0.0,0.0,1176450050,,,,0,0.0,6,-38.73,24.2,-7851.361328125,58.37411117553711,,,Q,338335118220505
Raw,1713027121418,332339413000000,18,0.0,-1396730000005698381,0.3211078643798828,24.11737477814313,-31.95583452376674,9.489240908272992,7,33,0.0,81935,579139337485147,9,31.4,153.7161102294922,4.672776699066162,16,0.0,0.0,1176450050,,,,0,0.0,6,-38.73,26.099999999999998,-7851.361328125,58.37411117553711,,,Q,338335118220505
Raw,1713027121418,332339413000000,18,0.0,-1396730000005698381,0.3211078643798828,24.11737477814313,-31.95583452376674,9.489240908272992,7,21,0.0,16399,579125340554645,6,35.1,417.64007568359375,0.8340044617652893,16,0.0,0.0,1176450050,,,,0,0.0,5,-38.73,30.6,-7841.1064453125,56.76339340209961,,,Q,338335118220505
Raw,1713027121418,332339413000000,18,0.0,-1396730000005698381,0.3211078643798828,24.11737477814313,-31.95583452376674,9.489240908272992,7,33,0.0,16399,579125335156074,7,33.9,-481.8520202636719,0.11250852048397064,16,0.0,0.0,1176450050,,,,0,0.0,5,-38.73,29.4,-7841.1064453125,56.76339340209961,,,Q,338335118220505
Raw,1713027121418,332339413000000,18,0.0,-1396730000005698381,0.3211078643798828,24.11737477814313,-31.95583452376674,9.489240908272992,7,34,0.0,16399,579125346158742,7,33.6,235.81488037109375,0.8934926390647888,16,0.0,0.0,1176450050,,,,0,0.0,5,-38.73,29.1,-7841.1064453125,56.76339340209961,,,Q,338335118220505
Raw,1713027121418,332339413000000,18,0.0,-1396730000005698381,0.3211078643798828,24.11737477814313,-31.95583452376674,9.489240908272992,7,39,0.0,16399,579125288636923,10,29.6,-122.11901092529297,4.689651966094971,16,0.0,0.0,1176450050,,,,0,0.0,5,-38.73,25.1,-7841.1064453125,56.76339340209961,,,Q,338335118220505
Raw,1713027121418,332339413000000,18,0.0,-1396730000005698381,0.3211078643798828,24.11737477814313,-31.95583452376674,9.489240908272992,7,42,0.0,16399,579125345788342,8,33.0,-47.279808044433594,5.408073902130127,16,0.0,0.0,1176450050,,,,0,0.0,5,-38.73,28.5,-7841.1064453125,56.76339340209961,,,Q,338335118220505
Raw,1713027121418,332339413000000,18,0.0,-1396730000005698381,0.3211078643798828,24.11737477814313,-31.95583452376674,9.489240908272992,7,43,0.0,16399,579125344183026,8,32.6,-304.23687744140625,5.4365739822387695,16,0.0,0.0,1176450050,,,,0,0.0,5,-38.73,28.1,-7841.1064453125,56.76339340209961,,,Q,338335118220505
Raw,1713027121418,332339413000000,18,0.0,-1396730000005698381,0.3211078643798828,24.11737477814313,-31.95583452376674,9.489240908272992,7,21,0.0,16399,579125340548271,3,44.1,417.5893249511719,0.053997572511434555,16,0.0,0.0,1575420030,,,,0,0.0,5,-60.82,37.1,-1455.1053466796875,52.96876525878906,,,P,338335118220505
Raw,1713027121418,332339413000000,18,0.0,-1396730000005698381,0.3211078643798828,24.11737477814313,-31.95583452376674,9.489240908272992,7,33,0.0,16399,579125335149764,8,35.5,-480.7353210449219,4.063373565673828,16,0.0,0.0,1575420030,,,,0,0.0,5,-60.82,28.5,-1455.1053466796875,52.96876525878906,,,P,338335118220505
Raw,1713027121418,332339413000000,18,0.0,-1396730000005698381,0.3211078643798828,24.11737477814313,-31.95583452376674,9.489240908272992,7,34,0.0,16399,579125346152369,3,43.7,235.77467346191406,0.0638919547200203,16,0.0,0.0,1575420030,,,,0,0.0,5,-60.82,36.7,-1455.1053466796875,52.96876525878906,,,P,338335118220505
Raw,1713027121418,332339413000000,18,0.0,-1396730000005698381,0.3211078643798828,24.11737477814313,-31.95583452376674,9.489240908272992,7,39,0.0,16399,579125288630547,6,38.7,-122.57320404052734,0.0776054859161377,16,0.0,0.0,1575420030,,,,0,0.0,5,-60.82,31.700000000000003,-1455.1053466796875,52.96876525878906,,,P,338335118220505
Raw,1713027121418,332339413000000,18,0.0,-1396730000005698381,0.3211078643798828,24.11737477814313,-31.95583452376674,9.489240908272992,7,42,0.0,16399,579125345781985,4,41.0,-47.63813400268555,0.0648086816072464,16,0.0,0.0,1575420030,,,,0,0.0,5,-60.82,34.0,-1455.1053466796875,52.96876525878906,,,P,338335118220505
Raw,1713027121418,332339413000000,18,0.0,-1396730000005698381,0.3211078643798828,24.11737477814313,-31.95583452376674,9.489240908272992,7,43,0.0,16399,579125344176661,3,45.0,-304.39990234375,0.05919833853840828,16,0.0,0.0,1575420030,,,,0,0.0,5,-60.82,38.0,-1455.1053466796875,52.96876525878906,,,P,338335118220505
Fix,GPS,32.1687812600,34.8133051500,45.07977294921875,0.0,3.7900925,,1713027122000,0.08360333,,338335699221599,2.5,0,,,
Fix,FLP,32.1687813000,34.8133052000,43.26625112248426,0.30606306,3.943,78.87053,1713027121559,0.08360333,45.0,338335699221599,2.3561187,0,,,
Status,1713027122000,64,0,1,2,1575420030,42.60,317.0,34.0,1,1,1,37.6
Status,1713027122000,64,1,1,3,1575420030,39.80,262.0,14.0,1,1,1,34.8
Status,1713027122000,64,2,1,8,1575420030,46.80,243.0,56.0,1,1,1,41.8
Status,1713027122000,64,3,1,10,1575420030,33.00,49.0,31.0,1,1,1,28.0
Status,1713027122000,64,4,1,21,1575420030,39.90,325.0,51.0,1,1,1,34.9
Status,1713027122000,64,5,1,27,1575420030,38.40,187.0,41.0,1,1,1,33.4
Status,1713027122000,64,6,1,28,1575420030,33.30,126.0,18.0,1,1,1,28.3
Status,1713027122000,64,7,1,32,1575420030,38.10,57.0,55.0,1,1,1,33.1
Status,1713027122000,64,8,2,123,1575420030,40.10,0.0,0.0,0,0,0,35.1
Status,1713027122000,64,9,2,127,1575420030,37.80,0.0,0.0,0,0,0,32.8
Status,1713027122000,64,10,2,136,1575420030,41.00,0.0,0.0,0,0,0,36.0
Status,1713027122000,64,11,3,95,1599187460,35.40,0.0,0.0,0,0,0,30.4
Status,1713027122000,64,12,3,6,1599750020,33.70,232.0,40.0,1,1,0,28.7
Status,1713027122000,64,13,3,5,1602562560,39.50,9.0,65.0,1,1,1,34.5
Status,1713027122000,64,14,3,20,1603124990,25.50,28.0,73.0,1,1,0,20.5
Status,1713027122000,64,15,3,19,1603687550,22.40,131.0,27.0,0,1,0,17.4
Status,1713027122000,64,16,3,21,1604249980,40.90,330.0,22.0,1,1,1,35.9
Status,1713027122000,64,17,3,4,1605374980,21.90,31.0,16.0,1,1,0,16.9
Status,1713027122000,64,18,5,60,1561097980,37.60,116.0,29.0,1,1,0,32.6
Status,1713027122000,64,19,5,44,1561097980,23.50,144.0,15.0,1,1,0,18.5
Status,1713027122000,64,20,5,43,1561097980,42.30,309.0,56.0,1,1,0,37.3
Status,1713027122000,64,21,5,42,1561097980,43.70,280.0,74.0,1,1,0,38.7
Status,1713027122000,64,22,5,39,1561097980,32.40,63.0,27.0,1,1,0,27.4
Status,1713027122000,64,23,5,34,1561097980,37.60,161.0,68.0,1,1,0,32.6
Status,1713027122000,64,24,5,33,1561097980,27.40,237.0,23.0,1,1,0,22.4
Status,1713027122000,64,25,5,21,1561097980,41.20,37.0,43.0,1,1,0,36.2
Status,1713027122000,64,26,5,16,1561097980,32.20,72.0,28.0,1,1,0,27.2
Status,1713027122000,64,27,5,14,1561097980,43.30,245.0,49.0,1,1,0,38.3
Status,1713027122000,64,28,5,13,1561097980,25.50,69.0,18.0,1,1,0,20.5
Status,1713027122000,64,29,5,12,1561097980,43.30,144.0,38.0,1,1,0,38.3
Status,1713027122000,64,30,5,11,1561097980,38.30,298.0,82.0,1,1,0,33.3
Status,1713027122000,64,31,5,9,1561097980,34.90,95.0,31.0,1,1,0,29.9
Status,1713027122000,64,32,5,6,1561097980,28.90,84.0,31.0,1,1,0,23.9
Status,1713027122000,64,33,5,5,1561097980,39.60,138.0,46.0,1,1,0,34.6
Status,1713027122000,64,34,5,2,1561097980,26.70,112.0,27.0,0,1,0,21.7
Status,1713027122000,64,35,6,4,1575420030,23.10,203.0,28.0,1,1,0,18.1
Status,1713027122000,64,36,6,10,1575420030,35.40,319.0,35.0,1,1,0,30.4
Status,1713027122000,64,37,6,12,1575420030,33.20,338.0,57.0,1,1,0,28.2
Status,1713027122000,64,38,6,19,1575420030,27.90,118.0,73.0,1,1,0,22.9
Status,1713027122000,64,39,6,24,1575420030,36.20,259.0,7.0,1,1,0,31.2
Status,1713027122000,64,40,6,33,1575420030,34.60,92.0,51.0,1,1,0,29.6
Status,1713027122000,64,41,1,3,1176450050,28.20,262.0,14.0,1,1,1,23.2
Status,1713027122000,64,42,1,8,1176450050,32.60,243.0,56.0,1,1,1,27.6
Status,1713027122000,64,43,1,10,1176450050,20.30,49.0,31.0,1,1,1,15.3
Status,1713027122000,64,44,1,27,1176450050,30.70,187.0,41.0,1,1,1,25.7
Status,1713027122000,64,45,1,28,1176450050,18.10,126.0,18.0,1,1,1,13.1
Status,1713027122000,64,46,1,32,1176450050,22.10,57.0,55.0,1,1,1,17.1
Status,1713027122000,64,47,6,10,1176450050,30.60,319.0,35.0,1,1,0,25.6
Status,1713027122000,64,48,6,12,1176450050,25.20,338.0,57.0,1,1,0,20.2
Status,1713027122000,64,49,6,19,1176450050,20.50,118.0,73.0,1,1,0,15.5
Status,1713027122000,64,50,6,24,1176450050,24.80,259.0,7.0,1,1,0,19.8
Status,1713027122000,64,51,6,33,1176450050,25.70,92.0,51.0,1,1,0,20.7
Status,1713027122000,64,52,5,21,1176450050,30.80,37.0,43.0,1,1,0,25.8
Status,1713027122000,64,53,5,33,1176450050,30.10,237.0,23.0,1,1,0,25.1
Status,1713027122000,64,54,5,34,1176450050,29.00,161.0,68.0,1,1,0,24.0
Status,1713027122000,64,55,5,39,1176450050,24.70,63.0,27.0,1,1,0,19.7
Status,1713027122000,64,56,5,42,1176450050,28.70,280.0,74.0,1,1,0,23.7
Status,1713027122000,64,57,5,43,1176450050,27.50,309.0,56.0,1,1,0,22.5
Status,1713027122000,64,58,5,21,1575420030,37.70,37.0,43.0,1,1,0,32.7
Status,1713027122000,64,59,5,33,1575420030,29.20,237.0,23.0,1,1,0,24.2
Status,1713027122000,64,60,5,34,1575420030,37.10,161.0,68.0,1,1,0,32.1
Status,1713027122000,64,61,5,39,1575420030,33.10,63.0,27.0,1,1,0,28.1
Status,1713027122000,64,62,5,42,1575420030,33.60,280.0,74.0,1,1,0,28.6
Status,1713027122000,64,63,5,43,1575420030,38.90,309.0,56.0,1,1,0,33.9
Raw,1713027122418,332340413000000,18,0.0,-1396730000005698420,0.5780887603759766,22.99100196978543,-37.19452032703783,10.727090732815356,7,2,0.0,16399,579140342219866,7,47.6,-473.3607482910156,0.04470549151301384,16,0.0,0.0,1575420030,,,,0,0.0,1,-56.32,42.6,0.0,0.0,,,C,338336113579255
Raw,1713027122418,332340413000000,18,0.0,-1396730000005698420,0.5780887603759766,22.99100196978543,-37.19452032703783,10.727090732815356,7,3,0.0,16399,579140338514993,10,44.8,-471.5722351074219,0.02239910326898098,16,0.0,0.0,1575420030,,,,0,0.0,1,-56.32,39.8,0.0,0.0,,,C,338336113579255
Raw,1713027122418,332340413000000,18,0.0,-1396730000005698420,0.5780887603759766,22.99100196978543,-37.19452032703783,10.727090732815356,7,8,0.0,16399,579140348173722,5,51.8,202.28170776367188,0.03420216962695122,16,0.0,0.0,1575420030,,,,0,0.0,1,-56.32,46.8,0.0,0.0,,,C,338336113579255
Raw,1713027122418,332340413000000,18,0.0,-1396730000005698420,0.5780887603759766,22.99100196978543,-37.19452032703783,10.727090732815356,7,10,0.0,16399,579140342626048,17,38.0,387.78045654296875,0.44050002098083496,16,0.0,0.0,1575420030,,,,0,0.0,1,-56.32,33.0,0.0,0.0,,,C,338336113579255
Raw,1713027122418,332340413000000,18,0.0,-1396730000005698420,0.5780887603759766,22.99100196978543,-37.19452032703783,10.727090732815356,7,21,0.0,16399,579140346334250,10,44.9,-315.3795471191406,0.040399108082056046,16,0.0,0.0,1575420030,,,,0,0.0,1,-56.32,39.9,0.0,0.0,,,C,338336113579255
Raw,1713027122418,332340413000000,18,0.0,-1396730000005698420,0.5780887603759766,22.99100196978543,-37.19452032703783,10.727090732815356,7,27,0.0,16399,579140344754423,11,43.4,568.0576782226562,0.04419833794236183,16,0.0,0.0,1575420030,,,,0,0.0,1,-56.32,38.4,0.0,0.0,,,C,338336113579255
Raw,1713027122418,332340413000000,18,0.0,-1396730000005698420,0.5780887603759766,22.99100196978543,-37.19452032703783,10.727090732815356,7,28,0.0,16399,579140339109098,17,38.3,-477.39923095703125,0.4150000214576721,16,0.0,0.0,1575420030,,,,0,0.0,1,-56.32,33.3,0.0,0.0,,,C,338336113579255
Raw,1713027122418,332340413000000,18,0.0,-1396730000005698420,0.5780887603759766,22.99100196978543,-37.19452032703783,10.727090732815356,7,32,0.0,16399,579140347124545,11,43.1,272.6107177734375,0.03969833627343178,16,0.0,0.0,1575420030,,,,0,0.0,1,-56.32,38.1,0.0,0.0,,,C,338336113579255
Raw,1713027122418,332340413000000,18,0.0,-1396730000005698420,0.5780887603759766,22.99100196978543,-37.19452032703783,10.727090732815356,7,6,0.0,49359,71522348735850,17,37.7,-493.03887939453125,0.4715000092983246,16,0.0,0.0,1599750020,,,,0,0.0,3,-57.82,33.7,3791.732177734375,8.82573413848877,,,C,338336113579255
Raw,1713027122418,332340413000000,18,0.0,-1396730000005698420,0.5780887603759766,22.99100196978543,-37.19452032703783,10.727090732815356,7,5,0.0,49359,71522353401764,10,43.5,328.9759216308594,0.029799191281199455,16,0.0,0.0,1602562560,,,,0,0.0,3,-57.82,39.5,3791.732177734375,8.82573413848877,,,C,338336113579255
Raw,1713027122418,332340413000000,18,0.0,-1396730000005698420,0.5780887603759766,22.99100196978543,-37.19452032703783,10.727090732815356,7,20,0.0,49359,71522354010030,46,29.5,-172.3531951904297,0.8524999618530273,16,0.0,0.0,1603124990,,,,0,0.0,3,-57.82,25.5,3791.732177734375,8.82573413848877,,,C,338336113579255
Raw,1713027122418,332340413000000,18,0.0,-1396730000005698420,0.5780887603759766,22.99100196978543,-37.19452032703783,10.727090732815356,7,19,0.0,49359,71522345366917,70,26.4,573.5582885742188,2.4040000438690186,16,0.0,0.0,1603687550,,,,0,0.0,3,-57.82,22.4,3791.732177734375,8.82573413848877,,,C,338336113579255
Raw,1713027122418,332340413000000,18,0.0,-1396730000005698420,0.5780887603759766,22.99100196978543,-37.19452032703783,10.727090732815356,7,21,0.0,49359,71522344067743,9,44.9,-719.9876098632812,0.04271378368139267,16,0.0,0.0,1604249980,,,,0,0.0,3,-57.82,40.9,3791.732177734375,8.82573413848877,,,C,338336113579255
Raw,1713027122418,332340413000000,18,0.0,-1396730000005698420,0.5780887603759766,22.99100196978543,-37.19452032703783,10.727090732815356,7,60,0.0,16399,579126289839883,12,41.9,0.82576984167099,1.2648999691009521,16,0.0,0.0,1561097980,,,,0,0.0,5,-64.3,37.6,-1536.2723388671875,7.699441909790039,,,I,338336113579255
Raw,1713027122418,332340413000000,18,0.0,-1396730000005698420,0.5780887603759766,22.99100196978543,-37.19452032703783,10.727090732815356,7,43,0.0,16399,579126344177746,7,46.6,-302.6246337890625,0.04174407571554184,16,0.0,0.0,1561097980,,,,0,0.0,5,-64.3,42.300000000000004,-1536.2723388671875,7.699441909790039,,,I,338336113579255
Raw,1713027122418,332340413000000,18,0.0,-1396730000005698420,0.5780887603759766,22.99100196978543,-37.19452032703783,10.727090732815356,7,42,0.0,16399,579126345782231,6,48.0,-45.8626708984375,0.03984079137444496,16,0.0,0.0,1561097980,,,,0,0.0,5,-64.3,43.7,-1536.2723388671875,7.699441909790039,,,I,338336113579255
Raw,1713027122418,332340413000000,18,0.0,-1396730000005698420,0.5780887603759766,22.99100196978543,-37.19452032703783,10.727090732815356,7,39,0.0,16399,579126288631034,19,36.7,-120.77364349365234,0.5115000009536743,16,0.0,0.0,1561097980,,,,0,0.0,5,-64.3,32.400000000000006,-1536.2723388671875,7.699441909790039,,,I,338336113579255
Raw,1713027122418,332340413000000,18,0.0,-1396730000005698420,0.5780887603759766,22.99100196978543,-37.19452032703783,10.727090732815356,7,34,0.0,16399,579126346151660,12,41.9,237.55584716796875,0.04206635802984238,16,0.0,0.0,1561097980,,,,0,0.0,5,-64.3,37.6,-1536.2723388671875,7.699441909790039,,,I,338336113579255
Raw,1713027122418,332340413000000,18,0.0,-1396730000005698420,0.5780887603759766,22.99100196978543,-37.19452032703783,10.727090732815356,7,33,0.0,16399,579126335151427,35,31.7,-479.6570129394531,0.7310000061988831,16,0.0,0.0,1561097980,,,,0,0.0,5,-64.3,27.4,-1536.2723388671875,7.699441909790039,,,I,338336113579255
Raw,1713027122418,332340413000000,18,0.0,-1396730000005698420,0.5780887603759766,22.99100196978543,-37.19452032703783,10.727090732815356,7,21,0.0,16399,579126340546953,8,45.5,419.36553955078125,0.04824337735772133,16,0.0,0.0,1561097980,,,,0,0.0,5,-64.3,41.2,-1536.2723388671875,7.699441909790039,,,I,338336113579255
Raw,1713027122418,332340413000000,18,0.0,-1396730000005698420,0.5780887603759766,22.99100196978543,-37.19452032703783,10.727090732815356,7,16,0.0,16399,579126287940406,19,36.5,-181.23727416992188,0.5130000114440918,16,0.0,0.0,1561097980,,,,0,0.0,5,-64.3,32.2,-1536.2723388671875,7.699441909790039,,,I,338336113579255
Raw,1713027122418,332340413000000,18,0.0,-1396730000005698420,0.5780887603759766,22.99100196978543,-37.19452032703783,10.727090732815356,7,14,0.0,16399,579126343520529,6,47.6,-308.1910400390625,0.04284079000353813,16,0.0,0.0,1561097980,,,,0,0.0,5,-64.3,43.300000000000004,-1536.2723388671875,7.699441909790039,,,I,338336113579255
Raw,1713027122418,332340413000000,18,0.0,-1396730000005698420,0.5780887603759766,22.99100196978543,-37.19452032703783,10.727090732815356,7,13,0.0,16399,579126286713611,46,29.8,6.308497905731201,0.8644999861717224,16,0.0,0.0,1561097980,,,,0,0.0,5,-64.3,25.5,-1536.2723388671875,7.699441909790039,,,I,338336113579255
Raw,1713027122418,332340413000000,18,0.0,-1396730000005698420,0.5780887603759766,22.99100196978543,-37.19452032703783,10.727090732815356,7,12,0.0,16399,579126340168598,6,47.6,478.9582214355469,0.047340791672468185,16,0.0,0.0,1561097980,,,,0,0.0,5,-64.3,43.300000000000004,-1536.2723388671875,7.699441909790039,,,I,338336113579255
Raw,1713027122418,332340413000000,18,0.0,-1396730000005698420,0.5780887603759766,22.99100196978543,-37.19452032703783,10.727090732815356,7,11,0.0,16399,579126347125736,11,42.6,-75.25965118408203,0.039759788662195206,16,0.0,0.0,1561097980,,,,0,0.0,5,-64.3,38.300000000000004,-1536.2723388671875,7.699441909790039,,,I,338336113579255
Raw,1713027122418,332340413000000,18,0.0,-1396730000005698420,0.5780887603759766,22.99100196978543,-37.19452032703783,10.727090732815356,7,9,0.0,16399,579126287937165,16,39.2,-270.7276611328125,0.40299999713897705,16,0.0,0.0,1561097980,,,,0,0.0,5,-64.3,34.900000000000006,-1536.2723388671875,7.699441909790039,,,I,338336113579255
Raw,1713027122418,332340413000000,18,0.0,-1396730000005698420,0.5780887603759766,22.99100196978543,-37.19452032703783,10.727090732815356,7,6,0.0,16399,579126290000774,31,33.2,-238.88754272460938,0.6285000443458557,16,0.0,0.0,1561097980,,,,0,0.0,5,-64.3,28.900000000000002,-1536.2723388671875,7.699441909790039,,,I,338336113579255
Raw,1713027122418,332340413000000,18,0.0,-1396730000005698420,0.5780887603759766,22.99100196978543,-37.19452032703783,10.727090732815356,7,5,0.0,16399,579126293224014,10,43.9,-11.48396110534668,1.066499948501587,16,0.0,0.0,1561097980,,,,0,0.0,5,-64.3,39.6,-1536.2723388671875,7.699441909790039,,,I,338336113579255
Raw,1713027122418,332340413000000,18,0.0,-1396730000005698420,0.5780887603759766,22.99100196978543,-37.19452032703783,10.727090732815356,7,10,0.0,23567,579140333106435,14,39.7,-391.6817626953125,0.06651468575000763,16,0.0,0.0,1575420030,,,,0,0.0,6,-60.02,35.400000000000006,-1462.6357421875,9.076803207397461,,,C,338336113579255
Raw,1713027122418,332340413000000,18,0.0,-1396730000005698420,0.5780887603759766,22.99100196978543,-37.19452032703783,10.727090732815356,7,12,0.0,23567,579140337508245,17,37.5,-258.6934814453125,0.8038912415504456,16,0.0,0.0,1575420030,,,,0,0.0,6,-60.02,33.2,-1462.6357421875,9.076803207397461,,,C,338336113579255
Raw,1713027122418,332340413000000,18,0.0,-1396730000005698420,0.5780887603759766,22.99100196978543,-37.19452032703783,10.727090732815356,7,19,0.0,23567,579140340297482,35,32.2,-85.40380096435547,0.6754999756813049,16,0.0,0.0,1575420030,,,,0,0.0,6,-60.02,27.900000000000002,-1462.6357421875,9.076803207397461,,,C,338336113579255
Raw,1713027122418,332340413000000,18,0.0,-1396730000005698420,0.5780887603759766,22.99100196978543,-37.19452032703783,10.727090732815356,7,24,0.0,23567,579140324189381,13,40.5,357.58441162109375,0.0638919547200203,16,0.0,0.0,1575420030,,,,0,0.0,6,-60.02,36.2,-1462.6357421875,9.076803207397461,,,C,338336113579255
Raw,1713027122418,332340413000000,18,0.0,-1396730000005698420,0.5780887603759766,22.99100196978543,-37.19452032703783,10.727090732815356,7,33,0.0,23567,579140337478228,16,38.9,154.97607421875,0.037808679044246674,16,0.0,0.0,1575420030,,,,0,0.0,6,-60.02,34.6,-1462.6357421875,9.076803207397461,,,C,338336113579255
Raw,1713027122418,332340413000000,18,0.0,-1396730000005698420,0.5780887603759766,22.99100196978543,-37.19452032703783,10.727090732815356,7,3,0.0,81935,579140338522811,8,33.2,-470.7693176269531,0.6585000157356262,16,0.0,0.0,1176450050,,,,0,0.0,1,-37.92,28.200000000000003,-7861.53955078125,6.019717693328857,,,Q,338336113579255
Raw,1713027122418,332340413000000,18,0.0,-1396730000005698420,0.5780887603759766,22.99100196978543,-37.19452032703783,10.727090732815356,7,8,0.0,81935,579140348181575,5,37.6,202.02777099609375,0.06304531544446945,16,0.0,0.0,1176450050,,,,0,0.0,1,-37.92,32.6,-7861.53955078125,6.019717693328857,,,Q,338336113579255
Raw,1713027122418,332340413000000,18,0.0,-1396730000005698420,0.5780887603759766,22.99100196978543,-37.19452032703783,10.727090732815356,7,27,0.0,81935,579140344762267,6,35.7,567.93798828125,0.810004472732544,16,0.0,0.0,1176450050,,,,0,0.0,1,-37.92,30.700000000000003,-7861.53955078125,6.019717693328857,,,Q,338336113579255
Raw,1713027122418,332340413000000,18,0.0,-1396730000005698420,0.5780887603759766,22.99100196978543,-37.19452032703783,10.727090732815356,7,28,0.0,81935,579140339116949,23,23.1,-476.36279296875,2.0900001525878906,16,0.0,0.0,1176450050,,,,0,0.0,1,-37.92,18.1,-7861.53955078125,6.019717693328857,,,Q,338336113579255
Raw,1713027122418,332340413000000,18,0.0,-1396730000005698420,0.5780887603759766,22.99100196978543,-37.19452032703783,10.727090732815356,7,32,0.0,81935,579140347132371,14,27.1,273.6343688964844,0.9920000433921814,16,0.0,0.0,1176450050,,,,0,0.0,1,-37.92,22.1,-7861.53955078125,6.019717693328857,,,Q,338336113579255
Raw,1713027122418,332340413000000,18,0.0,-1396730000005698420,0.5780887603759766,22.99100196978543,-37.19452032703783,10.727090732815356,7,10,0.0,81935,579140333112799,6,35.9,-391.65936279296875,0.08902034908533096,16,0.0,0.0,1176450050,,,,0,0.0,6,-37.92,30.599999999999998,-7851.08642578125,56.357421875,,,Q,338336113579255
Raw,1713027122418,332340413000000,18,0.0,-1396730000005698420,0.5780887603759766,22.99100196978543,-37.19452032703783,10.727090732815356,7,12,0.0,81935,579140337514643,10,30.5,-258.17901611328125,0.8269999623298645,16,0.0,0.0,1176450050,,,,0,0.0,6,-37.92,25.2,-7851.08642578125,56.357421875,,,Q,338336113579255
Raw,1713027122418,332340413000000,18,0.0,-1396730000005698420,0.5780887603759766,22.99100196978543,-37.19452032703783,10.727090732815356,7,24,0.0,81935,579140324195732,11,30.1,358.0155944824219,3.993272066116333,16,0.0,0.0,1176450050,,,,0,0.0,6,-37.92,24.8,-7851.08642578125,56.357421875,,,Q,338336113579255
Raw,1713027122418,332340413000000,18,0.0,-1396730000005698420,0.5780887603759766,22.99100196978543,-37.19452032703783,10.727090732815356,7,33,0.0,81935,579140337484644,10,31.0,155.77638244628906,0.7669999599456787,16,0.0,0.0,1176450050,,,,0,0.0,6,-37.92,25.7,-7851.08642578125,56.357421875,,,Q,338336113579255
Raw,1713027122418,332340413000000,18,0.0,-1396730000005698420,0.5780887603759766,22.99100196978543,-37.19452032703783,10.727090732815356,7,21,0.0,16399,579126340553248,6,35.3,419.0882873535156,0.8340044617652893,16,0.0,0.0,1176450050,,,,0,0.0,5,-37.92,30.799999999999997,-7841.04150390625,54.69915771484375,,,Q,338336113579255
Raw,1713027122418,332340413000000,18,0.0,-1396730000005698420,0.5780887603759766,22.99100196978543,-37.19452032703783,10.727090732815356,7,33,0.0,16399,579126335157677,6,34.6,-480.3723449707031,0.09202034771442413,16,0.0,0.0,1176450050,,,,0,0.0,5,-37.92,30.1,-7841.04150390625,54.69915771484375,,,Q,338336113579255
Raw,1713027122418,332340413000000,18,0.0,-1396730000005698420,0.5780887603759766,22.99100196978543,-37.19452032703783,10.727090732815356,7,34,0.0,16399,579126346157961,7,33.5,237.1928253173828,0.12900851666927338,16,0.0,0.0,1176450050,,,,0,0.0,5,-37.92,29.0,-7841.04150390625,54.69915771484375,,,Q,338336113579255
Raw,1713027122418,332340413000000,18,0.0,-1396730000005698420,0.5780887603759766,22.99100196978543,-37.19452032703783,10.727090732815356,7,39,0.0,16399,579126288637333,11,29.2,-120.70513153076172,3.999272108078003,16,0.0,0.0,1176450050,,,,0,0.0,5,-37.92,24.7,-7841.04150390625,54.69915771484375,,,Q,338336113579255
Raw,1713027122418,332340413000000,18,0.0,-1396730000005698420,0.5780887603759766,22.99100196978543,-37.19452032703783,10.727090732815356,7,42,0.0,16399,579126345788503,8,33.2,-45.13004684448242,0.6389999985694885,16,0.0,0.0,1176450050,,,,0,0.0,5,-37.92,28.700000000000003,-7841.04150390625,54.69915771484375,,,Q,338336113579255
Raw,1713027122418,332340413000000,18,0.0,-1396730000005698420,0.5780887603759766,22.99100196978543,-37.19452032703783,10.727090732815356,7,43,0.0,16399,579126344184043,8,32.0,-302.1769714355469,3.1455934047698975,16,0.0,0.0,1176450050,,,,0,0.0,5,-37.92,27.5,-7841.04150390625,54.69915771484375,,,Q,338336113579255
Raw,1713027122418,332340413000000,18,0.0,-1396730000005698420,0.5780887603759766,22.99100196978543,-37.19452032703783,10.727090732815356,7,21,0.0,16399,579126340546881,3,44.7,419.1070251464844,0.053997572511434555,16,0.0,0.0,1575420030,,,,0,0.0,5,-60.02,37.7,-1454.92578125,50.852577209472656,,,P,338336113579255
Raw,1713027122418,332340413000000,18,0.0,-1396730000005698420,0.5780887603759766,22.99100196978543,-37.19452032703783,10.727090732815356,7,33,0.0,16399,579126335151382,7,36.2,-480.0769348144531,4.061812877655029,16,0.0,0.0,1575420030,,,,0,0.0,5,-60.02,29.200000000000003,-1454.92578125,50.852577209472656,,,P,338336113579255
Raw,1713027122418,332340413000000,18,0.0,-1396730000005698420,0.5780887603759766,22.99100196978543,-37.19452032703783,10.727090732815356,7,34,0.0,16399,579126346151576,3,44.1,237.283935546875,0.06299757212400436,16,0.0,0.0,1575420030,,,,0,0.0,5,-60.02,37.1,-1454.92578125,50.852577209472656,,,P,338336113579255
Raw,1713027122418,332340413000000,18,0.0,-1396730000005698420,0.5780887603759766,22.99100196978543,-37.19452032703783,10.727090732815356,7,39,0.0,16399,579126288630945,5,40.1,-121.15727233886719,1.2126692533493042,16,0.0,0.0,1575420030,,,,0,0.0,5,-60.02,33.1,-1454.92578125,50.852577209472656,,,P,338336113579255
Raw,1713027122418,332340413000000,18,0.0,-1396730000005698420,0.5780887603759766,22.99100196978543,-37.19452032703783,10.727090732815356,7,42,0.0,16399,579126345782141,5,40.6,-46.13623809814453,0.06640715152025223,16,0.0,0.0,1575420030,,,,0,0.0,5,-60.02,33.6,-1454.92578125,50.852577209472656,,,P,338336113579255
Raw,1713027122418,332340413000000,18,0.0,-1396730000005698420,0.5780887603759766,22.99100196978543,-37.19452032703783,10.727090732815356,7,43,0.0,16399,579126344177677,3,45.9,-302.88671875,0.05919833853840828,16,0.0,0.0,1575420030,,,,0,0.0,5,-60.02,38.9,-1454.92578125,50.852577209472656,,,P,338336113579255
Fix,GPS,32.1687818600,34.8133062500,45.5303955078125,0.0,3.7900925,,1713027123000,0.74863356,,338336694580660,2.5,0,,,
Fix,FLP,32.1687819000,34.8133063000,43.349293498604055,0.19496098,3.937,71.2203,1713027122553,0.74863356,45.0,338336694580660,2.3632982,0,,,
Status,1713027123000,64,0,1,2,1575420030,41.70,317.0,34.0,1,1,1,36.7
Status,1713027123000,64,1,1,3,1575420030,40.30,262.0,14.0,1,1,1,35.3
Status,1713027123000,64,2,1,8,1575420030,46.10,243.0,56.0,1,1,1,41.1
Status,1713027123000,64,3,1,10,1575420030,32.30,49.0,31.0,1,1,1,27.3
Status,1713027123000,64,4,1,21,1575420030,41.90,325.0,51.0,1,1,1,36.9
Status,1713027123000,64,5,1,27,1575420030,37.10,187.0,41.0,1,1,1,32.1
Status,1713027123000,64,6,1,28,1575420030,33.60,126.0,18.0,1,1,1,28.6
Status,1713027123000,64,7,1,32,1575420030,39.00,57.0,55.0,1,1,1,34.0
Status,1713027123000,64,8,2,123,1575420030,40.10,0.0,0.0,0,0,0,35.1
Status,1713027123000,64,9,2,127,1575420030,38.60,0.0,0.0,0,0,0,33.6
Status,1713027123000,64,10,2,136,1575420030,41.20,0.0,0.0,0,0,0,36.2
Status,1713027123000,64,11,3,95,1599187460,33.30,0.0,0.0,0,0,0,28.3
Status,1713027123000,64,12,3,6,1599750020,34.60,232.0,40.0,1,1,0,29.6
Status,1713027123000,64,13,3,5,1602562560,38.40,9.0,65.0,1,1,1,33.4
Status,1713027123000,64,14,3,20,1603124990,27.00,28.0,73.0,1,1,0,22.0
Status,1713027123000,64,15,3,19,1603687550,25.00,131.0,27.0,1,1,0,20.0
Status,1713027123000,64,16,3,21,1604249980,40.40,330.0,22.0,1,1,1,35.4
Status,1713027123000,64,17,3,4,1605374980,20.00,31.0,16.0,1,1,0,15.0
Status,1713027123000,64,18,5,60,1561097980,37.30,116.0,29.0,1,1,0,32.3
Status,1713027123000,64,19,5,44,1561097980,22.10,144.0,15.0,1,1,0,17.1
Status,1713027123000,64,20,5,43,1561097980,41.70,309.0,56.0,1,1,0,36.7
Status,1713027123000,64,21,5,42,1561097980,44.70,280.0,74.0,1,1,0,39.7
Status,1713027123000,64,22,5,39,1561097980,31.60,63.0,27.0,1,1,0,26.6
Status,1713027123000,64,23,5,34,1561097980,37.60,161.0,68.0,1,1,0,32.6
Status,1713027123000,64,24,5,33,1561097980,28.50,237.0,23.0,1,1,0,23.5
Status,1713027123000,64,25,5,21,1561097980,42.20,37.0,43.0,1,1,0,37.2
Status,1713027123000,64,26,5,16,1561097980,32.50,72.0,28.0,1,1,0,27.5
Status,1713027123000,64,27,5,14,1561097980,43.60,245.0,49.0,1,1,0,38.6
Status,1713027123000,64,28,5,13,1561097980,23.90,69.0,18.0,1,1,0,18.9
Status,1713027123000,64,29,5,12,1561097980,43.50,144.0,38.0,1,1,0,38.5
Status,1713027123000,64,30,5,11,1561097980,39.10,298.0,82.0,1,1,0,34.1
Status,1713027123000,64,31,5,9,1561097980,32.80,95.0,31.0,1,1,0,27.8
Status,1713027123000,64,32,5,6,1561097980,27.90,84.0,31.0,1,1,0,22.9
Status,1713027123000,64,33,5,5,1561097980,39.30,138.0,46.0,1,1,0,34.3
Status,1713027123000,64,34,5,2,1561097980,26.70,112.0,27.0,0,1,0,21.7
Status,1713027123000,64,35,6,4,1575420030,20.20,203.0,28.0,1,1,0,15.2
Status,1713027123000,64,36,6,10,1575420030,34.30,319.0,35.0,1,1,0,29.3
Status,1713027123000,64,37,6,12,1575420030,34.10,338.0,57.0,1,1,0,29.1
Status,1713027123000,64,38,6,19,1575420030,28.40,118.0,73.0,1,1,0,23.4
Status,1713027123000,64,39,6,24,1575420030,36.30,259.0,7.0,1,1,0,31.3
Status,1713027123000,64,40,6,33,1575420030,33.80,92.0,51.0,1,1,0,28.8
Status,1713027123000,64,41,1,3,1176450050,28.40,262.0,14.0,1,1,1,23.4
Status,1713027123000,64,42,1,8,1176450050,32.30,243.0,56.0,1,1,1,27.3
Status,1713027123000,64,43,1,10,1176450050,19.90,49.0,31.0,1,1,1,14.9
Status,1713027123000,64,44,1,27,1176450050,30.90,187.0,41.0,1,1,1,25.9
Status,1713027123000,64,45,1,28,1176450050,18.10,126.0,18.0,1,1,1,13.1
Status,1713027123000,64,46,1,32,1176450050,23.50,57.0,55.0,1,1,1,18.5
Status,1713027123000,64,47,6,10,1176450050,31.20,319.0,35.0,1,1,0,26.2
Status,1713027123000,64,48,6,12,1176450050,27.00,338.0,57.0,1,1,0,22.0
Status,1713027123000,64,49,6,19,1176450050,20.50,118.0,73.0,1,1,0,15.5
Status,1713027123000,64,50,6,24,1176450050,26.20,259.0,7.0,1,1,0,21.2
Status,1713027123000,64,51,6,33,1176450050,27.10,92.0,51.0,1,1,0,22.1
Status,1713027123000,64,52,5,21,1176450050,31.00,37.0,43.0,1,1,0,26.0
Status,1713027123000,64,53,5,33,1176450050,29.20,237.0,23.0,1,1,0,24.2
Status,1713027123000,64,54,5,34,1176450050,28.40,161.0,68.0,1,1,0,23.4
Status,1713027123000,64,55,5,39,1176450050,26.00,63.0,27.0,1,1,0,21.0
Status,1713027123000,64,56,5,42,1176450050,27.20,280.0,74.0,1,1,0,22.2
Status,1713027123000,64,57,5,43,1176450050,29.70,309.0,56.0,1,1,0,24.7
Status,1713027123000,64,58,5,21,1575420030,37.90,37.0,43.0,1,1,0,32.9
Status,1713027123000,64,59,5,33,1575420030,29.20,237.0,23.0,1,1,0,24.2
Status,1713027123000,64,60,5,34,1575420030,37.40,161.0,68.0,1,1,0,32.4
Status,1713027123000,64,61,5,39,1575420030,31.10,63.0,27.0,1,1,0,26.1
Status,1713027123000,64,62,5,42,1575420030,38.40,280.0,74.0,1,1,0,33.4
Status,1713027123000,64,63,5,43,1575420030,38.50,309.0,56.0,1,1,0,33.5
Raw,1713027123418,332341413000000,18,0.0,-1396730000005698451,0.6134757995605469,24.619594114483334,-31.70195608949422,14.233686401078732,7,2,0.0,16399,579141342221442,8,46.7,-473.3109436035156,0.04520025476813316,16,0.0,0.0,1575420030,,,,0,0.0,1,-56.1,41.7,0.0,0.0,,,C,338337111563420
Raw,1713027123418,332341413000000,18,0.0,-1396730000005698451,0.6134757995605469,24.619594114483334,-31.70195608949422,14.233686401078732,7,3,0.0,16399,579141338516571,9,45.3,-471.4674377441406,0.02180919423699379,16,0.0,0.0,1575420030,,,,0,0.0,1,-56.1,40.3,0.0,0.0,,,C,338337111563420
Raw,1713027123418,332341413000000,18,0.0,-1396730000005698451,0.6134757995605469,24.619594114483334,-31.70195608949422,14.233686401078732,7,8,0.0,16399,579141348173044,5,51.1,202.4333953857422,0.03420216962695122,16,0.0,0.0,1575420030,,,,0,0.0,1,-56.1,46.1,0.0,0.0,,,C,338337111563420
Raw,1713027123418,332341413000000,18,0.0,-1396730000005698451,0.6134757995605469,24.619594114483334,-31.70195608949422,14.233686401078732,7,10,0.0,16399,579141342624756,19,37.3,387.74072265625,0.6370896697044373,16,0.0,0.0,1575420030,,,,0,0.0,1,-56.1,32.3,0.0,0.0,,,C,338337111563420
Raw,1713027123418,332341413000000,18,0.0,-1396730000005698451,0.6134757995605469,24.619594114483334,-31.70195608949422,14.233686401078732,7,21,0.0,16399,579141346335300,8,46.9,-315.2956848144531,0.03920025750994682,16,0.0,0.0,1575420030,,,,0,0.0,1,-56.1,41.9,0.0,0.0,,,C,338337111563420
Raw,1713027123418,332341413000000,18,0.0,-1396730000005698451,0.6134757995605469,24.619594114483334,-31.70195608949422,14.233686401078732,7,27,0.0,16399,579141344752541,12,42.1,568.1210327148438,0.044997572898864746,16,0.0,0.0,1575420030,,,,0,0.0,1,-56.1,37.1,0.0,0.0,,,C,338337111563420
Raw,1713027123418,332341413000000,18,0.0,-1396730000005698451,0.6134757995605469,24.619594114483334,-31.70195608949422,14.233686401078732,7,28,0.0,16399,579141339110679,17,38.6,-477.3810729980469,0.6016753911972046,16,0.0,0.0,1575420030,,,,0,0.0,1,-56.1,33.6,0.0,0.0,,,C,338337111563420
Raw,1713027123418,332341413000000,18,0.0,-1396730000005698451,0.6134757995605469,24.619594114483334,-31.70195608949422,14.233686401078732,7,32,0.0,16399,579141347123635,10,44.0,272.8510437011719,0.03889910504221916,16,0.0,0.0,1575420030,,,,0,0.0,1,-56.1,39.0,0.0,0.0,,,C,338337111563420
Raw,1713027123418,332341413000000,18,0.0,-1396730000005698451,0.6134757995605469,24.619594114483334,-31.70195608949422,14.233686401078732,7,6,0.0,49359,71523348737505,16,38.6,-493.2217102050781,0.04568614810705185,16,0.0,0.0,1599750020,,,,0,0.0,3,-57.73,34.6,3792.5673828125,8.720137596130371,,,C,338337111563420
Raw,1713027123418,332341413000000,18,0.0,-1396730000005698451,0.6134757995605469,24.619594114483334,-31.70195608949422,14.233686401078732,7,5,0.0,49359,71523353400676,11,42.4,329.273681640625,0.03058488853275776,16,0.0,0.0,1602562560,,,,0,0.0,3,-57.73,38.4,3792.5673828125,8.720137596130371,,,C,338337111563420
Raw,1713027123418,332341413000000,18,0.0,-1396730000005698451,0.6134757995605469,24.619594114483334,-31.70195608949422,14.233686401078732,7,20,0.0,49359,71523354010580,35,31.0,-172.60565185546875,0.7324999570846558,16,0.0,0.0,1603124990,,,,0,0.0,3,-57.73,27.0,3792.5673828125,8.720137596130371,,,C,338337111563420
Raw,1713027123418,332341413000000,18,0.0,-1396730000005698451,0.6134757995605469,24.619594114483334,-31.70195608949422,14.233686401078732,7,19,0.0,49359,71523345364965,46,29.0,574.6051025390625,0.8659999966621399,16,0.0,0.0,1603687550,,,,0,0.0,3,-57.73,25.0,3792.5673828125,8.720137596130371,,,C,338337111563420
Raw,1713027123418,332341413000000,18,0.0,-1396730000005698451,0.6134757995605469,24.619594114483334,-31.70195608949422,14.233686401078732,7,21,0.0,49359,71523344070148,9,44.4,-719.918212890625,0.04271378368139267,16,0.0,0.0,1604249980,,,,0,0.0,3,-57.73,40.4,3792.5673828125,8.720137596130371,,,C,338337111563420
Raw,1713027123418,332341413000000,18,0.0,-1396730000005698451,0.6134757995605469,24.619594114483334,-31.70195608949422,14.233686401078732,7,4,0.0,49359,71523342133936,92,24.0,719.2684936523438,1.9495000839233398,16,0.0,0.0,1605374980,,,,0,0.0,3,-57.73,20.0,3792.5673828125,8.720137596130371,,,C,338337111563420
Raw,1713027123418,332341413000000,18,0.0,-1396730000005698451,0.6134757995605469,24.619594114483334,-31.70195608949422,14.233686401078732,7,60,0.0,16399,579127289839888,12,41.6,-1.555519938468933,1.2648999691009521,16,0.0,0.0,1561097980,,,,0,0.0,5,-64.06,37.300000000000004,-1536.1513671875,7.633299827575684,,,I,338337111563420
Raw,1713027123418,332341413000000,18,0.0,-1396730000005698451,0.6134757995605469,24.619594114483334,-31.70195608949422,14.233686401078732,7,44,0.0,16399,579127333982537,70,26.4,593.8629760742188,2.5360000133514404,16,0.0,0.0,1561097980,,,,0,0.0,5,-64.06,22.099999999999998,-1536.1513671875,7.633299827575684,,,I,338337111563420
Raw,1713027123418,332341413000000,18,0.0,-1396730000005698451,0.6134757995605469,24.619594114483334,-31.70195608949422,14.233686401078732,7,43,0.0,16399,579127344178763,8,46.0,-302.4967346191406,0.04224337637424469,16,0.0,0.0,1561097980,,,,0,0.0,5,-64.06,41.7,-1536.1513671875,7.633299827575684,,,I,338337111563420
Raw,1713027123418,332341413000000,18,0.0,-1396730000005698451,0.6134757995605469,24.619594114483334,-31.70195608949422,14.233686401078732,7,42,0.0,16399,579127345782382,6,49.0,-45.76756286621094,0.03932228684425354,16,0.0,0.0,1561097980,,,,0,0.0,5,-64.06,44.7,-1536.1513671875,7.633299827575684,,,I,338337111563420
Raw,1713027123418,332341413000000,18,0.0,-1396730000005698451,0.6134757995605469,24.619594114483334,-31.70195608949422,14.233686401078732,7,39,0.0,16399,579127288631426,21,35.9,-120.52536010742188,1.228232502937317,16,0.0,0.0,1561097980,,,,0,0.0,5,-64.06,31.599999999999998,-1536.1513671875,7.633299827575684,,,I,338337111563420
Raw,1713027123418,332341413000000,18,0.0,-1396730000005698451,0.6134757995605469,24.619594114483334,-31.70195608949422,14.233686401078732,7,34,0.0,16399,579127346150868,12,41.9,237.7549285888672,0.04206635802984238,16,0.0,0.0,1561097980,,,,0,0.0,5,-64.06,37.6,-1536.1513671875,7.633299827575684,,,I,338337111563420
Raw,1713027123418,332341413000000,18,0.0,-1396730000005698451,0.6134757995605469,24.619594114483334,-31.70195608949422,14.233686401078732,7,33,0.0,16399,579127335152964,31,32.8,-479.8395080566406,0.6710000038146973,16,0.0,0.0,1561097980,,,,0,0.0,5,-64.06,28.499999999999996,-1536.1513671875,7.633299827575684,,,I,338337111563420
Raw,1713027123418,332341413000000,18,0.0,-1396730000005698451,0.6134757995605469,24.619594114483334,-31.70195608949422,14.233686401078732,7,21,0.0,16399,579127340545549,7,46.5,419.5007629394531,0.04774407669901848,16,0.0,0.0,1561097980,,,,0,0.0,5,-64.06,42.2,-1536.1513671875,7.633299827575684,,,I,338337111563420
Raw,1713027123418,332341413000000,18,0.0,-1396730000005698451,0.6134757995605469,24.619594114483334,-31.70195608949422,14.233686401078732,7,16,0.0,16399,579127287941034,19,36.8,-181.24172973632812,1.2111815214157104,16,0.0,0.0,1561097980,,,,0,0.0,5,-64.06,32.5,-1536.1513671875,7.633299827575684,,,I,338337111563420
Raw,1713027123418,332341413000000,18,0.0,-1396730000005698451,0.6134757995605469,24.619594114483334,-31.70195608949422,14.233686401078732,7,14,0.0,16399,579127343521550,6,47.9,-308.1490478515625,0.04284079000353813,16,0.0,0.0,1561097980,,,,0,0.0,5,-64.06,43.6,-1536.1513671875,7.633299827575684,,,I,338337111563420
Raw,1713027123418,332341413000000,18,0.0,-1396730000005698451,0.6134757995605469,24.619594114483334,-31.70195608949422,14.233686401078732,7,13,0.0,16399,579127286713638,61,28.2,6.740586757659912,0.934499979019165,16,0.0,0.0,1561097980,,,,0,0.0,5,-64.06,23.9,-1536.1513671875,7.633299827575684,,,I,338337111563420
Raw,1713027123418,332341413000000,18,0.0,-1396730000005698451,0.6134757995605469,24.619594114483334,-31.70195608949422,14.233686401078732,7,12,0.0,16399,579127340167000,6,47.8,479.0747985839844,0.047340791672468185,16,0.0,0.0,1561097980,,,,0,0.0,5,-64.06,43.5,-1536.1513671875,7.633299827575684,,,I,338337111563420
Raw,1713027123418,332341413000000,18,0.0,-1396730000005698451,0.6134757995605469,24.619594114483334,-31.70195608949422,14.233686401078732,7,11,0.0,16399,579127347125985,10,43.4,-75.08290100097656,0.03895322233438492,16,0.0,0.0,1561097980,,,,0,0.0,5,-64.06,39.1,-1536.1513671875,7.633299827575684,,,I,338337111563420
Raw,1713027123418,332341413000000,18,0.0,-1396730000005698451,0.6134757995605469,24.619594114483334,-31.70195608949422,14.233686401078732,7,9,0.0,16399,579127287938079,19,37.1,-270.537353515625,0.6350629925727844,16,0.0,0.0,1561097980,,,,0,0.0,5,-64.06,32.800000000000004,-1536.1513671875,7.633299827575684,,,I,338337111563420
Raw,1713027123418,332341413000000,18,0.0,-1396730000005698451,0.6134757995605469,24.619594114483334,-31.70195608949422,14.233686401078732,7,6,0.0,16399,579127290001594,35,32.2,-238.66668701171875,0.6784999966621399,16,0.0,0.0,1561097980,,,,0,0.0,5,-64.06,27.900000000000002,-1536.1513671875,7.633299827575684,,,I,338337111563420
Raw,1713027123418,332341413000000,18,0.0,-1396730000005698451,0.6134757995605469,24.619594114483334,-31.70195608949422,14.233686401078732,7,5,0.0,16399,579127293224054,10,43.6,-10.741750717163086,0.7477458715438843,16,0.0,0.0,1561097980,,,,0,0.0,5,-64.06,39.300000000000004,-1536.1513671875,7.633299827575684,,,I,338337111563420
Raw,1713027123418,332341413000000,18,0.0,-1396730000005698451,0.6134757995605469,24.619594114483334,-31.70195608949422,14.233686401078732,7,2,0.0,16399,579127289574454,40,31.0,-10.994260787963867,5.483099937438965,16,0.0,0.0,1561097980,,,,0,0.0,5,-64.06,26.7,-1536.1513671875,7.633299827575684,,,I,338337111563420
Raw,1713027123418,332341413000000,18,0.0,-1396730000005698451,0.6134757995605469,24.619594114483334,-31.70195608949422,14.233686401078732,7,4,0.0,23567,579141331492540,92,24.5,-539.016357421875,1.9900000095367432,16,0.0,0.0,1575420030,,,,0,0.0,6,-59.8,20.2,-1462.220703125,8.972702980041504,,,C,338337111563420
