     3.03           OBSERVATION DATA    M                   RINEX VERSION / TYPE
GnssLogger          samsung 14          20240413 165219 UTC PGM / RUN BY / DATE
Google GnssLogger                                           MARKER NAME
Unknown                                                     MARKER NUMBER
Unknown             Unknown                                 OBSERVER / AGENCY
Unknown             GnssLogger          v3.0.6.4            REC # / TYPE / VERS
Unknown             Unknown                                 ANT # / TYPE
        0.0000        0.0000        0.0000                  ANTENNA: DELTA H/E/N
G    6 C1C D1C S1C C5Q D5Q S5Q                              SYS / # / OBS TYPES
R    3 C1C D1C S1C                                          SYS / # / OBS TYPES
C    6 C2I D2I S2I C7Q D7Q S7Q                              SYS / # / OBS TYPES
E    6 C1C D1C S1C C5Q D5Q S5Q                              SYS / # / OBS TYPES
  2024    04    13    16    52   19.0000000     GPS         TIME OF FIRST OBS
 6 R04  6 R05  1 R06 -4 R19  3 R20  2 R21  4                GLONASS SLOT / FRQ #

 C1C    0.000 C1P    0.000 C2C    0.000 C2P    0.000        GLONASS COD/PHS/BIS
                                                            END OF HEADER
> 2024 04 13 16 52 19.4186983  0 35                      
G02  22928136.57827      2497.51427        47.20027                                                
G03  24038827.16327      2487.42027        44.30027  24036481.58625      1856.39525        34.30025
G08  21142537.02228     -1052.80928        50.70028  21140182.45326      -786.92726        37.00026
G10  22805507.37226     -2026.84926        36.20026                                                
G21  21694515.79627      1667.20727        44.10027                                                
G27  22167249.52927     -2975.03427        43.20027  22164898.25725     -2222.20725        35.10025
G28  23860728.55826      2518.38326        38.10026                                                
G32  21457000.72427     -1422.46527        42.20027  21454654.54824     -1062.35024        25.40024
R06  20974704.51126      2642.82326        37.00026
R05  19575088.64427     -1748.38727        42.30027
R20  19393260.62125       935.55025        30.10025
R21  22374400.12127      3862.94227        44.60027
R04  22951944.89524     -3851.55024        25.90024
C60  38630782.86226        10.95026        41.20026                                                
C43  22341001.74327      1586.00427        45.50027  22339117.24725      1193.89125        32.60025
C42  21859735.01728       248.85928        47.50028  21857855.61825       185.53625        33.00025
C39  38993305.39326       639.13626        36.50026  38991419.99825       479.22125        29.60025
C34  21748699.08526     -1226.92926        40.60026  21746812.49125      -925.38825        33.60025
C33  25047213.27125      2514.45025        30.70025  25045329.37625      1890.89125        33.90025
C21  23428765.40027     -2173.66127        45.00027  23426878.50625     -1638.90925        35.10025
C16  39200406.22025       954.11525        35.00025                                                
C14  22538040.93527      1614.97227        46.80027                                                
C13  39568003.93724       -24.80024        29.40024                                                
C12  23542135.51527     -2483.81127        46.50027                                                
C11  21456989.63127       401.96927        42.40027                                                
C09  39201470.78326      1419.52226        38.40026                                                
C06  38582774.39725      1253.70025        31.60025                                                
C05  37616257.00327        63.25027        43.10027                                                
C02  38710372.36325        67.85025        31.00025                                                
E04  26144723.18124      2845.95024        27.40024                                                
E10  25660192.31526      2065.28126        39.90026  25658280.23925      1542.29525        34.80025
E12  24340421.07326      1367.47026        36.90026  24338510.49625      1028.27325        30.80025
E19  23504065.17125       460.25025        32.30025  23502152.19524       343.55024        25.80024
E24  28332703.87426     -1871.95926        39.60026  28330803.48925     -1398.30025        29.50025
E33  24349008.62826      -806.14526        38.50026  24347090.85625      -603.21525        31.40025
> 2024 04 13 16 52 20.4186984  0 33                      
G02  22927687.56628      2487.52828        47.60028                                                
G03  24038380.54927      2478.12927        44.80027  24036036.77125      1847.40025        33.20025
G08  21142766.44128     -1062.99828        51.80028  21140412.17126      -792.80026        37.60026
G10  22805917.26526     -2037.80026        38.00026                                                
G21  21694226.27327      1657.33127        44.90027                                                
G27  22167846.49327     -2985.16327        43.40027  22165494.92126     -2228.71126        35.70026
G28  23860272.35126      2508.75026        38.30026  23857918.68023      1869.35023        23.10023
G32  21457301.79227     -1432.57927        43.10027  21454955.61724     -1073.80024        27.10024
R06  20974244.70626      2630.95026        37.70026
R05  19575438.87927     -1758.56527        43.50027
R20  19393085.32025       921.65025        29.50025
R19  21984225.41124     -3068.15024        26.40024
R21  22373707.97827      3852.79927        44.90027
C60  38630811.41927        -4.30027        41.90027                                                
C43  22340729.90827      1575.84627        46.60027  22338842.11525      1185.80725        32.00025
C42  21859717.40628       238.81928        48.00028  21857837.10825       177.10025        33.20025
C39  38993215.23226       628.90026        36.70026  38991326.84024       473.67324        29.20024
C34  21748965.37827     -1237.01627        41.90027  21747076.38625      -930.79625        33.50025
C33  25046752.26825      2497.70025        31.70025  25044878.56525      1885.08425        34.60025
C21  23429214.26627     -2183.74627        45.50027  23427327.07225     -1644.59225        35.30025
C16  39200260.29826       943.75026        36.50026                                                
C14  22537758.60828      1604.83228        47.60028                                                
C13  39568044.18625       -32.85025        29.80025                                                
C12  23542642.24128     -2494.06128        47.60028                                                
C11  21456944.74027       391.89727        42.60027                                                
C09  39201231.92526      1409.75026        39.20026                                                
C06  38582577.51125      1243.95025        33.20025                                                
C05  37616274.46827        59.80027        43.90027                                                
E10  25659825.44626      2058.30226        39.70026  25657917.56726      1536.95526        35.90026
E12  24340196.00626      1359.44326        37.50026  24338277.93425      1013.15025        30.50025
E19  23504003.79025       448.80025        32.20025                                                
E24  28333090.98326     -1879.11926        40.50026  28331187.00125     -1404.93025        30.10025
E33  24349194.87726      -814.40526        38.90026  24347271.40825      -611.30025        31.00025
> 2024 04 13 16 52 21.4186984  0 37                      
G02  22927215.10327      2487.26627        46.70027                                                
G03  24037907.48727      2477.57827        45.30027  24035565.80825      1848.96425        33.40025
G08  21142969.71128     -1063.79528        51.10028  21140614.54126      -794.92026        37.30026
G10  22806304.60826     -2037.59126        37.30026  22803953.63524     -1522.75024        24.90024
G21  21693911.50127      1656.89027        46.90027                                                
G27  22168410.71327     -2985.49627        42.10027  22166062.73826     -2229.83626        35.90026
G28  23859798.38926      2508.65426        38.60026                                                
G32  21457574.61427     -1433.84227        44.00027  21455227.23924     -1068.15024        28.50024
R06  20973748.56026      2631.92626        38.60026
R05  19575765.06427     -1760.15727        42.40027
R20  19392920.44425       923.00025        31.00025
R19  21984810.61624     -3073.75024        29.00024
R21  22372986.98727      3852.42827        44.40027
R04  22953448.74224     -3851.65024        24.00024
C60  38630809.93127         8.10027        41.60027                                                
C44  25397176.68424     -3092.40024        26.40024                                                
C43  22340425.02927      1575.18027        46.00027  22338540.83425      1182.18025        34.20025
C42  21859672.14828       238.32428        49.00028  21857792.44925       177.85025        31.70025
C39  38993097.72426       627.60726        35.90026  38991206.93325       473.39225        30.50025
C34  21749202.82427     -1238.05227        41.90027  21747315.63125      -937.71525        32.90025
C33  25046291.49725      2498.65025        32.80025  25044397.70825      1883.38425        33.70025
C21  23429635.18527     -2184.45127        46.50027  23427746.49226     -1646.62026        35.50026
C16  39200072.03926       943.77326        36.80026                                                
C14  22537452.53028      1604.61328        47.90028                                                
C13  39568036.10324       -35.10024        28.20024                                                
C12  23543121.32028     -2494.66828        47.80028                                                
C11  21456870.10227       390.97627        43.40027                                                
C09  39200957.92526      1408.75926        37.10026                                                
C06  38582331.69125      1242.80025        32.20025                                                
C05  37616262.48727        55.93527        43.60027                                                
C02  38710385.04225        57.25025        31.00025                                                
E04  26143659.00524      2832.55024        24.50024                                                
E10  25659435.12726      2055.61226        38.60026  25657525.74826      1535.20326        36.50026
E12  24339934.29826      1357.35826        38.40026  24338020.42325      1016.00025        32.30025
E19  23503915.36225       444.73425        32.70025                                                
E24  28333448.94526     -1881.33526        40.60026  28331547.96125     -1409.48225        31.50025
E33  24349350.18026      -816.81026        38.10026  24347427.91025      -610.65025        32.40025
> 2024 04 13 16 52 22.4186984  0 36                      
G02  22926742.62427      2494.53327        44.20027                                                
G03  24037440.40427      2485.50227        46.70027  24035095.12725      1854.45825        30.80025
G08  21143169.96627     -1058.89327        43.20027  21140815.69526      -790.72726        37.40026
G10  22806703.92526     -2033.94926        40.60026  22804346.65724     -1519.40024        27.50024
G21  21693592.81626      1661.38426        38.80026                                                
G27  22168980.61227     -2982.37427        43.50027  22166629.93926     -2227.06526        35.60026
G28  23859333.40525      2508.55025        33.20025  23856973.13924      1871.25024        25.70024
G32  21457849.21826     -1430.73926        41.10026  21455497.64625     -1070.40425        30.70025
R06  20973255.39525      2636.55025        33.70025
R05  19576090.63227     -1757.15927        43.30027
R20  19392744.46024       929.45024        29.20024
R19  21985306.76624     -3074.60024        28.10024
R21  22372265.98026      3858.18326        36.70026
R04  22954210.20924     -3847.95024        28.10024
C60  38630817.71926         5.50026        39.40026                                                
C44  25397762.17325     -3102.20025        32.80025                                                
C43  22340126.43027      1580.08627        42.10027  22338236.23826      1190.72426        38.50026
C42  21859624.47427       242.46127        45.70027  21857747.47425       181.96725        34.30025
C39  38992979.00026       630.05426        35.90026  38991082.21324       474.30024        28.40024
C34  21749440.85327     -1235.53827        46.90027  21747553.95924      -932.20024        29.30024
C33  25045786.64026      2502.39826        39.40026  25043920.13224      1888.00024        28.50024
C21  23430056.98727     -2182.90427        43.20027  23428167.39524     -1643.85024        28.30024
C16  39199886.16126       946.57526        37.50026                                                
C14  22537144.93727      1610.01827        44.10027                                                
C13  39568065.77624       -28.55024        29.30024                                                
C12  23543599.18327     -2493.71227        46.70027                                                
C11  21456795.14727       394.48127        45.00027                                                
C09  39200694.40225      1413.05025        33.30025                                                
C06  38582110.13925      1246.83025        34.60025                                                
C05  37616251.98827        57.86727        42.40027                                                
E04  26143118.17325      2841.05525        34.20025                                                
E10  25659046.28927      2062.47727        42.40027  25657132.11526      1540.29126        37.20026
E12  24339672.87326      1362.31726        36.50026  24337760.79626      1017.45026        36.70026
E19  23503841.00725       453.80025        33.10025  23501925.03324       339.05024        26.20024
E24  28333802.69427     -1872.95727        42.30027  28331907.70625     -1399.35025        29.50025
E33  24349499.17026      -815.82626        40.20026  24347586.49425      -609.11425        33.60025
> 2024 04 13 16 52 23.4186985  0 35                      
G02  22926290.42826      2500.15126        38.50026                                                
G03  24036994.20426      2491.71226        37.50026  24034653.42524      1860.15024        27.30024
G08  21143400.69727     -1052.59727        46.30027  21141048.22626      -786.13526        39.00026
G10  22807112.73326     -2033.48026        41.20026  22804770.75524     -1511.85024        28.10024
G21  21693308.20427      1669.09827        41.70027                                                
G27  22169579.18926     -2976.58726        40.60026  22167227.61725     -2223.55925        31.30025
G28  23858893.20125      2519.95025        31.90025                                                
G32  21458153.09927     -1428.03127        43.60027  21455799.12824     -1067.31124        29.00024
R06  20972784.01325      2644.35525        34.10025
R05  19576456.57027     -1752.61827        43.20027
R20  19392606.74724       929.35024        27.20024
R19  21985989.88524     -3073.15024        29.30024
R21  22371569.45426      3864.36326        35.80026
R04  22954869.04424     -3838.50024        28.60024
C60  38630832.90026        12.90026        39.40026                                                
C43  22339848.41427      1586.24927        44.70027  22337962.71926      1195.37526        36.10026
C42  21859609.07727       248.75727        42.50027  21857730.87726       186.94826        36.80026
C39  38992887.75525       639.65025        32.30025  38990992.16724       479.05024        27.60024
C34  21749705.46127     -1231.20927        44.30027  21747819.46724      -927.50024        29.10024
C33  25045326.35026      2510.41626        37.80026  25043464.63924      1893.70024        27.30024
C21  23430502.07027     -2179.40027        43.50027  23428613.07825     -1642.07425        31.60025
C16  39199727.46225       956.30025        30.70025                                                
C14  22536864.82227      1616.82927        46.60027                                                
C13  39568107.93824       -27.30024        29.30024                                                
C12  23544106.32327     -2490.31427        44.40027                                                
C11  21456746.47327       399.44627        43.30027                                                
C09  39200448.16326      1411.73826        36.40026                                                
C06  38581894.77925      1248.55025        33.10025                                                
C05  37616265.67026        64.30026        41.00026                                                
E04  26142609.31725      2849.04525        35.10025  26140701.43823      2125.10023        23.20023
E10  25658685.23126      2070.91826        36.20026  25656769.55726      1545.19826        38.50026
E12  24339443.42326      1368.12826        37.70026  24337529.24825      1022.26225        33.50025
E19  23503781.54025       456.84225        32.80025  23501869.16424       342.15024        28.90024
E24  28334189.61826     -1864.95426        41.30026  28332292.83124     -1394.00024        28.00024
E33  24349681.63526      -812.69126        40.40026  24347770.45825      -606.48525        35.00025
> 2024 04 13 16 52 24.4186985  0 37                      
G02  22925821.78827      2492.60027        42.40027                                                
G03  24036537.85525      2479.95025        34.60025  24034182.08624      1854.15024        25.60024
G08  21143600.29427     -1060.71127        46.40027  21141249.32226      -791.00326        35.90026
G10  22807502.69826     -2038.47426        39.20026  22805155.02424     -1529.25024        25.90024
G21  21692986.16226      1659.92926        40.20026                                                
G27  22170146.93126     -2985.27226        39.80026  22167795.05924     -2221.71424        29.00024
G28  23858377.79325      2504.70025        34.00025                                                
G32  21458430.04227     -1433.59627        43.30027  21456074.87225     -1068.69425        29.80025
R06  20972294.38725      2633.90025        33.70025
R05  19576779.98127     -1759.44227        43.40027
R20  19392425.30725       919.85025        29.50025
R19  21986539.63925     -3076.80025        30.10025
R21  22370862.77825      3849.70025        34.50025
R04  22955649.33924     -3857.15024        27.90024
C60  38630843.92726         0.15026        41.40026                                                
C44  25398990.54924     -3099.05024        26.00024                                                
C43  22339546.45827      1578.82327        44.80027  22337656.86625      1190.95925        34.30025
C42  21859560.74527       240.23727        45.90027  21857683.14526       182.04026        36.40026
C39  38992761.77725       626.60025        34.80025  38990875.18324       466.15024        25.90024
C34  21749945.23027     -1239.27327        44.80027  21748057.73725      -930.90625        32.80025
C33  25044841.82127      2506.52127        43.00027                                                
C21  23430921.41527     -2186.79127        43.30027  23429034.82125     -1653.00025        31.90025
C16  39199546.92225       939.30025        33.40025                                                
C14  22536555.37127      1608.91527        46.00027                                                
C13  39568099.17925       -38.90025        31.20025                                                
C12  23544587.72526     -2497.41826        40.90026                                                
C11  21456672.05927       391.59727        44.90027                                                
C09  39200176.48626      1403.23926        38.10026                                                
C06  38581653.38125      1242.05025        33.40025                                                
C05  37616264.40626        61.95026        39.10026                                                
C02  38710395.65525        71.20025        33.30025                                                
E04  26142066.62825      2842.16525        35.00025  26140159.94825      2108.17525        35.00025
E10  25658285.54226      2063.78726        35.60026  25656376.16425      1540.97625        34.60025
E12  24339187.03526      1361.85826        35.70026  24337271.06225      1010.90025        33.50025
E19  23503701.73025       441.55025        31.90025                                                
E24  28334549.90325     -1881.20025        33.40025  28332645.02224     -1393.85024        29.00024
E33  24349836.86326      -819.45326        40.60026  24347922.98825      -609.85625        31.80025
> 2024 04 13 16 52 25.4186985  0 33                      
G02  22925350.36327      2484.77327        45.00027                                                
G03  24036052.94026      2477.27626        37.70026                                                
G08  21143803.70228     -1068.38528        49.00028  21141450.03126      -798.09326        35.70026
G10  22807891.07826     -2045.51226        40.20026  22805538.00725     -1529.09625        30.10025
G21  21692680.22326      1654.35026        39.90026                                                
G27  22170711.58826     -2993.97726        36.60026  22168366.01225     -2233.85025        34.40025
G28  23857918.06025      2499.30025        31.70025                                                
G32  21458700.30427     -1445.35127        44.70027  21456349.33125     -1076.99725        32.80025
R06  20971798.07926      2628.08326        36.40026
R05  19577108.10327     -1768.85427        42.10027
R20  19392298.64424       914.45024        28.30024
R21  22370137.42926      3849.13226        35.50026
C60  38630839.57926         2.50026        39.70026                                                
C43  22339243.21627      1571.19227        46.20027  22337355.12425      1184.12525        31.90025
C42  21859514.42627       232.94327        43.30027  21857638.32526       175.31926        40.00026
C39  38992651.30225       621.35025        33.80025  38990753.91524       466.85024        27.10024
C34  21750184.01427     -1246.75627        45.60027  21748296.52025      -940.01025        31.00025
C33  25044356.60527      2499.20527        43.00027  25042501.78924      1884.65024        28.70024
C21  23431343.37127     -2193.34427        45.70027  23429453.18025     -1653.36325        33.30025
C16  39199357.60225       936.95025        31.90025                                                
C14  22536247.03428      1601.59528        48.80028                                                
C12  23545067.54226     -2506.78626        40.80026                                                
C11  21456598.15927       384.31027        45.50027                                                
C09  39199907.72126      1395.66326        37.80026                                                
C06  38581425.38825      1236.35025        33.90025                                                
C05  37616249.86526        35.75026        38.70026                                                
E04  26141528.04927      2832.40627        42.70027  26139621.66926      2115.34126        39.20026
E10  25657895.66127      2053.25727        42.00027  25655984.18425      1534.67125        35.30025
E11  26864713.49924      2354.00024        24.70024                                                
E12  24338926.66426      1353.48526        38.80026  24337013.08925      1009.10025        32.40025
E19  23503609.24325       440.63725        34.90025  23501701.06424       332.05024        24.60024
E24  28334902.30826     -1879.67226        37.70026                                                
E33  24349994.40227      -828.01627        43.20027  24348083.82525      -618.45725        34.50025
> 2024 04 13 16 52 26.4186986  0 36                      
G02  22924900.79027      2487.52727        43.80027                                                
G03  24035603.66726      2478.58626        37.20026                                                
G08  21144035.25828     -1066.58028        48.40028  21141685.18526      -796.49826        39.00026
G10  22808313.30227     -2045.43727        43.60027  22805959.63125     -1527.80725        34.10025
G21  21692392.83827      1655.77327        44.20027                                                
G27  22171319.98326     -2989.79726        40.80026  22168962.41525     -2233.01125        31.60025
G28  23857506.86025      2505.30025        29.60025                                                
G32  21459013.70327     -1441.30027        42.30027  21456654.33625     -1078.21425        32.00025
R06  20971306.53525      2629.05025        30.20025
R05  19577477.26327     -1766.69027        44.80027
R19  21987676.71724     -3074.35024        26.10024
R21  22369476.50225      3852.10025        31.20025
R04  22957104.79624     -3855.10024        27.20024
C60  38630872.97226        -0.30026        40.50026                                                
C44  25400202.57424     -3107.20024        28.40024                                                
C43  22338970.22227      1573.14927        45.80027  22337084.52726      1185.21726        37.90026
C42  21859501.65127       234.72527        46.50027  21857624.35026       176.90426        39.60026
C39  38992555.48425       619.60925        35.20025  38990666.49224       465.94024        28.70024
C34  21750452.44427     -1244.85427        46.50027  21748562.55225      -938.56325        30.20025
C33  25043905.23426      2497.07126        35.90026                                                
C21  23431793.77626     -2189.15526        40.60026  23429904.48325     -1654.43025        30.40025
C16  39199224.61025       940.55025        33.70025                                                
C14  22535970.74128      1603.66628        48.60028                                                
C13  39568165.99724       -39.80024        29.20024                                                
C12  23545581.50226     -2503.62826        38.40026                                                
C11  21456552.40727       385.85027        43.70027                                                
C09  39199673.40026      1398.31526        36.60026                                                
C06  38581222.24425      1237.50025        31.40025                                                
C05  37616273.66426        36.65026        38.40026                                                
E04  26141017.31926      2834.84826        39.60026  26139111.83826      2116.98026        38.00026
E10  25657536.92627      2056.38027        41.70027  25655623.65026      1536.24126        37.90026
E11  26864283.71224      2355.90024        27.50024  26862371.63624      1758.20024        26.20024
E12  24338698.33926      1355.53126        38.00026  24336786.56225      1012.40025        32.70025
E19  23503553.29725       442.80825        35.30025                                                
E24  28335290.95525     -1878.12225        34.00025                                                
E33  24350181.28927      -825.84327        42.10027  24348270.11226      -616.64926        35.60026
> 2024 04 13 16 52 27.4186986  0 37                      
G02  22924434.09027      2491.85627        41.60027                                                
G03  24035136.66725      2484.35025        33.60025  24032792.29024      1851.80024        24.90024
G08  21144238.89427     -1062.95627        46.80027  21141887.02226      -793.80426        39.60026
G10  22808701.91026     -2041.15826        41.20026  22806348.53925     -1525.57925        32.30025
G21  21692077.53326      1658.72426        40.80026                                                
G27  22171879.77327     -2986.37727        43.70027  22169531.79826     -2230.15926        36.40026
G28  23856990.69525      2516.00025        30.80025                                                
G32  21459276.09827     -1440.02727        42.60027  21456926.62524     -1072.54224        29.30024
R06  20970823.34724      2636.25024        27.00024
R05  19577802.61527     -1763.16627        43.10027
R20  19391976.86024       915.25024        25.60024
R19  21988243.10224     -3080.50024        28.50024
R21  22368724.10025      3854.35025        32.80025
R04  22957857.35225     -3852.75025        30.60025
C44  25400799.53825     -3104.20025        30.80025                                                
C43  22338669.00727      1576.62227        43.90027  22336781.21425      1188.35725        34.30025
C42  21859456.45927       238.71627        45.60027  21857577.96026       179.77126        37.30026
C39  38992438.64225       625.36025        34.40025  38990545.75324       468.50024        28.40024
C34  21750691.75528     -1241.18228        48.20028  21748803.36325      -931.38925        30.70025
C33  25043427.14227      2505.11927        44.30027  25041572.02624      1883.25024        24.70024
C21  23432217.16026     -2186.26126        40.40026  23430324.57024     -1649.88624        29.00024
C16  39199028.62325       941.55025        33.10025                                                
C14  22535661.43227      1607.47227        45.60027                                                
C13  39568165.17525       -34.65025        30.30025                                                
C12  23546060.04826     -2499.49626        40.90026                                                
C11  21456480.83327       389.51027        45.10027                                                
C09  39199395.56926      1402.75726        37.00026                                                
C06  38580972.29525      1239.55025        33.60025                                                
C05  37616263.84826        50.75026        39.60026                                                
C02  38710425.37625        19.10025        33.60025                                                
E04  26140478.66926      2839.39426        40.40026  26138571.38926      2120.31126        37.60026
E10  25657143.67526      2061.65026        38.10026  25655231.89825      1539.54325        33.80025
E11  26863835.30024      2357.00024        27.70024                                                
E12  24338439.09526      1359.51026        38.30026  24336524.92025      1015.47925        31.40025
E19  23503475.42825       446.88625        33.90025  23501557.35624       332.05024        26.60024
E24  28335654.08125     -1874.35025        32.20025  28333748.60023     -1403.40023        23.30023
E33  24350338.75727      -821.93427        43.60027  24348426.38125      -613.43625        34.80025
> 2024 04 13 16 52 28.4186986  0 37                      
G02  22923957.74626      2487.78526        39.90026                                                
G03  24034669.31626      2479.33026        37.50026  24032322.24124      1850.00024        26.90024
G08  21144440.98028     -1067.97328        48.30028  21142090.30726      -796.84526        40.20026
G10  22809090.16727     -2044.79227        41.70027                                                
G21  21691755.58126      1656.24326        40.60026                                                
G27  22172449.10427     -2991.30827        46.60027  22170099.03125     -2233.43125        33.10025
G28  23856529.34024      2504.30024        29.20024  23854172.97123      1870.75023        21.40023
G32  21459557.02927     -1444.50727        43.60027  21457204.55824     -1077.90024        27.30024
R06  20970395.56924      2624.30024        28.50024
R05  19578134.81127     -1767.86727        42.50027
R20  19391785.91724       908.15024        27.70024
R19  21988871.19324     -3085.90024        28.60024
R21  22367992.63225      3854.00025        32.70025
R04  22958581.67625     -3860.95025        29.70025
C60  38630878.17126        11.10026        36.00026                                                
C44  25401394.65225     -3107.65025        29.60025                                                
C43  22338364.14427      1572.08627        45.00027  22336477.85025      1185.33225        33.60025
C42  21859409.41727       234.05927        44.20027  21857531.81726       176.70426        37.20026
C39  38992319.65025       619.10025        32.70025  38990427.96024       471.25024        27.10024
C34  21750928.61728     -1246.04628        48.50028  21749043.22224      -938.55024        26.70024
C33  25042943.90227      2500.48927        45.60027  25041089.38625      1889.72525        34.10025
C21  23432634.49627     -2191.73927        43.90027  23430745.50425     -1655.44325        30.20025
C16  39198861.66425       933.80025        31.90025                                                
C14  22535350.87327      1602.62227        46.00027                                                
C13  39568184.98724       -36.15024        28.40024                                                
C12  23546538.84227     -2504.23027        42.50027                                                
C11  21456403.21327       384.85527        44.60027                                                
C09  39199135.07526      1398.00926        37.40026                                                
C06  38580736.08425      1235.10025        32.00025                                                
C05  37616250.68326        49.60026        40.30026                                                
E04  26139942.66626      2835.37526        36.00026  26138030.88925      2117.39525        34.80025
E10  25656754.27026      2059.02026        36.70026  25654838.29626      1536.74626        35.70026
E12  24338182.79826      1355.81426        37.20026  24336267.72425      1019.41825        31.50025
E19  23503390.91225       442.58525        34.30025  23501477.03724       329.85024        29.00024
E24  28336007.56225     -1882.40325        29.60025                                                
E33  24350495.87426      -825.72626        40.80026  24348582.29925      -616.34125        31.40025
E11                                                  26861478.35724      1758.95024        27.20024
> 2024 04 13 16 52 29.4186987  0 30                      
G02  22923516.16226      2538.85026        39.00026                                                
G03  24034216.64026      2535.60026        35.70026                                                
G08  21144676.02726     -1026.30326        40.30026  21142322.95625      -798.70025        31.10025
G10  22809509.88726     -2006.00026        37.80026                                                
G21  21691477.68426      1701.75026        39.30026                                                
G27  22173047.20127     -2943.90027        43.50027  22170695.92825     -2194.60025        31.20025
G28  23856054.77925      2556.55025        29.60025                                                
G32  21459857.73226     -1393.40026        39.20026                                                
R06  20969904.81924      2630.65024        26.70024
R05  19578493.07326     -1725.58526        39.60026
R21  22367364.27824      3894.05024        29.20024
C43  22338093.14227      1620.95027        42.80027  22336205.94825      1228.95025        30.00025
C42  21859392.04027       285.00027        43.20027  21857512.64125       219.65025        31.60025
C39  38992225.52625       664.55025        32.20025                                                
C34  21751195.14327     -1209.68027        45.00027                                                
C33  25042490.02726      2542.02326        38.70026  25040637.60924      1894.70024        28.10024
C21  23433079.69826     -2154.39726        39.80026  23431194.30424     -1609.40024        28.80024
C14  22535073.87526      1639.46326        39.80026                                                
C12  23547047.30026     -2461.40326        41.00026                                                
C11  21456358.85427       422.00727        41.50027                                                
C09  39198899.44824      1449.40024        28.50024                                                
C06  38580533.43424      1295.10024        27.50024                                                
C05  37616268.98126        82.40026        40.20026                                                
E04  26139427.33324      2888.90024        29.00024  26137521.85224      2118.35024        27.50024
E10  25656396.02925      2115.35025        32.30025  25654472.26025      1579.05025        30.30025
E11  26862954.84523      2415.70023        23.20023                                                
E12  24337952.86825      1413.90025        33.60025  24336033.89624      1056.95024        28.10024
E19  23503335.16224       498.50024        29.10024                                                
E24  28336401.20024     -1819.65024        29.20024                                                
E33  24350678.15825      -767.65025        34.80025  24348766.08224      -573.05024        27.70024
> 2024 04 13 16 52 30.4186987  0 29                      
G02  22923026.29226      2499.23926        37.70026                                                
G03  24033744.15824      2420.35024        28.90024                                                
G08  21144865.48726     -1096.90026        36.40026  21142516.61324      -763.30024        26.60024
G10  22809890.61426     -2096.36626        39.10026                                                
G21  21691155.69826      1607.23426        39.90026                                                
G27  22173624.59226     -3048.11226        38.70026                                                
G28  23855613.77524      2443.65024        28.80024                                                
G32  21460126.63626     -1492.43426        37.90026                                                
R06  20969401.75825      2583.00025        29.90025
R05  19578823.43526     -1818.70026        38.60026
R21  22366582.11024      3797.75024        27.00024
R04  22960021.88024     -3819.15024        26.30024
C60  38630902.45525       -36.25025        35.30025                                                
C43  22337781.64826      1521.03026        40.30026                                                
C42  21859336.86927       248.40027        42.10027                                                
C39  38992100.50325       566.75025        33.20025                                                
C34  21751431.37027     -1302.45027        41.90027  21749548.07423      -940.10023        23.30023
C33  25042005.85326      2441.75026        36.80026  25040152.23624      1880.16924        29.00024
C21  23433502.99626     -2242.80026        39.80026                                                
C16  39198549.28224       887.70024        26.30024                                                
C14  22534767.17825      1544.95025        35.30025                                                
C12  23547526.95927     -2558.00027        41.70027                                                
C11  21456279.99926       332.55026        40.80026                                                
C09  39198617.03525      1346.95025        31.90025                                                
C06  38580278.60124      1256.90024        28.90024                                                
C05  37616250.08527        17.05027        42.70027                                                
C02  38710420.90624        69.75024        29.00024                                                
E10  25655988.90125      2097.45725        31.40025  25654073.52724      1566.60024        28.60024
E33  24350837.93826      -883.95026        35.60026                                                
> 2024 04 13 16 52 31.4186988  0 29                      
G02  22922595.91526      2445.20026        37.10026                                                
G03  24033319.77726      2424.34726        37.20026  24030969.70424      1832.55024        24.00024
G08  21145112.04226     -1120.75026        40.20026  21142757.17224      -845.15024        28.90024
G10  22810317.94426     -2096.60026        41.40026  22807979.26323     -1575.55023        21.30023
G21  21690878.21626      1607.55026        39.90026                                                
G27  22174224.60225     -3044.85025        33.90025                                                
G28  23855144.72525      2457.80025        31.20025                                                
G32  21460435.84826     -1492.45026        40.70026  21458098.36623     -1123.90023        23.20023
R06  20968937.50525      2596.25025        34.80025
R05  19579181.51326     -1813.40026        40.50026
R20  19391340.85224       870.30024        28.00024
R19  21990660.48124     -3133.30024        27.20024
R21  22365903.50525      3812.55025        31.60025
C43  22337520.65526      1527.44326        39.20026  22335631.06325      1136.40025        32.50025
C42  21859338.79327       189.85027        45.00027  21857454.89725       131.35025        31.20025
C39  38992016.68725       566.60025        34.70025                                                
C34  21751709.10327     -1292.39927        44.20027  21749818.31224      -988.40024        26.60024
C33  25041567.68226      2461.65026        40.60026  25039710.16825      1862.95025        32.80025
C21  23433957.60727     -2235.87027        41.90027  23432064.11823     -1691.10023        23.20023
C16  39198387.51924       902.65024        28.00024                                                
C14  22534489.99526      1561.40026        41.40026                                                
C13  39568257.96324       -64.75024        24.90024                                                
C12  23548043.02727     -2546.45027        43.60027                                                
C11  21456242.95027       339.10127        41.50027                                                
C09  39198398.61225      1360.15025        30.50025                                                
C06  38580088.65925      1192.65025        32.20025                                                
C05  37616285.88527         2.25027        42.90027                                                
E10  25655635.87125      1995.05025        33.90025  25653720.19725      1490.85025        32.50025
E33  24351026.63325      -854.90025        34.30025  24349117.25524      -667.00024        25.20024
> 2024 04 13 16 52 32.4186987  0 36                      
G02  22922099.97526      2478.42026        41.10026                                                
G03  24032809.44727      2466.40027        42.00027  24030461.17325      1851.50425        32.20025
G08  21145287.93726     -1083.58326        39.60026  21142936.06526      -806.28926        37.60026
G10  22810677.61126     -2055.42626        41.40026  22808332.33524     -1536.90024        26.20024
G21  21690533.37127      1644.74427        43.00027                                                
G27  22174767.74325     -3006.30025        34.70025                                                
G28  23854631.39725      2491.80025        31.90025  23852304.70823      1857.20023        21.40023
G32  21460689.68926     -1454.57426        40.60026  21458335.71824     -1087.35024        27.50024
R06  20968414.88326      2613.55026        40.40026
R05  19579483.32127     -1779.99427        43.10027
R20  19391157.59625       896.50025        31.20025
R19  21991201.22325     -3096.40025        31.80025
R21  22365182.42125      3843.95025        31.90025
R04  22961498.40024     -3870.45024        26.20024
C60  38630911.19226        16.05026        35.80026                                                
C44  25403828.41024     -3122.45024        26.40024                                                
C43  22337190.20027      1560.86227        42.40027  22335306.60425      1183.09225        34.00025
C42  21859262.56227       222.14227        45.80027  21857385.56225       165.95025        35.40025
C39  38991870.00526       611.82526        35.70026                                                
C34  21751922.47227     -1258.94227        44.40027  21750035.57924      -944.70024        28.10024
C33  25041057.95127      2488.01027        42.50027  25039202.53626      1876.48726        36.90026
C21  23434352.65026     -2201.38026        39.80026  23432463.05824     -1657.45024        29.20024
C16  39198173.08425       927.50025        30.90025                                                
C14  22534155.04427      1590.47527        45.00027                                                
C13  39568252.78425       -47.05025        31.30025                                                
C12  23548498.92827     -2517.54027        42.60027                                                
C11  21456144.83527       372.68527        44.10027                                                
C09  39198090.94125      1390.15025        31.70025                                                
C06  38579822.65925      1225.45025        33.60025                                                
C05  37616248.62827        45.00027        43.00027                                                
E04  26137820.17926      2815.80026        35.90026  26135910.50125      2103.91725        32.70025
E10  25655214.57926      2048.54226        36.90026  25653308.19925      1526.87025        31.90025
E11  26861640.28824      2340.95024        23.90024                                                
E12  24337195.62525      1341.95025        29.50025  24335266.76025      1000.20225        31.10025
E24  28337469.99324     -1885.50024        27.40024                                                
E33  24351159.65826      -836.63126        38.60026  24349246.68225      -623.69925        29.80025
> 2024 04 13 16 52 33.4186988  0 36                      
G02  22921657.91326      2463.51226        38.20026                                                
G03  24032368.28527      2456.41627        45.20027  24030024.80725      1838.85025        31.00025
G08  21145519.20926     -1094.33726        41.40026  21143174.83226      -817.65626        37.40026
G10  22811122.93526     -2068.85026        37.00026  22808751.27724     -1538.85024        26.40024
G21  21690266.08826      1632.65026        37.50026                                                
G27  22175375.85425     -3014.20025        34.10025  22173023.38224     -2253.10024        26.90024
G28  23854202.22625      2478.10025        34.80025                                                
G32  21460995.00927     -1468.04427        43.30027  21458646.43525     -1104.57625        29.80025
R06  20967963.52826      2601.83626        38.10026
R05  19579854.29626     -1793.41026        39.80026
R20  19391004.23425       883.65025        30.30025
R19  21991830.02025     -3112.95025        30.90025
R21  22364481.63825      3829.85025        32.20025
C60  38630949.39726       -40.70026        38.90026                                                
C44  25404452.71024     -3126.90024        29.20024                                                
C43  22336924.41627      1547.75127        42.20027  22335037.82225      1165.35025        32.20025
C42  21859252.50128       209.09428        47.50028  21857373.40225       151.19125        32.10025
C39  38991789.19325       596.15025        34.80025                                                
C34  21752194.81626     -1271.92326        41.10026  21750309.12125      -966.09225        30.60025
C33  25040610.19326      2477.60726        37.80026  25038757.47626      1864.54926        36.90026
C21  23434807.56726     -2215.11226        39.60026  23432918.27524     -1669.95024        27.40024
C16  39198032.61425       914.65025        33.40025                                                
C14  22533883.56427      1576.97727        42.40027                                                
C13  39568276.29924       -61.75024        27.90024                                                
C12  23549012.00526     -2541.49726        36.70026                                                
C11  21456102.99627       359.51127        43.60027                                                
C09  39197861.43225      1378.00025        33.30025                                                
C06  38579633.02325      1213.45025        33.40025                                                
C05  37616273.64326        20.30026        41.20026                                                
C02  38710466.94825         7.20025        31.20025                                                
E04  26137313.06225      2807.97925        35.00025  26135404.88324      2101.70024        29.20024
E10  25654866.95225      2025.75425        31.60025  25652948.28024      1518.55024        28.00024
E12  24336956.22325      1332.55025        30.90025  24335047.14425       988.96825        30.00025
E19  23503043.02924       423.35024        28.60024  23501130.05324       313.05024        24.00024
E24  28337863.75224     -1903.25024        25.30024                                                
E33  24351352.25726      -851.63726        38.40026  24349435.98324      -636.10024        28.70024
> 2024 04 13 16 52 34.4186988  0 36                      
G02  22921199.10526      2478.86226        38.20026                                                
G03  24031897.48427      2468.55527        44.60027  24029556.70526      1843.19726        38.00026
G08  21145734.93327     -1083.11627        43.20027  21143382.46226      -808.46026        38.50026
G10  22811498.74926     -2057.15026        36.20026  22809142.97924     -1533.75024        27.80024
G21  21689948.18226      1643.53826        38.00026                                                
G27  22175945.33326     -3002.60026        36.10026  22173588.96425     -2243.80825        34.60025
G28  23853727.52926      2488.35026        37.50026  23851386.15024      1858.30024        26.70024
G32  21461275.78926     -1457.70726        41.30026  21458922.11825     -1088.80025        29.60025
R06  20967464.24726      2614.25626        40.10026
R05  19580209.42426     -1781.34826        38.60026
R20  19390854.81124       896.65024        29.30024
R21  22363746.12125      3840.85225        34.50025
R04  22962973.08524     -3876.15024        24.00024
C60  38630942.97526        -4.10026        40.00026                                                
C44  25405035.38124     -3116.45024        28.50024                                                
C43  22336625.69626      1558.11226        39.30026  22334738.80326      1175.13626        35.70026
C42  21859211.60327       220.83827        45.70027  21857334.60326       167.00026        35.90026
C39  38991681.14125       609.20025        33.80025                                                
C34  21752440.22027     -1259.93227        43.30027  21750553.02625      -949.65025        32.10025
C33  25040135.49626      2487.00026        40.50026  25038279.18126      1874.92426        36.70026
C21  23435237.04426     -2203.48826        38.10026  23433346.55224     -1660.85024        28.00024
C16  39197862.20524       925.05024        29.20024                                                
C14  22533578.54927      1589.25227        44.20027                                                
C13  39568307.05224       -50.20024        29.30024                                                
C12  23549507.43625     -2514.90025        32.10025                                                
C11  21456033.31827       371.30827        43.00027                                                
C09  39197599.88725      1391.10025        33.10025                                                
C06  38579389.46525      1220.55025        30.60025                                                
C05  37616268.42026        40.75026        37.70026                                                
E04  26136776.30726      2821.52226        39.10026  26134869.32725      2107.31825        32.50025
E10  25654466.60324      2045.40024        29.40024  25652554.82624      1528.30024        27.20024
E11  26860771.49524      2342.80024        26.20024                                                
E12  24336703.67125      1346.06525        29.70025  24334793.69325      1004.10025        32.00025
E19  23502959.26025       428.40025        32.10025                                                
E24  28338216.48225     -1888.38125        34.80025                                                
E33  24351510.42126      -838.86726        40.70026  24349599.54425      -626.26625        32.00025
> 2024 04 13 16 52 35.4186988  0 36                      
G02  22920728.31826      2469.73226        38.20026                                                
G03  24031433.89327      2463.60427        46.80027  24029088.61625      1837.94725        32.00025
G08  21145940.17828     -1087.19928        47.90028  21143586.80826      -811.02126        35.60026
G10  22811910.55125     -2060.30025        34.90025                                                
G21  21689625.19326      1637.09726        35.60026                                                
G27  22176512.42827     -3011.70027        44.00027  22174159.35726     -2244.81626        37.30026
G28  23853257.94127      2481.75027        43.30027  23850910.26725      1854.49225        33.00025
G32  21461548.18726     -1460.53726        40.00026  21459198.41424     -1090.80024        27.00024
R06  20966974.87326      2609.95526        39.30026
R05  19580531.58826     -1788.25026        39.80026
R20  19390647.54224       901.10024        28.00024
R19  21992993.27625     -3098.75025        30.50025
R21  22363035.50126      3834.39026        37.30026
C60  38630950.35826       -28.15026        41.20026                                                
C44  25405641.44924     -3132.35024        29.10024                                                
C43  22336327.59027      1553.00527        43.20027  22334439.79725      1172.20925        34.20025
C42  21859168.92026       217.15026        38.80026  21857291.92026       163.61726        37.60026
C39  38991566.80825       608.71525        34.50025                                                
C34  21752678.74227     -1263.35027        46.30027  21750795.74624      -955.68324        29.00024
C33  25039659.01327      2480.70027        44.30027  25037803.59725      1871.79225        31.30025
C21  23435656.64125     -2208.20025        35.40025  23433771.84524     -1659.65024        27.60024
C16  39197680.11925       913.35025        33.20025                                                
C14  22533274.74728      1585.08628        48.00028                                                
C13  39568329.72324       -48.05024        29.30024                                                
C12  23549982.79426     -2520.21526        39.10026                                                
C11  21455964.85327       366.21427        43.10027                                                
C09  39197328.76226      1384.84926        38.60026                                                
C06  38579145.62126      1214.35026        35.80026                                                
C05  37616257.21526        25.45026        39.60026                                                
C02  38710457.41626        -1.30026        35.80026                                                
E04  26136238.36726      2820.67026        38.90026  26134331.68725      2106.47825        34.00025
E10  25654079.45825      2034.13125        32.50025  25652171.87924      1526.00024        27.40024
E12  24336447.83625      1337.16325        30.20025                                                
E19  23502872.50825       423.62225        34.00025  23500961.63124       319.60024        24.70024
E24  28338577.91926     -1892.48126        36.90026  28336691.32523     -1416.00023        20.00023
E33  24351670.39726      -841.67226        38.10026  24349757.12225      -627.00025        33.90025
> 2024 04 13 16 52 36.4186988  0 35                      
G02  22920257.08826      2467.65526        37.10026                                                
G03  24030961.46326      2461.23426        41.20026  24028619.18525      1838.25025        34.40025
G08  21146146.77928     -1088.29428        47.90028  21143795.80625      -811.05025        33.10025
G10  22812286.23426     -2059.21226        36.50026  22809931.06524     -1533.20024        24.60024
G21  21689322.74627      1633.80527        41.60027                                                
G27  22177079.37928     -3005.89028        48.20028  22174732.30426     -2245.10626        38.40026
G28  23852781.31527      2485.11027        43.80027  23850437.83725      1855.77625        29.50025
G32  21461836.93127     -1465.25327        45.00027  21459477.86425     -1098.97325        30.10025
R06  20966516.53424      2605.90024        28.40024
R05  19580854.50826     -1789.49326        37.90026
R19  21993588.40725     -3105.40025        31.30025
R21  22362316.94225      3828.60025        33.30025
R04  22964430.00824     -3873.90024        27.60024
C60  38630956.09727       -17.55027        41.90027                                                
C44  25406239.27824     -3123.90024        29.00024                                                
C43  22336034.73727      1549.96027        43.10027  22334143.94525      1167.65025        31.10025
C42  21859127.29327       213.83527        42.60027  21857252.39126       160.74126        36.60026
C39  38991444.83626       596.30826        36.10026  38989561.84023       455.60023        19.40023
C34  21752923.11627     -1263.76227        44.00027  21751036.22325      -956.19325        31.30025
C33  25039182.68627      2483.27127        43.70027  25037326.07126      1871.05226        37.40026
C21  23436087.78626     -2207.54626        37.20026  23434193.39724     -1663.55024        27.30024
C16  39197499.38726       916.19926        38.00026                                                
C14  22532969.90127      1585.04627        45.80027                                                
C13  39568314.47725       -55.60025        34.00025                                                
C12  23550468.20226     -2519.49026        38.90026                                                
C11  21455893.84527       364.15527        41.70027                                                
C09  39197058.09327      1382.88827        42.60027                                                
C06  38578921.42027      1216.24727        41.70027                                                
C02  38710452.96326        31.60026        39.20026                                                
E04  26135697.88426      2818.89426        35.70026  26133796.90025      2104.70125        31.50025
E10  25653698.16624      2034.55024        26.30024                                                
E12  24336197.55326      1334.46326        37.30026  24334282.17924       997.45024        27.60024
E19  23502792.20726       423.03726        37.90026                                                
