NMEA,$GPGSV,3,1,11,02,34,317,42,03,14,262,39,08,56,243,46,10,31,049,31,1*6A,1713027121568
NMEA,$GPGSV,3,2,11,21,51,325,39,27,41,187,38,28,18,126,33,32,55,057,37,1*68,1713027121568
NMEA,$GPGSV,3,3,11,36,00,000,40,40,00,000,37,49,00,000,40,1*5C,1713027121568
NMEA,$GPGSV,2,1,06,03,14,262,29,08,56,243,32,10,31,049,20,27,41,187,30,8*6D,1713027121568
NMEA,$GPGSV,2,2,06,28,18,126,21,32,55,057,20,8*6F,1713027121568
NMEA,$GLGSV,2,1,06,,00,000,35,70,40,232,33,69,65,009,38,84,73,028,26,1*73,1713027121568
NMEA,$GLGSV,2,2,06,85,22,330,41,68,16,031,22,1*7D,1713027121568
NMEA,$GAGSV,2,1,06,04,28,203,23,10,35,319,36,12,57,338,33,19,73,118,28,7*76,1713027121568
NMEA,$GAGSV,2,2,06,24,07,259,35,33,51,092,34,7*74,1713027121568
NMEA,$GAGSV,2,1,05,10,35,319,30,12,57,338,26,19,73,118,21,24,07,259,24,1*7F,1713027121568
NMEA,$GAGSV,2,2,05,33,51,092,26,1*4B,1713027121568
NMEA,$GBGSV,5,1,17,60,29,116,37,44,15,144,24,43,56,309,41,42,74,280,43,1*7B,1713027121568
NMEA,$GBGSV,5,2,17,39,27,063,32,34,68,161,36,33,23,237,26,21,43,037,41,1*70,1713027121568
NMEA,$GBGSV,5,3,17,16,28,072,31,14,49,245,43,13,18,069,25,12,38,144,42,1*7C,1713027121568
NMEA,$GBGSV,5,4,17,11,82,298,38,09,31,095,34,06,31,084,27,05,46,138,39,1*79,1713027121568
NMEA,$GBGSV,5,5,17,02,27,112,27,1*40,1713027121568
NMEA,$GBGSV,2,1,06,21,43,037,37,33,23,237,29,34,68,161,37,39,27,063,32,3*79,1713027121568
NMEA,$GBGSV,2,2,06,42,74,280,34,43,56,309,38,3*7F,1713027121568
NMEA,$GBGSV,2,1,06,21,43,037,31,33,23,237,29,34,68,161,29,39,27,063,25,5*70,1713027121568
NMEA,$GBGSV,2,2,06,42,74,280,29,43,56,309,28,5*74,1713027121568
NMEA,$GNGSA,A,3,02,03,08,10,21,27,28,32,,,,,0.6,0.4,0.5,1*33,1713027121586
NMEA,$PSSGR,GSA,A,3,03,08,10,27,28,32,,,,,,,0.6,0.4,0.5,1,8*46,1713027121586
NMEA,$GNGSA,A,3,68,69,70,84,85,,,,,,,,0.6,0.4,0.5,2*32,1713027121586
NMEA,$GNGSA,A,3,04,10,12,19,24,33,,,,,,,0.6,0.4,0.5,3*3C,1713027121586
NMEA,$PSSGR,GSA,A,3,310,312,319,324,333,,,,,,,,0.6,0.4,0.5,3,1*76,1713027121586
NMEA,$GNGSA,A,3,05,06,09,11,12,13,14,16,21,33,34,39,0.6,0.4,0.5,4*34,1713027121586
NMEA,$PSSGR,GSA,A,3,221,233,234,239,242,243,,,,,,,0.6,0.4,0.5,4,5*45,1713027121586
NMEA,$GNVTG,,T,,M,0.0,N,0.0,K,A*3D,1713027121586
NMEA,$GNDTM,W84,,0000.000000,N,00000.000000,E,0.000,W84*41,1713027121586
NMEA,$GNRMC,165202.00,A,3210.126876,N,03448.798309,E,0.0,,130424,5.1,E,A,V*72,1713027121586
NMEA,$GNGNS,165202.00,3210.126876,N,03448.798309,E,AAAANN,35,0.4,26.0,19.1,,,V*14,1713027121586
NMEA,$GNGGA,165202.00,3210.126876,N,03448.798309,E,1,12,0.4,26.0,M,19.1,M,,*41,1713027121586
NMEA,$PSMSG,magcal=PASS,bluesky=0*00,1713027121596
NMEA,$GPGSV,3,1,11,02,34,317,43,03,14,262,40,08,56,243,47,10,31,049,33,1*66,1713027122565
NMEA,$GPGSV,3,2,11,21,51,325,40,27,41,187,38,28,18,126,33,32,55,057,38,1*69,1713027122565
NMEA,$GPGSV,3,3,11,36,00,000,40,40,00,000,38,49,00,000,41,1*52,1713027122565
NMEA,$GPGSV,2,1,06,03,14,262,28,08,56,243,33,10,31,049,20,27,41,187,31,8*6C,1713027122565
NMEA,$GPGSV,2,2,06,28,18,126,18,32,55,057,22,8*67,1713027122565
NMEA,$GLGSV,2,1,07,,00,000,35,70,40,232,34,69,65,009,40,84,73,028,26,1*7A,1713027122565
NMEA,$GLGSV,2,2,07,83,27,131,22,85,22,330,41,68,16,031,22,1*41,1713027122565
NMEA,$GAGSV,2,1,06,04,28,203,23,10,35,319,35,12,57,338,33,19,73,118,28,7*75,1713027122565
NMEA,$GAGSV,2,2,06,24,07,259,36,33,51,092,35,7*76,1713027122565
NMEA,$GAGSV,2,1,05,10,35,319,31,12,57,338,25,19,73,118,21,24,07,259,25,1*7C,1713027122565
NMEA,$GAGSV,2,2,05,33,51,092,26,1*4B,1713027122565
NMEA,$GBGSV,5,1,17,60,29,116,38,44,15,144,24,43,56,309,42,42,74,280,44,1*70,1713027122565
NMEA,$GBGSV,5,2,17,39,27,063,32,34,68,161,38,33,23,237,27,21,43,037,41,1*7F,1713027122565
NMEA,$GBGSV,5,3,17,16,28,072,32,14,49,245,43,13,18,069,26,12,38,144,43,1*7D,1713027122565
NMEA,$GBGSV,5,4,17,11,82,298,38,09,31,095,35,06,31,084,29,05,46,138,40,1*78,1713027122565
NMEA,$GBGSV,5,5,17,02,27,112,27,1*40,1713027122565
NMEA,$GBGSV,2,1,06,21,43,037,38,33,23,237,29,34,68,161,37,39,27,063,33,3*77,1713027122565
NMEA,$GBGSV,2,2,06,42,74,280,34,43,56,309,39,3*7E,1713027122565
NMEA,$GBGSV,2,1,06,21,43,037,31,33,23,237,30,34,68,161,29,39,27,063,25,5*78,1713027122565
NMEA,$GBGSV,2,2,06,42,74,280,29,43,56,309,28,5*74,1713027122565
NMEA,$GNGSA,A,3,02,03,08,10,21,27,28,32,,,,,0.6,0.4,0.5,1*33,1713027122580
NMEA,$PSSGR,GSA,A,3,03,08,10,27,28,32,,,,,,,0.6,0.4,0.5,1,8*46,1713027122580
NMEA,$GNGSA,A,3,68,69,70,83,84,85,,,,,,,0.6,0.4,0.5,2*39,1713027122580
NMEA,$GNGSA,A,3,04,10,12,19,24,33,,,,,,,0.6,0.4,0.5,3*3C,1713027122580
NMEA,$PSSGR,GSA,A,3,310,312,319,324,333,,,,,,,,0.6,0.4,0.5,3,1*76,1713027122580
NMEA,$GNGSA,A,3,05,06,09,11,12,13,14,16,21,33,34,39,0.6,0.4,0.5,4*34,1713027122580
NMEA,$PSSGR,GSA,A,3,221,233,234,239,242,243,,,,,,,0.6,0.4,0.5,4,5*45,1713027122580
NMEA,$GNVTG,,T,,M,0.0,N,0.0,K,A*3D,1713027122580
NMEA,$GNDTM,W84,,0000.000000,N,00000.000000,E,0.000,W84*41,1713027122580
NMEA,$GNRMC,165203.00,A,3210.126912,N,03448.798375,E,0.0,,130424,5.1,E,A,V*7B,1713027122580
NMEA,$GNGNS,165203.00,3210.126912,N,03448.798375,E,AAAANN,36,0.4,26.4,19.1,,,V*1A,1713027122580
NMEA,$GNGGA,165203.00,3210.126912,N,03448.798375,E,1,12,0.4,26.4,M,19.1,M,,*4C,1713027122580
NMEA,$PSMSG,magcal=PASS,bluesky=0*00,1713027122585
NMEA,$GPGSV,3,1,11,02,34,317,42,03,14,262,40,08,56,243,46,10,31,049,32,1*67,1713027123566
NMEA,$GPGSV,3,2,11,21,51,325,42,27,41,187,37,28,18,126,34,32,55,057,39,1*62,1713027123566
NMEA,$GPGSV,3,3,11,36,00,000,40,40,00,000,39,49,00,000,41,1*53,1713027123566
NMEA,$GPGSV,2,1,06,03,14,262,28,08,56,243,32,10,31,049,20,27,41,187,31,8*6D,1713027123566
NMEA,$GPGSV,2,2,06,28,18,126,18,32,55,057,24,8*61,1713027123566
NMEA,$GLGSV,2,1,07,,00,000,33,70,40,232,35,69,65,009,38,84,73,028,27,1*73,1713027123566
NMEA,$GLGSV,2,2,07,83,27,131,25,85,22,330,40,68,16,031,20,1*45,1713027123566
NMEA,$GAGSV,2,1,06,04,28,203,20,10,35,319,34,12,57,338,34,19,73,118,28,7*70,1713027123566
NMEA,$GAGSV,2,2,06,24,07,259,36,33,51,092,34,7*77,1713027123566
NMEA,$GAGSV,2,1,05,10,35,319,31,12,57,338,27,19,73,118,21,24,07,259,26,1*7D,1713027123566
NMEA,$GAGSV,2,2,05,33,51,092,27,1*4A,1713027123566
NMEA,$GBGSV,5,1,17,60,29,116,37,44,15,144,22,43,56,309,42,42,74,280,45,1*78,1713027123566
NMEA,$GBGSV,5,2,17,39,27,063,32,34,68,161,38,33,23,237,29,21,43,037,42,1*72,1713027123566
NMEA,$GBGSV,5,3,17,16,28,072,33,14,49,245,44,13,18,069,24,12,38,144,44,1*7E,1713027123566
NMEA,$GBGSV,5,4,17,11,82,298,39,09,31,095,33,06,31,084,28,05,46,138,39,1*70,1713027123566
NMEA,$GBGSV,5,5,17,02,27,112,27,1*40,1713027123566
NMEA,$GBGSV,2,1,06,21,43,037,38,33,23,237,29,34,68,161,37,39,27,063,31,3*75,1713027123566
NMEA,$GBGSV,2,2,06,42,74,280,38,43,56,309,39,3*72,1713027123566
NMEA,$GBGSV,2,1,06,21,43,037,31,33,23,237,29,34,68,161,28,39,27,063,26,5*72,1713027123566
NMEA,$GBGSV,2,2,06,42,74,280,27,43,56,309,30,5*73,1713027123566
NMEA,$GNGSA,A,3,02,03,08,10,21,27,28,32,,,,,0.6,0.4,0.5,1*33,1713027123576
NMEA,$PSSGR,GSA,A,3,03,08,10,27,28,32,,,,,,,0.6,0.4,0.5,1,8*46,1713027123576
NMEA,$GNGSA,A,3,68,69,70,83,84,85,,,,,,,0.6,0.4,0.5,2*39,1713027123576
NMEA,$GNGSA,A,3,04,10,12,19,24,33,,,,,,,0.6,0.4,0.5,3*3C,1713027123576
NMEA,$PSSGR,GSA,A,3,310,312,319,324,333,,,,,,,,0.6,0.4,0.5,3,1*76,1713027123576
NMEA,$GNGSA,A,3,05,06,09,11,12,13,14,16,21,33,34,39,0.6,0.4,0.5,4*34,1713027123576
NMEA,$PSSGR,GSA,A,3,221,233,234,239,242,243,,,,,,,0.6,0.4,0.5,4,5*45,1713027123576
NMEA,$GNVTG,,T,,M,0.0,N,0.0,K,A*3D,1713027123576
NMEA,$GNDTM,W84,,0000.000000,N,00000.000000,E,0.000,W84*41,1713027123576
NMEA,$GNRMC,165204.00,A,3210.126871,N,03448.798415,E,0.0,,130424,5.1,E,A,V*79,1713027123576
NMEA,$GNGNS,165204.00,3210.126871,N,03448.798415,E,AAAANN,36,0.4,26.5,19.1,,,V*19,1713027123576
NMEA,$GNGGA,165204.00,3210.126871,N,03448.798415,E,1,12,0.4,26.5,M,19.1,M,,*4F,1713027123576
NMEA,$PSMSG,magcal=PASS,bluesky=0*00,1713027123589
NMEA,$GPGSV,3,1,11,02,34,317,39,03,14,262,42,08,56,243,38,10,31,049,36,1*64,1713027124568
NMEA,$GPGSV,3,2,11,21,51,325,34,27,41,187,39,28,18,126,28,32,55,057,36,1*6F,1713027124568
NMEA,$GPGSV,3,3,11,36,00,000,40,40,00,000,41,49,00,000,34,1*5E,1713027124568
NMEA,$GPGSV,2,1,06,03,14,262,26,08,56,243,32,10,31,049,23,27,41,187,31,8*60,1713027124568
NMEA,$GPGSV,2,2,06,28,18,126,21,32,55,057,26,8*69,1713027124568
NMEA,$GLGSV,2,1,07,,00,000,35,70,40,232,30,69,65,009,39,84,73,028,25,1*73,1713027124568
NMEA,$GLGSV,2,2,07,83,27,131,24,85,22,330,33,68,16,031,24,1*44,1713027124568
NMEA,$GAGSV,2,1,06,04,28,203,30,10,35,319,38,12,57,338,32,19,73,118,29,7*7A,1713027124568
NMEA,$GAGSV,2,2,06,24,07,259,38,33,51,092,36,7*7B,1713027124568
NMEA,$GAGSV,2,1,05,10,35,319,32,12,57,338,31,19,73,118,21,24,07,259,24,1*7B,1713027124568
NMEA,$GAGSV,2,2,05,33,51,092,28,1*45,1713027124568
NMEA,$GBGSV,5,1,17,60,29,116,35,44,15,144,29,43,56,309,38,42,74,280,41,1*78,1713027124568
NMEA,$GBGSV,5,2,17,39,27,063,32,34,68,161,43,33,23,237,35,21,43,037,39,1*7F,1713027124568
NMEA,$GBGSV,5,3,17,16,28,072,33,14,49,245,40,13,18,069,25,12,38,144,42,1*7D,1713027124568
NMEA,$GBGSV,5,4,17,11,82,298,41,09,31,095,29,06,31,084,30,05,46,138,38,1*7C,1713027124568
NMEA,$GBGSV,5,5,17,02,27,112,27,1*40,1713027124568
NMEA,$GBGSV,2,1,06,21,43,037,35,33,23,237,33,34,68,161,40,39,27,063,30,3*72,1713027124568
NMEA,$GBGSV,2,2,06,42,74,280,42,43,56,309,32,3*74,1713027124568
NMEA,$GBGSV,2,1,06,21,43,037,24,33,23,237,24,34,68,161,25,39,27,063,24,5*74,1713027124568
NMEA,$GBGSV,2,2,06,42,74,280,30,43,56,309,34,5*71,1713027124568
NMEA,$GNGSA,A,3,02,03,08,10,21,27,28,32,,,,,0.6,0.4,0.5,1*33,1713027124590
NMEA,$PSSGR,GSA,A,3,03,08,10,27,28,32,,,,,,,0.6,0.4,0.5,1,8*46,1713027124590
NMEA,$GNGSA,A,3,68,69,70,83,84,85,,,,,,,0.6,0.4,0.5,2*39,1713027124590
NMEA,$GNGSA,A,3,04,10,12,19,24,33,,,,,,,0.6,0.4,0.5,3*3C,1713027124590
NMEA,$PSSGR,GSA,A,3,310,312,319,324,333,,,,,,,,0.6,0.4,0.5,3,1*76,1713027124590
NMEA,$GNGSA,A,3,05,06,09,11,12,13,14,16,21,33,34,39,0.6,0.4,0.5,4*34,1713027124590
NMEA,$PSSGR,GSA,A,3,221,233,234,239,242,243,,,,,,,0.6,0.4,0.5,4,5*45,1713027124590
NMEA,$GNVTG,275.6,T,270.5,M,1.8,N,3.3,K,A*32,1713027124590
NMEA,$GNDTM,W84,,0000.000000,N,00000.000000,E,0.000,W84*41,1713027124590
NMEA,$GNRMC,165205.00,A,3210.126861,N,03448.797971,E,1.8,275.6,130424,5.1,E,A,V*58,1713027124590
NMEA,$GNGNS,165205.00,3210.126861,N,03448.797971,E,AAAANN,36,0.4,26.7,19.1,,,V*1B,1713027124590
NMEA,$GNGGA,165205.00,3210.126861,N,03448.797971,E,1,12,0.4,26.7,M,19.1,M,,*4D,1713027124590
NMEA,$PSMSG,magcal=PASS,bluesky=0*00,1713027124595
NMEA,$GPGSV,3,1,11,02,34,317,34,03,14,262,33,08,56,243,41,10,31,049,36,1*61,1713027125565
NMEA,$GPGSV,3,2,11,21,51,325,37,27,41,187,36,28,18,126,27,32,55,057,39,1*63,1713027125565
NMEA,$GPGSV,3,3,11,36,00,000,40,40,00,000,38,49,00,000,40,1*53,1713027125565
NMEA,$GPGSV,2,1,06,03,14,262,22,08,56,243,34,10,31,049,23,27,41,187,26,8*64,1713027125565
NMEA,$GPGSV,2,2,06,28,18,126,21,32,55,057,24,8*6B,1713027125565
NMEA,$GLGSV,2,1,07,,00,000,31,70,40,232,30,69,65,009,39,84,73,028,23,1*71,1713027125565
NMEA,$GLGSV,2,2,07,83,27,131,25,85,22,330,32,68,16,031,25,1*45,1713027125565
NMEA,$GAGSV,2,1,06,04,28,203,31,10,35,319,32,12,57,338,33,19,73,118,29,7*70,1713027125565
NMEA,$GAGSV,2,2,06,24,07,259,37,33,51,092,36,7*74,1713027125565
NMEA,$GAGSV,2,1,06,04,28,203,18,10,35,319,33,12,57,338,28,19,73,118,24,1*7B,1713027125565
NMEA,$GAGSV,2,2,06,24,07,259,23,33,51,092,30,1*71,1713027125565
NMEA,$GBGSV,5,1,17,60,29,116,35,44,15,144,29,43,56,309,40,42,74,280,38,1*79,1713027125565
NMEA,$GBGSV,5,2,17,39,27,063,28,34,68,161,40,33,23,237,34,21,43,037,39,1*76,1713027125565
NMEA,$GBGSV,5,3,17,16,28,072,26,14,49,245,42,13,18,069,25,12,38,144,40,1*79,1713027125565
NMEA,$GBGSV,5,4,17,11,82,298,39,09,31,095,32,06,31,084,29,05,46,138,37,1*7E,1713027125565
NMEA,$GBGSV,5,5,17,02,27,112,27,1*40,1713027125565
NMEA,$GBGSV,2,1,07,21,43,037,36,33,23,237,29,34,68,161,40,39,27,063,28,3*72,1713027125565
NMEA,$GBGSV,2,2,07,42,74,280,41,43,56,309,38,44,15,144,19,3*41,1713027125565
NMEA,$GBGSV,2,1,06,21,43,037,27,33,23,237,23,34,68,161,25,39,27,063,23,5*77,1713027125565
NMEA,$GBGSV,2,2,06,42,74,280,32,43,56,309,32,5*75,1713027125565
NMEA,$GNGSA,A,3,02,03,08,10,21,27,28,32,,,,,0.6,0.4,0.5,1*33,1713027125584
NMEA,$PSSGR,GSA,A,3,03,08,10,27,28,32,,,,,,,0.6,0.4,0.5,1,8*46,1713027125584
NMEA,$GNGSA,A,3,68,69,70,83,84,85,,,,,,,0.6,0.4,0.5,2*39,1713027125584
NMEA,$GNGSA,A,3,04,10,12,19,24,33,,,,,,,0.6,0.4,0.5,3*3C,1713027125584
NMEA,$PSSGR,GSA,A,3,310,312,319,324,333,,,,,,,,0.6,0.4,0.5,3,1*76,1713027125584
NMEA,$GNGSA,A,3,05,06,09,11,12,13,14,16,21,33,34,39,0.6,0.4,0.5,4*34,1713027125584
NMEA,$PSSGR,GSA,A,3,221,234,239,242,243,,,,,,,,0.6,0.4,0.5,4,5*77,1713027125584
NMEA,$GNVTG,270.6,T,265.5,M,3.6,N,6.7,K,A*3E,1713027125584
NMEA,$GNDTM,W84,,0000.000000,N,00000.000000,E,0.000,W84*41,1713027125584
NMEA,$GNRMC,165206.00,A,3210.126861,N,03448.797098,E,3.6,270.6,130424,5.1,E,A,V*5C,1713027125584
NMEA,$GNGNS,165206.00,3210.126861,N,03448.797098,E,AAAANN,36,0.4,26.3,19.1,,,V*12,1713027125584
NMEA,$GNGGA,165206.00,3210.126861,N,03448.797098,E,1,12,0.4,26.3,M,19.1,M,,*44,1713027125584
NMEA,$PSMSG,magcal=PASS,bluesky=0*00,1713027125599
NMEA,$GPGSV,3,1,11,02,34,317,37,03,14,262,30,08,56,243,41,10,31,049,34,1*63,1713027126571
NMEA,$GPGSV,3,2,11,21,51,325,35,27,41,187,35,28,18,126,29,32,55,057,38,1*6D,1713027126571
NMEA,$GPGSV,3,3,11,36,00,000,40,40,00,000,36,49,00,000,41,1*5C,1713027126571
NMEA,$GPGSV,2,1,06,03,14,262,21,08,56,243,31,10,31,049,21,27,41,187,24,8*62,1713027126571
NMEA,$GPGSV,2,2,06,28,18,126,21,32,55,057,25,8*6A,1713027126571
NMEA,$GLGSV,2,1,07,,00,000,33,70,40,232,30,69,65,009,39,84,73,028,26,1*76,1713027126571
NMEA,$GLGSV,2,2,07,83,27,131,26,85,22,330,31,68,16,031,24,1*44,1713027126571
NMEA,$GAGSV,2,1,06,04,28,203,31,10,35,319,31,12,57,338,31,19,73,118,28,7*70,1713027126571
NMEA,$GAGSV,2,2,06,24,07,259,29,33,51,092,36,7*7B,1713027126571
NMEA,$GAGSV,2,1,06,04,28,203,30,10,35,319,29,12,57,338,28,19,73,118,24,1*7A,1713027126571
NMEA,$GAGSV,2,2,06,24,07,259,24,33,51,092,27,1*70,1713027126571
NMEA,$GBGSV,5,1,17,60,29,116,37,44,15,144,22,43,56,309,41,42,74,280,42,1*7C,1713027126571
NMEA,$GBGSV,5,2,17,39,27,063,31,34,68,161,41,33,23,237,39,21,43,037,39,1*72,1713027126571
NMEA,$GBGSV,5,3,17,16,28,072,29,14,49,245,42,13,18,069,27,12,38,144,37,1*74,1713027126571
NMEA,$GBGSV,5,4,17,11,82,298,41,09,31,095,34,06,31,084,29,05,46,138,35,1*75,1713027126571
NMEA,$GBGSV,5,5,17,02,27,112,29,1*4E,1713027126571
NMEA,$GBGSV,2,1,07,21,43,037,36,33,23,237,34,34,68,161,36,39,27,063,27,3*70,1713027126571
NMEA,$GBGSV,2,2,07,42,74,280,39,43,56,309,34,44,15,144,19,3*42,1713027126571
NMEA,$GBGSV,2,1,06,21,43,037,27,33,23,237,23,34,68,161,28,39,27,063,21,5*78,1713027126571
NMEA,$GBGSV,2,2,06,42,74,280,32,43,56,309,30,5*77,1713027126571
NMEA,$GNGSA,A,3,02,03,08,10,21,27,28,32,,,,,0.6,0.4,0.5,1*33,1713027126588
NMEA,$PSSGR,GSA,A,3,03,08,10,27,28,32,,,,,,,0.6,0.4,0.5,1,8*46,1713027126588
NMEA,$GNGSA,A,3,68,69,70,83,84,85,,,,,,,0.6,0.4,0.5,2*39,1713027126588
NMEA,$GNGSA,A,3,04,10,12,19,24,33,,,,,,,0.6,0.4,0.5,3*3C,1713027126588
NMEA,$PSSGR,GSA,A,3,304,310,312,319,324,333,,,,,,,0.6,0.4,0.5,3,1*41,1713027126588
NMEA,$GNGSA,A,3,05,06,09,11,12,13,14,16,21,33,34,39,0.6,0.4,0.5,4*34,1713027126588
NMEA,$PSSGR,GSA,A,3,221,234,239,242,243,,,,,,,,0.6,0.4,0.5,4,5*77,1713027126588
NMEA,$GNVTG,271.2,T,266.1,M,2.8,N,5.3,K,A*34,1713027126588
NMEA,$GNDTM,W84,,0000.000000,N,00000.000000,E,0.000,W84*41,1713027126588
NMEA,$GNRMC,165207.00,A,3210.126871,N,03448.796162,E,2.8,271.2,130424,5.1,E,A,V*53,1713027126588
NMEA,$GNGNS,165207.00,3210.126871,N,03448.796162,E,AAAANN,36,0.4,26.1,19.1,,,V*15,1713027126588
NMEA,$GNGGA,165207.00,3210.126871,N,03448.796162,E,1,12,0.4,26.1,M,19.1,M,,*43,1713027126588
NMEA,$PSMSG,magcal=PASS,bluesky=0*00,1713027126593
NMEA,$GPGSV,3,1,11,02,34,317,40,03,14,262,33,08,56,243,44,10,31,049,35,1*64,1713027127564
NMEA,$GPGSV,3,2,11,21,51,325,35,27,41,187,32,28,18,126,27,32,55,057,40,1*6B,1713027127564
NMEA,$GPGSV,3,3,11,36,00,000,40,40,00,000,35,49,00,000,42,1*5C,1713027127564
NMEA,$GPGSV,2,1,06,03,14,262,21,08,56,243,31,10,31,049,25,27,41,187,29,8*6B,1713027127564
NMEA,$GPGSV,2,2,06,28,18,126,21,32,55,057,28,8*67,1713027127564
NMEA,$GLGSV,2,1,07,,00,000,31,70,40,232,32,69,65,009,38,84,73,028,24,1*75,1713027127564
NMEA,$GLGSV,2,2,07,83,27,131,26,85,22,330,32,68,16,031,24,1*47,1713027127564
NMEA,$GAGSV,2,1,07,04,28,203,38,10,35,319,38,11,10,308,20,12,57,338,35,7*73,1713027127564
NMEA,$GAGSV,2,2,07,19,73,118,31,24,07,259,33,33,51,092,39,7*48,1713027127564
NMEA,$GAGSV,2,1,06,04,28,203,34,10,35,319,30,12,57,338,27,19,73,118,19,1*77,1713027127564
NMEA,$GAGSV,2,2,06,24,07,259,24,33,51,092,29,1*7E,1713027127564
NMEA,$GBGSV,5,1,17,60,29,116,35,44,15,144,22,43,56,309,42,42,74,280,39,1*71,1713027127564
NMEA,$GBGSV,5,2,17,39,27,063,30,34,68,161,41,33,23,237,39,21,43,037,41,1*7C,1713027127564
NMEA,$GBGSV,5,3,17,16,28,072,28,14,49,245,45,13,18,069,27,12,38,144,37,1*72,1713027127564
NMEA,$GBGSV,5,4,17,11,82,298,41,09,31,095,34,06,31,084,30,05,46,138,34,1*7C,1713027127564
NMEA,$GBGSV,5,5,17,02,27,112,29,1*4E,1713027127564
NMEA,$GBGSV,2,1,07,21,43,037,41,33,23,237,37,34,68,161,39,39,27,063,27,3*7C,1713027127564
NMEA,$GBGSV,2,2,07,42,74,280,39,43,56,309,38,44,15,144,19,3*4E,1713027127564
NMEA,$GBGSV,2,1,06,21,43,037,29,33,23,237,24,34,68,161,27,39,27,063,23,5*7C,1713027127564
NMEA,$GBGSV,2,2,06,42,74,280,36,43,56,309,27,5*75,1713027127564
NMEA,$GNGSA,A,3,02,03,08,10,21,27,28,32,,,,,0.6,0.4,0.5,1*33,1713027127578
NMEA,$PSSGR,GSA,A,3,03,08,10,27,28,32,,,,,,,0.6,0.4,0.5,1,8*46,1713027127578
NMEA,$GNGSA,A,3,68,69,70,83,84,85,,,,,,,0.6,0.4,0.5,2*39,1713027127578
NMEA,$GNGSA,A,3,04,10,12,19,24,33,,,,,,,0.6,0.4,0.5,3*3C,1713027127578
NMEA,$PSSGR,GSA,A,3,304,310,312,319,324,333,,,,,,,0.6,0.4,0.5,3,1*41,1713027127578
NMEA,$GNGSA,A,3,05,06,09,11,12,13,14,16,21,33,34,39,0.6,0.4,0.5,4*34,1713027127578
NMEA,$PSSGR,GSA,A,3,221,234,239,242,243,,,,,,,,0.6,0.4,0.5,4,5*77,1713027127578
NMEA,$GNVTG,276.3,T,271.2,M,3.1,N,5.8,K,A*34,1713027127578
NMEA,$GNDTM,W84,,0000.000000,N,00000.000000,E,0.000,W84*41,1713027127578
NMEA,$GNRMC,165208.00,A,3210.126971,N,03448.795185,E,3.1,276.3,130424,5.1,E,A,V*59,1713027127578
NMEA,$GNGNS,165208.00,3210.126971,N,03448.795185,E,AAAANN,36,0.4,25.8,19.1,,,V*1B,1713027127578
NMEA,$GNGGA,165208.00,3210.126971,N,03448.795185,E,1,12,0.4,25.8,M,19.1,M,,*4D,1713027127578
NMEA,$PSMSG,magcal=PASS,bluesky=0*00,1713027127587
NMEA,$GPGSV,3,1,11,02,34,317,39,03,14,262,32,08,56,243,43,10,31,049,39,1*60,1713027128568
NMEA,$GPGSV,3,2,11,21,51,325,39,27,41,187,36,28,18,126,25,32,55,057,37,1*61,1713027128568
NMEA,$GPGSV,3,3,11,36,00,000,40,40,00,000,35,49,00,000,39,1*50,1713027128568
NMEA,$GPGSV,2,1,06,03,14,262,21,08,56,243,34,10,31,049,29,27,41,187,27,8*6C,1713027128568
NMEA,$GPGSV,2,2,06,28,18,126,21,32,55,057,27,8*68,1713027128568
NMEA,$GLGSV,2,1,07,,00,000,28,70,40,232,26,69,65,009,41,84,73,028,24,1*76,1713027128568
NMEA,$GLGSV,2,2,07,83,27,131,22,85,22,330,27,68,16,031,23,1*40,1713027128568
NMEA,$GAGSV,2,1,07,04,28,203,35,10,35,319,37,11,10,308,23,12,57,338,34,7*73,1713027128568
NMEA,$GAGSV,2,2,07,19,73,118,31,24,07,259,30,33,51,092,38,7*4A,1713027128568
NMEA,$GAGSV,2,1,07,04,28,203,33,10,35,319,33,11,10,308,21,12,57,338,27,1*77,1713027128568
NMEA,$GAGSV,2,2,07,19,73,118,19,24,07,259,24,33,51,092,30,1*4B,1713027128568
NMEA,$GBGSV,5,1,17,60,29,116,36,44,15,144,24,43,56,309,42,42,74,280,42,1*78,1713027128568
NMEA,$GBGSV,5,2,17,39,27,063,31,34,68,161,42,33,23,237,32,21,43,037,36,1*75,1713027128568
NMEA,$GBGSV,5,3,17,16,28,072,29,14,49,245,44,13,18,069,25,12,38,144,34,1*73,1713027128568
NMEA,$GBGSV,5,4,17,11,82,298,39,09,31,095,32,06,31,084,27,05,46,138,34,1*73,1713027128568
NMEA,$GBGSV,5,5,17,02,27,112,29,1*4E,1713027128568
NMEA,$GBGSV,2,1,07,21,43,037,34,33,23,237,30,34,68,161,39,39,27,063,27,3*79,1713027128568
NMEA,$GBGSV,2,2,07,42,74,280,43,43,56,309,40,44,15,144,19,3*4C,1713027128568
NMEA,$GBGSV,2,1,06,21,43,037,26,33,23,237,24,34,68,161,26,39,27,063,24,5*75,1713027128568
NMEA,$GBGSV,2,2,06,42,74,280,35,43,56,309,33,5*73,1713027128568
NMEA,$GNGSA,A,3,02,03,08,10,21,27,28,32,,,,,0.6,0.4,0.5,1*33,1713027128581
NMEA,$PSSGR,GSA,A,3,03,08,10,27,28,32,,,,,,,0.6,0.4,0.5,1,8*46,1713027128581
NMEA,$GNGSA,A,3,68,69,70,83,84,85,,,,,,,0.6,0.4,0.5,2*39,1713027128581
NMEA,$GNGSA,A,3,04,10,12,19,24,33,,,,,,,0.6,0.4,0.5,3*3C,1713027128581
NMEA,$PSSGR,GSA,A,3,304,310,312,319,324,333,,,,,,,0.6,0.4,0.5,3,1*41,1713027128581
NMEA,$GNGSA,A,3,05,06,09,11,12,13,14,16,21,33,34,39,0.6,0.4,0.5,4*34,1713027128581
NMEA,$PSSGR,GSA,A,3,221,234,239,242,243,,,,,,,,0.6,0.4,0.5,4,5*77,1713027128581
NMEA,$GNVTG,274.8,T,269.7,M,3.0,N,5.5,K,A*3D,1713027128581
NMEA,$GNDTM,W84,,0000.000000,N,00000.000000,E,0.000,W84*41,1713027128581
NMEA,$GNRMC,165209.00,A,3210.127070,N,03448.794198,E,3.0,274.8,130424,5.1,E,A,V*54,1713027128581
NMEA,$GNGNS,165209.00,3210.127070,N,03448.794198,E,AAAANN,36,0.4,25.4,19.1,,,V*12,1713027128581
NMEA,$GNGGA,165209.00,3210.127070,N,03448.794198,E,1,12,0.4,25.4,M,19.1,M,,*44,1713027128581
NMEA,$PSMSG,magcal=PASS,bluesky=0*00,1713027128589
NMEA,$GPGSV,3,1,11,02,34,317,37,03,14,262,29,08,56,243,42,10,31,049,36,1*6A,1713027129571
NMEA,$GPGSV,3,2,11,21,51,325,36,27,41,187,39,28,18,126,26,32,55,057,38,1*6D,1713027129571
NMEA,$GPGSV,3,3,11,36,00,000,40,40,00,000,37,49,00,000,33,1*58,1713027129571
NMEA,$GPGSV,2,1,06,03,14,262,20,08,56,243,35,10,31,049,27,27,41,187,31,8*65,1713027129571
NMEA,$GPGSV,2,2,06,28,18,126,21,32,55,057,24,8*6B,1713027129571
NMEA,$GLGSV,2,1,07,,00,000,30,70,40,232,23,69,65,009,39,84,73,028,22,1*73,1713027129571
NMEA,$GLGSV,2,2,07,83,27,131,25,85,22,330,29,68,16,031,27,1*4D,1713027129571
NMEA,$GAGSV,2,1,07,04,28,203,36,10,35,319,34,11,10,308,23,12,57,338,34,7*73,1713027129571
NMEA,$GAGSV,2,2,07,19,73,118,30,24,07,259,28,33,51,092,39,7*43,1713027129571
NMEA,$GAGSV,2,1,07,04,28,203,32,10,35,319,29,11,10,308,21,12,57,338,26,1*7C,1713027129571
NMEA,$GAGSV,2,2,07,19,73,118,21,24,07,259,18,33,51,092,30,1*4F,1713027129571
NMEA,$GBGSV,5,1,17,60,29,116,36,44,15,144,27,43,56,309,40,42,74,280,41,1*7A,1713027129571
NMEA,$GBGSV,5,2,17,39,27,063,30,34,68,161,44,33,23,237,40,21,43,037,36,1*77,1713027129571
NMEA,$GBGSV,5,3,17,16,28,072,29,14,49,245,41,13,18,069,26,12,38,144,37,1*76,1713027129571
NMEA,$GBGSV,5,4,17,11,82,298,41,09,31,095,33,06,31,084,29,05,46,138,35,1*72,1713027129571
NMEA,$GBGSV,5,5,17,02,27,112,29,1*4E,1713027129571
NMEA,$GBGSV,2,1,07,21,43,037,33,33,23,237,40,34,68,161,41,39,27,063,28,3*79,1713027129571
NMEA,$GBGSV,2,2,07,42,74,280,43,43,56,309,35,44,15,144,24,3*40,1713027129571
NMEA,$GBGSV,2,1,06,21,43,037,25,33,23,237,20,34,68,161,26,39,27,063,24,5*72,1713027129571
NMEA,$GBGSV,2,2,06,42,74,280,33,43,56,309,30,5*76,1713027129571
NMEA,$GNGSA,A,3,02,03,08,10,21,27,28,32,,,,,0.6,0.4,0.5,1*33,1713027129593
NMEA,$PSSGR,GSA,A,3,03,08,10,27,28,32,,,,,,,0.6,0.4,0.5,1,8*46,1713027129593
NMEA,$GNGSA,A,3,68,69,70,83,84,85,,,,,,,0.6,0.4,0.5,2*39,1713027129593
NMEA,$GNGSA,A,3,04,10,12,19,24,33,,,,,,,0.6,0.4,0.5,3*3C,1713027129593
NMEA,$PSSGR,GSA,A,3,304,310,312,319,324,333,,,,,,,0.6,0.4,0.5,3,1*41,1713027129593
NMEA,$GNGSA,A,3,05,06,09,11,12,13,14,16,21,33,34,39,0.6,0.4,0.5,4*34,1713027129593
NMEA,$PSSGR,GSA,A,3,221,234,239,242,243,,,,,,,,0.6,0.4,0.5,4,5*77,1713027129593
NMEA,$GNVTG,271.3,T,266.2,M,3.1,N,5.7,K,A*3A,1713027129593
NMEA,$GNDTM,W84,,0000.000000,N,00000.000000,E,0.000,W84*41,1713027129593
NMEA,$GNRMC,165210.00,A,3210.127068,N,03448.793229,E,3.1,271.3,130424,5.1,E,A,V*54,1713027129593
NMEA,$GNGNS,165210.00,3210.127068,N,03448.793229,E,AAAANN,36,0.4,25.2,19.1,,,V*1B,1713027129593
NMEA,$GNGGA,165210.00,3210.127068,N,03448.793229,E,1,12,0.4,25.2,M,19.1,M,,*4D,1713027129593
NMEA,$PSMSG,magcal=PASS,bluesky=0*00,1713027129599
NMEA,$GPGSV,3,1,11,02,34,317,35,03,14,262,33,08,56,243,43,10,31,049,37,1*63,1713027130563
NMEA,$GPGSV,3,2,11,21,51,325,36,27,41,187,42,28,18,126,24,32,55,057,39,1*62,1713027130563
NMEA,$GPGSV,3,3,11,36,00,000,40,40,00,000,40,49,00,000,34,1*5F,1713027130563
NMEA,$GPGSV,2,1,06,03,14,262,22,08,56,243,35,10,31,049,27,27,41,187,28,8*6F,1713027130563
NMEA,$GPGSV,2,2,06,28,18,126,16,32,55,057,22,8*69,1713027130563
NMEA,$GLGSV,2,1,07,,00,000,28,70,40,232,25,69,65,009,39,84,73,028,24,1*7A,1713027130563
NMEA,$GLGSV,2,2,07,83,27,131,25,85,22,330,29,68,16,031,26,1*4C,1713027130563
NMEA,$GAGSV,2,1,07,04,28,203,32,10,35,319,32,11,10,308,23,12,57,338,33,7*76,1713027130563
NMEA,$GAGSV,2,2,07,19,73,118,30,24,07,259,25,33,51,092,37,7*40,1713027130563
NMEA,$GAGSV,2,1,07,04,28,203,30,10,35,319,30,11,10,308,22,12,57,338,26,1*75,1713027130563
NMEA,$GAGSV,2,2,07,19,73,118,24,24,07,259,18,33,51,092,26,1*4D,1713027130563
NMEA,$GBGSV,5,1,17,60,29,116,32,44,15,144,25,43,56,309,41,42,74,280,40,1*7C,1713027130563
NMEA,$GBGSV,5,2,17,39,27,063,28,34,68,161,44,33,23,237,41,21,43,037,40,1*7E,1713027130563
NMEA,$GBGSV,5,3,17,16,28,072,28,14,49,245,42,13,18,069,24,12,38,144,38,1*79,1713027130563
NMEA,$GBGSV,5,4,17,11,82,298,40,09,31,095,33,06,31,084,28,05,46,138,36,1*71,1713027130563
NMEA,$GBGSV,5,5,17,02,27,112,29,1*4E,1713027130563
NMEA,$GBGSV,2,1,07,21,43,037,35,33,23,237,40,34,68,161,43,39,27,063,26,3*73,1713027130563
NMEA,$GBGSV,2,2,07,42,74,280,40,43,56,309,36,44,15,144,21,3*45,1713027130563
NMEA,$GBGSV,2,1,06,21,43,037,26,33,23,237,30,34,68,161,22,39,27,063,23,5*73,1713027130563
NMEA,$GBGSV,2,2,06,42,74,280,33,43,56,309,29,5*7E,1713027130563
NMEA,$GNGSA,A,3,02,03,08,10,21,27,28,32,,,,,0.6,0.4,0.5,1*33,1713027130577
NMEA,$PSSGR,GSA,A,3,03,08,10,27,32,,,,,,,,0.6,0.4,0.5,1,8*4C,1713027130577
NMEA,$GNGSA,A,3,68,69,70,83,84,85,,,,,,,0.6,0.4,0.5,2*39,1713027130577
NMEA,$GNGSA,A,3,04,10,12,19,24,33,,,,,,,0.6,0.4,0.5,3*3C,1713027130577
NMEA,$PSSGR,GSA,A,3,304,310,312,319,324,333,,,,,,,0.6,0.4,0.5,3,1*41,1713027130577
NMEA,$GNGSA,A,3,05,06,09,11,12,13,14,16,21,33,34,39,0.6,0.4,0.5,4*34,1713027130577
NMEA,$PSSGR,GSA,A,3,221,234,239,242,243,,,,,,,,0.6,0.4,0.5,4,5*77,1713027130577
NMEA,$GNVTG,272.2,T,267.1,M,3.0,N,5.6,K,A*3A,1713027130577
NMEA,$GNDTM,W84,,0000.000000,N,00000.000000,E,0.000,W84*41,1713027130577
NMEA,$GNRMC,165211.00,A,3210.127055,N,03448.792230,E,3.0,272.2,130424,5.1,E,A,V*51,1713027130577
NMEA,$GNGNS,165211.00,3210.127055,N,03448.792230,E,AAAANN,36,0.4,25.0,19.1,,,V*1F,1713027130577
NMEA,$GNGGA,165211.00,3210.127055,N,03448.792230,E,1,12,0.4,25.0,M,19.1,M,,*49,1713027130577
NMEA,$PSMSG,magcal=PASS,bluesky=0*00,1713027130596
NMEA,$GPGSV,3,1,11,02,34,317,34,03,14,262,31,08,56,243,35,10,31,049,33,1*65,1713027131565
NMEA,$GPGSV,3,2,11,21,51,325,34,27,41,187,39,28,18,126,25,32,55,057,34,1*60,1713027131565
NMEA,$GPGSV,3,3,11,36,00,000,40,40,00,000,38,49,00,000,34,1*50,1713027131565
NMEA,$GPGSV,2,1,06,03,14,262,22,08,56,243,26,10,31,049,27,27,41,187,26,8*63,1713027131565
NMEA,$GPGSV,2,2,06,28,18,126,16,32,55,057,22,8*69,1713027131565
NMEA,$GLGSV,2,1,07,,00,000,27,70,40,232,23,69,65,009,36,84,73,028,24,1*7C,1713027131565
NMEA,$GLGSV,2,2,07,83,27,131,25,85,22,330,25,68,16,031,26,1*40,1713027131565
NMEA,$GAGSV,2,1,07,04,28,203,25,10,35,319,28,11,10,308,19,12,57,338,29,7*79,1713027131565
NMEA,$GAGSV,2,2,07,19,73,118,25,24,07,259,25,33,51,092,31,7*42,1713027131565
NMEA,$GAGSV,2,1,07,04,28,203,22,10,35,319,25,11,10,308,22,12,57,338,23,1*77,1713027131565
NMEA,$GAGSV,2,2,07,19,73,118,24,24,07,259,18,33,51,092,22,1*49,1713027131565
NMEA,$GBGSV,5,1,17,60,29,116,32,44,15,144,25,43,56,309,39,42,74,280,39,1*7D,1713027131565
NMEA,$GBGSV,5,2,17,39,27,063,28,34,68,161,41,33,23,237,34,21,43,037,36,1*78,1713027131565
NMEA,$GBGSV,5,3,17,16,28,072,28,14,49,245,36,13,18,069,24,12,38,144,37,1*75,1713027131565
NMEA,$GBGSV,5,4,17,11,82,298,37,09,31,095,24,06,31,084,23,05,46,138,36,1*7C,1713027131565
NMEA,$GBGSV,5,5,17,02,27,112,29,1*4E,1713027131565
NMEA,$GBGSV,2,1,07,21,43,037,33,33,23,237,33,34,68,161,37,39,27,063,26,3*72,1713027131565
NMEA,$GBGSV,2,2,07,42,74,280,37,43,56,309,31,44,15,144,21,3*42,1713027131565
NMEA,$GBGSV,2,1,06,21,43,037,24,33,23,237,24,34,68,161,22,39,27,063,23,5*74,1713027131565
NMEA,$GBGSV,2,2,06,42,74,280,27,43,56,309,26,5*74,1713027131565
NMEA,$GNGSA,A,3,02,03,08,10,21,27,28,32,,,,,0.6,0.4,0.5,1*33,1713027131587
NMEA,$PSSGR,GSA,A,3,03,08,10,27,32,,,,,,,,0.6,0.4,0.5,1,8*4C,1713027131587
NMEA,$GNGSA,A,3,68,69,70,83,84,85,,,,,,,0.6,0.4,0.5,2*39,1713027131587
NMEA,$GNGSA,A,3,04,10,12,19,24,33,,,,,,,0.6,0.4,0.5,3*3C,1713027131587
NMEA,$PSSGR,GSA,A,3,304,310,312,319,324,333,,,,,,,0.6,0.4,0.5,3,1*41,1713027131587
NMEA,$GNGSA,A,3,05,06,09,11,12,13,14,16,21,33,34,39,0.6,0.4,0.5,4*34,1713027131587
NMEA,$PSSGR,GSA,A,3,221,234,239,242,243,,,,,,,,0.6,0.4,0.5,4,5*77,1713027131587
NMEA,$GNVTG,277.5,T,272.4,M,3.1,N,5.8,K,A*36,1713027131587
NMEA,$GNDTM,W84,,0000.000000,N,00000.000000,E,0.000,W84*41,1713027131587
NMEA,$GNRMC,165212.00,A,3210.127122,N,03448.791243,E,3.1,277.5,130424,5.1,E,A,V*57,1713027131587
NMEA,$GNGNS,165212.00,3210.127122,N,03448.791243,E,AAAANN,36,0.4,25.3,19.1,,,V*19,1713027131587
NMEA,$GNGGA,165212.00,3210.127122,N,03448.791243,E,1,12,0.4,25.3,M,19.1,M,,*4F,1713027131587
NMEA,$PSMSG,magcal=PASS,bluesky=0*00,1713027131602
NMEA,$GPGSV,3,1,11,02,34,317,33,03,14,262,24,08,56,243,31,10,31,049,34,1*65,1713027132570
NMEA,$GPGSV,3,2,11,21,51,325,35,27,41,187,34,28,18,126,24,32,55,057,33,1*6A,1713027132570
NMEA,$GPGSV,3,3,11,36,00,000,40,40,00,000,39,49,00,000,35,1*50,1713027132570
NMEA,$GPGSV,2,1,06,03,14,262,22,08,56,243,22,10,31,049,27,27,41,187,22,8*63,1713027132570
NMEA,$GPGSV,2,2,06,28,18,126,16,32,55,057,22,8*69,1713027132570
NMEA,$GLGSV,2,1,07,,00,000,26,70,40,232,26,69,65,009,35,84,73,028,24,1*7B,1713027132570
NMEA,$GLGSV,2,2,07,83,27,131,25,85,22,330,23,68,16,031,22,1*42,1713027132570
NMEA,$GAGSV,2,1,07,04,28,203,25,10,35,319,27,11,10,308,19,12,57,338,29,7*76,1713027132570
NMEA,$GAGSV,2,2,07,19,73,118,25,24,07,259,25,33,51,092,31,7*42,1713027132570
NMEA,$GAGSV,2,1,07,04,28,203,21,10,35,319,23,11,10,308,22,12,57,338,23,1*72,1713027132570
NMEA,$GAGSV,2,2,07,19,73,118,24,24,07,259,18,33,51,092,22,1*49,1713027132570
NMEA,$GBGSV,5,1,17,60,29,116,31,44,15,144,25,43,56,309,36,42,74,280,38,1*70,1713027132570
NMEA,$GBGSV,5,2,17,39,27,063,29,34,68,161,38,33,23,237,33,21,43,037,36,1*70,1713027132570
NMEA,$GBGSV,5,3,17,16,28,072,22,14,49,245,31,13,18,069,24,12,38,144,37,1*78,1713027132570
NMEA,$GBGSV,5,4,17,11,82,298,37,09,31,095,28,06,31,084,25,05,46,138,38,1*78,1713027132570
NMEA,$GBGSV,5,5,17,02,27,112,25,1*42,1713027132570
NMEA,$GBGSV,2,1,07,21,43,037,33,33,23,237,30,34,68,161,34,39,27,063,26,3*72,1713027132570
NMEA,$GBGSV,2,2,07,42,74,280,37,43,56,309,29,44,15,144,21,3*4B,1713027132570
NMEA,$GBGSV,2,1,06,21,43,037,24,33,23,237,25,34,68,161,19,39,27,063,23,5*7D,1713027132570
NMEA,$GBGSV,2,2,06,42,74,280,25,43,56,309,27,5*77,1713027132570
NMEA,$GNGSA,A,3,02,03,08,10,21,27,28,32,,,,,0.6,0.4,0.5,1*33,1713027132583
NMEA,$PSSGR,GSA,A,3,03,08,10,27,32,,,,,,,,0.6,0.4,0.5,1,8*4C,1713027132583
NMEA,$GNGSA,A,3,68,69,70,85,,,,,,,,,0.6,0.4,0.5,2*3E,1713027132583
NMEA,$GNGSA,A,3,04,10,12,19,24,33,,,,,,,0.6,0.4,0.5,3*3C,1713027132583
NMEA,$PSSGR,GSA,A,3,304,310,312,319,333,,,,,,,,0.6,0.4,0.5,3,1*74,1713027132583
NMEA,$GNGSA,A,3,05,06,09,11,12,13,14,16,21,33,34,39,0.6,0.4,0.5,4*34,1713027132583
NMEA,$PSSGR,GSA,A,3,221,234,239,242,243,,,,,,,,0.6,0.4,0.5,4,5*77,1713027132583
NMEA,$GNVTG,302.7,T,297.6,M,3.8,N,6.9,K,A*35,1713027132583
NMEA,$GNDTM,W84,,0000.000000,N,00000.000000,E,0.000,W84*41,1713027132583
NMEA,$GNRMC,165213.00,A,3210.127731,N,03448.790163,E,3.8,302.7,130424,5.1,E,A,V*5A,1713027132583
NMEA,$GNGNS,165213.00,3210.127731,N,03448.790163,E,AAAANN,34,0.4,25.3,19.1,,,V*1E,1713027132583
NMEA,$GNGGA,165213.00,3210.127731,N,03448.790163,E,1,12,0.4,25.3,M,19.1,M,,*4A,1713027132583
NMEA,$PSMSG,magcal=PASS,bluesky=0*00,1713027132589
NMEA,$GPGSV,3,1,11,02,34,317,32,03,14,262,32,08,56,243,35,10,31,049,36,1*65,1713027133570
NMEA,$GPGSV,3,2,11,21,51,325,35,27,41,187,29,28,18,126,26,32,55,057,36,1*61,1713027133570
NMEA,$GPGSV,3,3,11,36,00,000,40,40,00,000,37,49,00,000,40,1*5C,1713027133570
NMEA,$GPGSV,2,1,06,03,14,262,19,08,56,243,24,10,31,049,16,27,41,187,22,8*6F,1713027133570
NMEA,$GPGSV,2,2,06,28,18,126,16,32,55,057,18,8*60,1713027133570
NMEA,$GLGSV,2,1,07,,00,000,30,70,40,232,31,69,65,009,37,84,73,028,24,1*78,1713027133570
NMEA,$GLGSV,2,2,07,83,27,131,23,85,22,330,28,68,16,031,22,1*4F,1713027133570
NMEA,$GAGSV,2,1,06,10,35,319,30,11,10,308,19,12,57,338,29,19,73,118,25,7*7A,1713027133570
NMEA,$GAGSV,2,2,06,24,07,259,25,33,51,092,30,7*71,1713027133570
NMEA,$GAGSV,2,1,07,04,28,203,21,10,35,319,27,11,10,308,22,12,57,338,24,1*71,1713027133570
NMEA,$GAGSV,2,2,07,19,73,118,24,24,07,259,18,33,51,092,20,1*4B,1713027133570
NMEA,$GBGSV,5,1,17,60,29,116,31,44,15,144,25,43,56,309,35,42,74,280,41,1*7D,1713027133570
NMEA,$GBGSV,5,2,17,39,27,063,30,34,68,161,40,33,23,237,36,21,43,037,38,1*7C,1713027133570
NMEA,$GBGSV,5,3,17,16,28,072,24,14,49,245,37,13,18,069,21,12,38,144,39,1*73,1713027133570
NMEA,$GBGSV,5,4,17,11,82,298,37,09,31,095,26,06,31,084,28,05,46,138,39,1*7A,1713027133570
NMEA,$GBGSV,5,5,17,02,27,112,25,1*42,1713027133570
NMEA,$GBGSV,2,1,07,21,43,037,32,33,23,237,33,34,68,161,34,39,27,063,27,3*71,1713027133570
NMEA,$GBGSV,2,2,07,42,74,280,37,43,56,309,32,44,15,144,21,3*41,1713027133570
NMEA,$GBGSV,2,1,06,21,43,037,19,33,23,237,28,34,68,161,22,39,27,063,23,5*76,1713027133570
NMEA,$GBGSV,2,2,06,42,74,280,27,43,56,309,28,5*7A,1713027133570
NMEA,$GNGSA,A,3,02,03,08,10,21,27,28,32,,,,,0.6,0.4,0.5,1*33,1713027133591
NMEA,$PSSGR,GSA,A,3,03,08,10,27,32,,,,,,,,0.6,0.4,0.5,1,8*4C,1713027133591
NMEA,$GNGSA,A,3,68,69,70,85,,,,,,,,,0.6,0.4,0.5,2*3E,1713027133591
NMEA,$GNGSA,A,3,04,10,12,19,24,33,,,,,,,0.6,0.4,0.5,3*3C,1713027133591
NMEA,$PSSGR,GSA,A,3,304,310,312,319,333,,,,,,,,0.6,0.4,0.5,3,1*74,1713027133591
NMEA,$GNGSA,A,3,05,06,09,11,12,13,14,16,21,33,34,39,0.6,0.4,0.5,4*34,1713027133591
NMEA,$PSSGR,GSA,A,3,221,234,239,242,243,,,,,,,,0.6,0.4,0.5,4,5*77,1713027133591
NMEA,$GNVTG,316.3,T,311.2,M,3.2,N,5.9,K,A*36,1713027133591
NMEA,$GNDTM,W84,,0000.000000,N,00000.000000,E,0.000,W84*41,1713027133591
NMEA,$GNRMC,165214.00,A,3210.128608,N,03448.789433,E,3.2,316.3,130424,5.1,E,A,V*5A,1713027133591
NMEA,$GNGNS,165214.00,3210.128608,N,03448.789433,E,AAAANN,34,0.4,24.8,19.1,,,V*1F,1713027133591
NMEA,$GNGGA,165214.00,3210.128608,N,03448.789433,E,1,12,0.4,24.8,M,19.1,M,,*4B,1713027133591
NMEA,$PSMSG,magcal=PASS,bluesky=0*00,1713027133596
NMEA,$GPGSV,3,1,11,02,34,317,36,03,14,262,37,08,56,243,35,10,31,049,36,1*64,1713027134564
NMEA,$GPGSV,3,2,11,21,51,325,38,27,41,187,30,28,18,126,27,32,55,057,36,1*65,1713027134564
NMEA,$GPGSV,3,3,11,36,00,000,40,40,00,000,38,49,00,000,44,1*57,1713027134564
NMEA,$GPGSV,2,1,06,03,14,262,27,08,56,243,33,10,31,049,21,27,41,187,22,8*60,1713027134564
NMEA,$GPGSV,2,2,06,28,18,126,16,32,55,057,23,8*68,1713027134564
NMEA,$GLGSV,2,1,07,,00,000,28,70,40,232,36,69,65,009,39,84,73,028,27,1*7B,1713027134564
NMEA,$GLGSV,2,2,07,83,27,131,28,85,22,330,28,68,16,031,22,1*44,1713027134564
NMEA,$GAGSV,2,1,07,04,28,203,32,10,35,319,33,11,10,308,20,12,57,338,25,7*73,1713027134564
NMEA,$GAGSV,2,2,07,19,73,118,25,24,07,259,23,33,51,092,34,7*41,1713027134564
NMEA,$GAGSV,2,1,07,04,28,203,27,10,35,319,27,11,10,308,22,12,57,338,26,1*75,1713027134564
NMEA,$GAGSV,2,2,07,19,73,118,24,24,07,259,18,33,51,092,25,1*4E,1713027134564
NMEA,$GBGSV,5,1,17,60,29,116,32,44,15,144,22,43,56,309,38,42,74,280,42,1*77,1713027134564
NMEA,$GBGSV,5,2,17,39,27,063,31,34,68,161,40,33,23,237,38,21,43,037,36,1*7D,1713027134564
NMEA,$GBGSV,5,3,17,16,28,072,27,14,49,245,41,13,18,069,27,12,38,144,38,1*76,1713027134564
NMEA,$GBGSV,5,4,17,11,82,298,40,09,31,095,27,06,31,084,29,05,46,138,39,1*7A,1713027134564
NMEA,$GBGSV,5,5,17,02,27,112,25,1*42,1713027134564
NMEA,$GBGSV,2,1,07,21,43,037,33,33,23,237,35,34,68,161,36,39,27,063,29,3*7A,1713027134564
NMEA,$GBGSV,2,2,07,42,74,280,40,43,56,309,35,44,15,144,21,3*46,1713027134564
NMEA,$GBGSV,2,1,06,21,43,037,25,33,23,237,32,34,68,161,24,39,27,063,23,5*74,1713027134564
NMEA,$GBGSV,2,2,06,42,74,280,31,43,56,309,30,5*74,1713027134564
NMEA,$GNGSA,A,3,02,03,08,10,21,27,28,32,,,,,0.6,0.4,0.5,1*33,1713027134576
NMEA,$PSSGR,GSA,A,3,03,08,10,27,32,,,,,,,,0.6,0.4,0.5,1,8*4C,1713027134576
NMEA,$GNGSA,A,3,68,69,70,83,84,85,,,,,,,0.6,0.4,0.5,2*39,1713027134576
NMEA,$GNGSA,A,3,04,10,12,19,24,33,,,,,,,0.6,0.4,0.5,3*3C,1713027134576
NMEA,$PSSGR,GSA,A,3,304,310,312,319,333,,,,,,,,0.6,0.4,0.5,3,1*74,1713027134576
NMEA,$GNGSA,A,3,05,06,09,11,12,13,14,16,21,33,34,39,0.6,0.4,0.5,4*34,1713027134576
NMEA,$PSSGR,GSA,A,3,221,234,239,242,243,,,,,,,,0.6,0.4,0.5,4,5*77,1713027134576
NMEA,$GNVTG,295.6,T,290.5,M,3.7,N,6.8,K,A*31,1713027134576
NMEA,$GNDTM,W84,,0000.000000,N,00000.000000,E,0.000,W84*41,1713027134576
NMEA,$GNRMC,165215.00,A,3210.128934,N,03448.788378,E,3.7,295.6,130424,5.1,E,A,V*58,1713027134576
NMEA,$GNGNS,165215.00,3210.128934,N,03448.788378,E,AAAANN,36,0.4,25.1,19.1,,,V*1D,1713027134576
NMEA,$GNGGA,165215.00,3210.128934,N,03448.788378,E,1,12,0.4,25.1,M,19.1,M,,*4B,1713027134576
NMEA,$PSMSG,magcal=PASS,bluesky=0*00,1713027134596
NMEA,$GPGSV,3,1,11,02,34,317,33,03,14,262,40,08,56,243,36,10,31,049,32,1*66,1713027135566
NMEA,$GPGSV,3,2,11,21,51,325,33,27,41,187,29,28,18,126,30,32,55,057,38,1*6E,1713027135566
NMEA,$GPGSV,3,3,11,36,00,000,40,40,00,000,37,49,00,000,44,1*58,1713027135566
NMEA,$GPGSV,2,1,06,03,14,262,26,08,56,243,32,10,31,049,21,27,41,187,22,8*60,1713027135566
NMEA,$GPGSV,2,2,06,28,18,126,16,32,55,057,25,8*6E,1713027135566
NMEA,$GLGSV,2,1,07,,00,000,29,70,40,232,34,69,65,009,36,84,73,028,26,1*76,1713027135566
NMEA,$GLGSV,2,2,07,83,27,131,27,85,22,330,28,68,16,031,22,1*4B,1713027135566
NMEA,$GAGSV,2,1,07,04,28,203,31,10,35,319,27,11,10,308,20,12,57,338,27,7*77,1713027135566
NMEA,$GAGSV,2,2,07,19,73,118,24,24,07,259,21,33,51,092,34,7*42,1713027135566
NMEA,$GAGSV,2,1,07,04,28,203,24,10,35,319,23,11,10,308,22,12,57,338,25,1*71,1713027135566
NMEA,$GAGSV,2,2,07,19,73,118,19,24,07,259,18,33,51,092,23,1*46,1713027135566
NMEA,$GBGSV,5,1,17,60,29,116,35,44,15,144,25,43,56,309,38,42,74,280,43,1*76,1713027135566
NMEA,$GBGSV,5,2,17,39,27,063,31,34,68,161,37,33,23,237,34,21,43,037,35,1*72,1713027135566
NMEA,$GBGSV,5,3,17,16,28,072,29,14,49,245,38,13,18,069,24,12,38,144,32,1*7F,1713027135566
NMEA,$GBGSV,5,4,17,11,82,298,39,09,31,095,29,06,31,084,29,05,46,138,37,1*74,1713027135566
NMEA,$GBGSV,5,5,17,02,27,112,27,1*40,1713027135566
NMEA,$GBGSV,2,1,07,21,43,037,31,33,23,237,33,34,68,161,33,39,27,063,27,3*75,1713027135566
NMEA,$GBGSV,2,2,07,42,74,280,39,43,56,309,35,44,15,144,17,3*4D,1713027135566
NMEA,$GBGSV,2,1,06,21,43,037,23,33,23,237,32,34,68,161,26,39,27,063,23,5*70,1713027135566
NMEA,$GBGSV,2,2,06,42,74,280,28,43,56,309,28,5*75,1713027135566
NMEA,$GNGSA,A,3,02,03,08,10,21,27,28,32,,,,,0.6,0.4,0.5,1*33,1713027135581
NMEA,$PSSGR,GSA,A,3,03,08,10,27,32,,,,,,,,0.6,0.4,0.5,1,8*4C,1713027135581
NMEA,$GNGSA,A,3,68,69,70,83,84,85,,,,,,,0.6,0.4,0.5,2*39,1713027135581
NMEA,$GNGSA,A,3,04,10,12,19,24,33,,,,,,,0.6,0.4,0.5,3*3C,1713027135581
NMEA,$PSSGR,GSA,A,3,304,310,312,319,333,,,,,,,,0.6,0.4,0.5,3,1*74,1713027135581
NMEA,$GNGSA,A,3,05,06,09,11,12,13,14,16,21,33,34,39,0.6,0.4,0.5,4*34,1713027135581
NMEA,$PSSGR,GSA,A,3,221,234,239,242,243,,,,,,,,0.6,0.4,0.5,4,5*77,1713027135581
NMEA,$GNVTG,285.2,T,280.1,M,3.2,N,5.9,K,A*36,1713027135581
NMEA,$GNDTM,W84,,0000.000000,N,00000.000000,E,0.000,W84*41,1713027135581
NMEA,$GNRMC,165216.00,A,3210.128925,N,03448.787261,E,3.2,285.2,130424,5.1,E,A,V*5D,1713027135581
NMEA,$GNGNS,165216.00,3210.128925,N,03448.787261,E,AAAANN,36,0.4,25.0,19.1,,,V*19,1713027135581
NMEA,$GNGGA,165216.00,3210.128925,N,03448.787261,E,1,12,0.4,25.0,M,19.1,M,,*4F,1713027135581
NMEA,$PSMSG,magcal=PASS,bluesky=0*00,1713027135589
NMEA,$GPGSV,3,1,11,02,34,317,33,03,14,262,40,08,56,243,38,10,31,049,31,1*6B,1713027136570
NMEA,$GPGSV,3,2,11,21,51,325,33,27,41,187,31,28,18,126,33,32,55,057,36,1*6A,1713027136570
NMEA,$GPGSV,3,3,11,36,00,000,40,40,00,000,33,49,00,000,43,1*5B,1713027136570
NMEA,$GPGSV,2,1,06,03,14,262,33,08,56,243,34,10,31,049,23,27,41,187,30,8*63,1713027136570
NMEA,$GPGSV,2,2,06,28,18,126,22,32,55,057,25,8*69,1713027136570
NMEA,$GLGSV,2,1,07,,00,000,31,70,40,232,36,69,65,009,35,84,73,028,25,1*7D,1713027136570
NMEA,$GLGSV,2,2,07,83,27,131,27,85,22,330,31,68,16,031,20,1*41,1713027136570
NMEA,$GAGSV,2,1,07,04,28,203,35,10,35,319,25,11,10,308,22,12,57,338,25,7*71,1713027136570
NMEA,$GAGSV,2,2,07,19,73,118,28,24,07,259,31,33,51,092,36,7*4D,1713027136570
NMEA,$GAGSV,2,1,07,04,28,203,27,10,35,319,22,11,10,308,22,12,57,338,27,1*71,1713027136570
NMEA,$GAGSV,2,2,07,19,73,118,19,24,07,259,18,33,51,092,27,1*42,1713027136570
NMEA,$GBGSV,5,1,17,60,29,116,36,44,15,144,24,43,56,309,35,42,74,280,41,1*7B,1713027136570
NMEA,$GBGSV,5,2,17,39,27,063,30,34,68,161,39,33,23,237,36,21,43,037,34,1*7E,1713027136570
NMEA,$GBGSV,5,3,17,16,28,072,25,14,49,245,40,13,18,069,25,12,38,144,28,1*76,1713027136570
NMEA,$GBGSV,5,4,17,11,82,298,39,09,31,095,29,06,31,084,26,05,46,138,33,1*7F,1713027136570
NMEA,$GBGSV,5,5,17,02,27,112,27,1*40,1713027136570
NMEA,$GBGSV,2,1,07,21,43,037,31,33,23,237,36,34,68,161,36,39,27,063,28,3*7A,1713027136570
NMEA,$GBGSV,2,2,07,42,74,280,41,43,56,309,35,44,15,144,25,3*43,1713027136570
NMEA,$GBGSV,2,1,06,21,43,037,24,33,23,237,32,34,68,161,28,39,27,063,23,5*79,1713027136570
NMEA,$GBGSV,2,2,06,42,74,280,31,43,56,309,31,5*75,1713027136570
NMEA,$GNGSA,A,3,02,03,08,10,21,27,28,32,,,,,0.6,0.4,0.5,1*33,1713027136585
NMEA,$PSSGR,GSA,A,3,03,08,10,27,28,32,,,,,,,0.6,0.4,0.5,1,8*46,1713027136585
NMEA,$GNGSA,A,3,68,69,70,83,84,85,,,,,,,0.6,0.4,0.5,2*39,1713027136585
NMEA,$GNGSA,A,3,04,10,12,19,24,33,,,,,,,0.6,0.4,0.5,3*3C,1713027136585
NMEA,$PSSGR,GSA,A,3,304,310,312,333,,,,,,,,,0.6,0.4,0.5,3,1*4F,1713027136585
NMEA,$GNGSA,A,3,05,06,09,11,12,13,14,16,21,33,34,39,0.6,0.4,0.5,4*34,1713027136585
NMEA,$PSSGR,GSA,A,3,221,234,242,243,,,,,,,,,0.6,0.4,0.5,4,5*4F,1713027136585
NMEA,$GNVTG,281.2,T,276.1,M,3.1,N,5.7,K,A*36,1713027136585
NMEA,$GNDTM,W84,,0000.000000,N,00000.000000,E,0.000,W84*41,1713027136585
NMEA,$GNRMC,165217.00,A,3210.128821,N,03448.786272,E,3.1,281.2,130424,5.1,E,A,V*5D,1713027136585
NMEA,$GNGNS,165217.00,3210.128821,N,03448.786272,E,AAAANN,35,0.4,24.4,19.1,,,V*18,1713027136585
NMEA,$GNGGA,165217.00,3210.128821,N,03448.786272,E,1,12,0.4,24.4,M,19.1,M,,*4D,1713027136585
NMEA,$PSMSG,magcal=PASS,bluesky=0*00,1713027136592
NMEA,$GPGSV,3,1,11,02,34,317,33,03,14,262,42,08,56,243,43,10,31,049,30,1*64,1713027137563
NMEA,$GPGSV,3,2,11,21,51,325,31,27,41,187,39,28,18,126,38,32,55,057,35,1*68,1713027137563
NMEA,$GPGSV,3,3,11,36,00,000,40,40,00,000,33,49,00,000,42,1*5A,1713027137563
NMEA,$GPGSV,2,1,06,03,14,262,27,08,56,243,31,10,31,049,23,27,41,187,32,8*61,1713027137563
NMEA,$GPGSV,2,2,06,28,18,126,28,32,55,057,22,8*64,1713027137563
NMEA,$GLGSV,2,1,07,,00,000,31,70,40,232,35,69,65,009,36,84,73,028,24,1*7C,1713027137563
NMEA,$GLGSV,2,2,07,83,27,131,27,85,22,330,33,68,16,031,20,1*43,1713027137563
NMEA,$GAGSV,2,1,07,04,28,203,35,10,35,319,28,11,10,308,22,12,57,338,26,7*7F,1713027137563
NMEA,$GAGSV,2,2,07,19,73,118,30,24,07,259,33,33,51,092,34,7*44,1713027137563
NMEA,$GAGSV,2,1,07,04,28,203,29,10,35,319,22,11,10,308,22,12,57,338,27,1*7F,1713027137563
NMEA,$GAGSV,2,2,07,19,73,118,19,24,07,259,15,33,51,092,29,1*41,1713027137563
NMEA,$GBGSV,5,1,17,60,29,116,37,44,15,144,25,43,56,309,39,42,74,280,35,1*74,1713027137563
NMEA,$GBGSV,5,2,17,39,27,063,30,34,68,161,42,33,23,237,40,21,43,037,31,1*76,1713027137563
NMEA,$GBGSV,5,3,17,16,28,072,29,14,49,245,44,13,18,069,25,12,38,144,35,1*72,1713027137563
NMEA,$GBGSV,5,4,17,11,82,298,39,09,31,095,34,06,31,084,32,05,46,138,35,1*70,1713027137563
NMEA,$GBGSV,5,5,17,02,27,112,32,1*44,1713027137563
NMEA,$GBGSV,2,1,07,21,43,037,26,33,23,237,37,34,68,161,39,39,27,063,26,3*7C,1713027137563
NMEA,$GBGSV,2,2,07,42,74,280,37,43,56,309,34,44,15,144,22,3*44,1713027137563
NMEA,$GBGSV,2,1,06,21,43,037,23,33,23,237,27,34,68,161,25,39,27,063,23,5*77,1713027137563
NMEA,$GBGSV,2,2,06,42,74,280,33,43,56,309,30,5*76,1713027137563
NMEA,$GNGSA,A,3,02,03,08,10,21,27,28,32,,,,,0.6,0.4,0.5,1*33,1713027137581
NMEA,$PSSGR,GSA,A,3,03,08,10,27,28,32,,,,,,,0.6,0.4,0.5,1,8*46,1713027137581
NMEA,$GNGSA,A,3,68,69,70,83,84,85,,,,,,,0.6,0.4,0.5,2*39,1713027137581
NMEA,$GNGSA,A,3,04,10,12,19,24,33,,,,,,,0.6,0.4,0.5,3*3C,1713027137581
NMEA,$PSSGR,GSA,A,3,304,310,312,319,333,,,,,,,,0.6,0.4,0.5,3,1*74,1713027137581
NMEA,$GNGSA,A,3,05,06,09,11,12,13,14,16,21,33,34,39,0.6,0.4,0.5,4*34,1713027137581
NMEA,$PSSGR,GSA,A,3,221,234,242,243,,,,,,,,,0.6,0.4,0.5,4,5*4F,1713027137581
NMEA,$GNVTG,257.6,T,252.5,M,3.3,N,6.1,K,A*3C,1713027137581
NMEA,$GNDTM,W84,,0000.000000,N,00000.000000,E,0.000,W84*41,1713027137581
NMEA,$GNRMC,165218.00,A,3210.128259,N,03448.785209,E,3.3,257.6,130424,5.1,E,A,V*55,1713027137581
NMEA,$GNGNS,165218.00,3210.128259,N,03448.785209,E,AAAANN,35,0.4,25.5,19.1,,,V*1D,1713027137581
NMEA,$GNGGA,165218.00,3210.128259,N,03448.785209,E,1,12,0.4,25.5,M,19.1,M,,*48,1713027137581
NMEA,$PSMSG,magcal=PASS,bluesky=0*00,1713027137597
NMEA,$GPGSV,3,1,11,02,34,317,32,03,14,262,36,08,56,243,43,10,31,049,32,1*64,1713027138582
NMEA,$GPGSV,3,2,11,21,51,325,37,27,41,187,43,28,18,126,39,32,55,057,40,1*60,1713027138582
NMEA,$GPGSV,3,3,11,36,00,000,40,40,00,000,33,49,00,000,38,1*57,1713027138582
NMEA,$GPGSV,2,1,06,03,14,262,29,08,56,243,28,10,31,049,20,27,41,187,33,8*65,1713027138582
NMEA,$GPGSV,2,2,06,28,18,126,25,32,55,057,25,8*6E,1713027138582
NMEA,$GLGSV,2,1,07,,00,000,29,70,40,232,24,69,65,009,34,84,73,028,24,1*77,1713027138582
NMEA,$GLGSV,2,2,07,83,27,131,27,85,22,330,29,68,16,031,24,1*4C,1713027138582
NMEA,$GAGSV,2,1,07,04,28,203,31,10,35,319,22,11,10,308,22,12,57,338,33,7*75,1713027138582
NMEA,$GAGSV,2,2,07,19,73,118,34,24,07,259,28,33,51,092,36,7*48,1713027138582
NMEA,$GAGSV,2,1,07,04,28,203,26,10,35,319,22,11,10,308,22,12,57,338,22,1*75,1713027138582
NMEA,$GAGSV,2,2,07,19,73,118,19,24,07,259,24,33,51,092,29,1*43,1713027138582
NMEA,$GBGSV,5,1,17,60,29,116,38,44,15,144,25,43,56,309,39,42,74,280,38,1*76,1713027138582
NMEA,$GBGSV,5,2,17,39,27,063,32,34,68,161,40,33,23,237,39,21,43,037,33,1*7A,1713027138582
NMEA,$GBGSV,5,3,17,16,28,072,34,14,49,245,42,13,18,069,30,12,38,144,35,1*7C,1713027138582
NMEA,$GBGSV,5,4,17,11,82,298,37,09,31,095,38,06,31,084,37,05,46,138,35,1*77,1713027138582
NMEA,$GBGSV,5,5,17,02,27,112,35,1*43,1713027138582
NMEA,$GBGSV,2,1,07,21,43,037,29,33,23,237,36,34,68,161,39,39,27,063,29,3*7D,1713027138582
NMEA,$GBGSV,2,2,07,42,74,280,36,43,56,309,34,44,15,144,21,3*46,1713027138582
NMEA,$GBGSV,2,1,06,21,43,037,23,33,23,237,33,34,68,161,27,39,27,063,15,5*75,1713027138582
NMEA,$GBGSV,2,2,06,42,74,280,32,43,56,309,27,5*71,1713027138582
NMEA,$GNGSA,A,3,02,03,08,10,21,27,28,32,,,,,0.6,0.4,0.5,1*33,1713027138602
NMEA,$PSSGR,GSA,A,3,03,08,10,27,28,32,,,,,,,0.6,0.4,0.5,1,8*46,1713027138602
NMEA,$GNGSA,A,3,69,70,83,84,85,,,,,,,,0.6,0.4,0.5,2*37,1713027138602
NMEA,$GNGSA,A,3,04,10,12,19,24,33,,,,,,,0.6,0.4,0.5,3*3C,1713027138602
NMEA,$PSSGR,GSA,A,3,304,310,312,319,324,333,,,,,,,0.6,0.4,0.5,3,1*41,1713027138602
NMEA,$GNGSA,A,3,05,06,09,11,12,13,14,16,21,33,34,39,0.6,0.4,0.5,4*34,1713027138602
NMEA,$PSSGR,GSA,A,3,221,234,242,243,,,,,,,,,0.6,0.4,0.5,4,5*4F,1713027138602
NMEA,$GNVTG,229.5,T,224.4,M,2.9,N,5.4,K,A*3B,1713027138602
NMEA,$GNDTM,W84,,0000.000000,N,00000.000000,E,0.000,W84*41,1713027138602
NMEA,$GNRMC,165219.00,A,3210.127374,N,03448.784564,E,2.9,229.5,130424,5.1,E,A,V*59,1713027138602
NMEA,$GNGNS,165219.00,3210.127374,N,03448.784564,E,AAAANN,34,0.4,25.3,19.1,,,V*17,1713027138602
NMEA,$GNGGA,165219.00,3210.127374,N,03448.784564,E,1,12,0.4,25.3,M,19.1,M,,*43,1713027138602
NMEA,$PSMSG,magcal=PASS,bluesky=0*00,1713027138606
NMEA,$GPGSV,3,1,11,02,34,317,30,03,14,262,30,08,56,243,43,10,31,049,29,1*6A,1713027139564
NMEA,$GPGSV,3,2,11,21,51,325,35,27,41,187,38,28,18,126,38,32,55,057,37,1*6F,1713027139564
NMEA,$GPGSV,3,3,11,36,00,000,40,40,00,000,33,49,00,000,38,1*57,1713027139564
NMEA,$GPGSV,2,1,06,03,14,262,25,08,56,243,30,10,31,049,20,27,41,187,27,8*65,1713027139564
NMEA,$GPGSV,2,2,06,28,18,126,28,32,55,057,22,8*64,1713027139564
NMEA,$GLGSV,2,1,07,,00,000,26,70,40,232,29,69,65,009,37,84,73,028,24,1*76,1713027139564
NMEA,$GLGSV,2,2,07,83,27,131,27,85,22,330,28,68,16,031,24,1*4D,1713027139564
NMEA,$GAGSV,2,1,07,04,28,203,25,10,35,319,22,11,10,308,17,12,57,338,30,7*75,1713027139564
NMEA,$GAGSV,2,2,07,19,73,118,30,24,07,259,21,33,51,092,33,7*40,1713027139564
NMEA,$GAGSV,2,1,07,04,28,203,23,10,35,319,22,11,10,308,22,12,57,338,21,1*73,1713027139564
NMEA,$GAGSV,2,2,07,19,73,118,19,24,07,259,20,33,51,092,26,1*48,1713027139564
NMEA,$GBGSV,5,1,17,60,29,116,38,44,15,144,24,43,56,309,38,42,74,280,38,1*76,1713027139564
NMEA,$GBGSV,5,2,17,39,27,063,27,34,68,161,40,33,23,237,39,21,43,037,31,1*7C,1713027139564
NMEA,$GBGSV,5,3,17,16,28,072,27,14,49,245,41,13,18,069,25,12,38,144,33,1*7F,1713027139564
NMEA,$GBGSV,5,4,17,11,82,298,36,09,31,095,35,06,31,084,34,05,46,138,35,1*78,1713027139564
NMEA,$GBGSV,5,5,17,02,27,112,35,1*43,1713027139564
NMEA,$GBGSV,2,1,07,21,43,037,27,33,23,237,37,34,68,161,39,39,27,063,23,3*78,1713027139564
NMEA,$GBGSV,2,2,07,42,74,280,34,43,56,309,33,44,15,144,21,3*43,1713027139564
NMEA,$GBGSV,2,1,06,21,43,037,21,33,23,237,31,34,68,161,21,39,27,063,15,5*73,1713027139564
NMEA,$GBGSV,2,2,06,42,74,280,30,43,56,309,25,5*71,1713027139564
NMEA,$GNGSA,A,3,02,03,08,10,21,27,28,32,,,,,0.6,0.4,0.5,1*33,1713027139582
NMEA,$PSSGR,GSA,A,3,03,08,10,27,28,32,,,,,,,0.6,0.4,0.5,1,8*46,1713027139582
NMEA,$GNGSA,A,3,69,70,83,84,85,,,,,,,,0.6,0.4,0.5,2*37,1713027139582
NMEA,$GNGSA,A,3,04,10,12,19,24,33,,,,,,,0.6,0.4,0.5,3*3C,1713027139582
NMEA,$PSSGR,GSA,A,3,304,310,312,319,324,333,,,,,,,0.6,0.4,0.5,3,1*41,1713027139582
NMEA,$GNGSA,A,3,05,06,09,11,12,13,14,16,21,33,34,39,0.6,0.4,0.5,4*34,1713027139582
NMEA,$PSSGR,GSA,A,3,221,234,242,243,,,,,,,,,0.6,0.4,0.5,4,5*4F,1713027139582
NMEA,$GNVTG,247.7,T,242.6,M,3.1,N,5.8,K,A*36,1713027139582
NMEA,$GNDTM,W84,,0000.000000,N,00000.000000,E,0.000,W84*41,1713027139582
NMEA,$GNRMC,165220.00,A,3210.126821,N,03448.783665,E,3.1,247.7,130424,5.1,E,A,V*5F,1713027139582
NMEA,$GNGNS,165220.00,3210.126821,N,03448.783665,E,AAAANN,34,0.4,25.7,19.1,,,V*16,1713027139582
NMEA,$GNGGA,165220.00,3210.126821,N,03448.783665,E,1,12,0.4,25.7,M,19.1,M,,*42,1713027139582
NMEA,$PSMSG,magcal=PASS,bluesky=0*00,1713027139595
NMEA,$GPGSV,3,1,11,02,34,317,27,03,14,262,31,08,56,243,41,10,31,049,29,1*6F,1713027140567
NMEA,$GPGSV,3,2,11,21,51,325,35,27,41,187,36,28,18,126,31,32,55,057,35,1*6A,1713027140567
NMEA,$GPGSV,3,3,11,36,00,000,40,40,00,000,35,49,00,000,38,1*51,1713027140567
NMEA,$GPGSV,2,1,06,03,14,262,24,08,56,243,31,10,31,049,20,27,41,187,29,8*6B,1713027140567
NMEA,$GPGSV,2,2,06,28,18,126,25,32,55,057,22,8*69,1713027140567
NMEA,$GLGSV,2,1,07,,00,000,23,70,40,232,26,69,65,009,37,84,73,028,24,1*7C,1713027140567
NMEA,$GLGSV,2,2,07,83,27,131,24,85,22,330,28,68,16,031,21,1*4B,1713027140567
NMEA,$GAGSV,2,1,07,04,28,203,23,10,35,319,21,11,10,308,17,12,57,338,29,7*78,1713027140567
NMEA,$GAGSV,2,2,07,19,73,118,27,24,07,259,23,33,51,092,33,7*44,1713027140567
NMEA,$GAGSV,2,1,07,04,28,203,21,10,35,319,22,11,10,308,22,12,57,338,23,1*73,1713027140567
NMEA,$GAGSV,2,2,07,19,73,118,18,24,07,259,20,33,51,092,25,1*4A,1713027140567
NMEA,$GBGSV,5,1,17,60,29,116,31,44,15,144,24,43,56,309,33,42,74,280,37,1*7B,1713027140567
NMEA,$GBGSV,5,2,17,39,27,063,26,34,68,161,38,33,23,237,37,21,43,037,32,1*7F,1713027140567
NMEA,$GBGSV,5,3,17,16,28,072,24,14,49,245,41,13,18,069,25,12,38,144,36,1*79,1713027140567
NMEA,$GBGSV,5,4,17,11,82,298,38,09,31,095,29,06,31,084,26,05,46,138,28,1*74,1713027140567
NMEA,$GBGSV,5,5,17,02,27,112,35,1*43,1713027140567
NMEA,$GBGSV,2,1,07,21,43,037,29,33,23,237,35,34,68,161,37,39,27,063,23,3*7A,1713027140567
NMEA,$GBGSV,2,2,07,42,74,280,36,43,56,309,32,44,15,144,21,3*40,1713027140567
NMEA,$GBGSV,2,1,06,21,43,037,21,33,23,237,30,34,68,161,23,39,27,063,15,5*70,1713027140567
NMEA,$GBGSV,2,2,06,42,74,280,28,43,56,309,24,5*79,1713027140567
NMEA,$GNGSA,A,3,02,03,08,10,21,27,28,32,,,,,0.6,0.4,0.5,1*33,1713027140582
NMEA,$PSSGR,GSA,A,3,03,08,10,27,28,32,,,,,,,0.6,0.4,0.5,1,8*46,1713027140582
NMEA,$GNGSA,A,3,69,70,83,84,85,,,,,,,,0.6,0.4,0.5,2*37,1713027140582
NMEA,$GNGSA,A,3,04,10,12,19,24,33,,,,,,,0.6,0.4,0.5,3*3C,1713027140582
NMEA,$PSSGR,GSA,A,3,304,310,312,319,324,333,,,,,,,0.6,0.4,0.5,3,1*41,1713027140582
NMEA,$GNGSA,A,3,05,06,09,11,12,13,14,16,21,33,34,39,0.6,0.4,0.5,4*34,1713027140582
NMEA,$PSSGR,GSA,A,3,221,234,242,243,,,,,,,,,0.6,0.4,0.5,4,5*4F,1713027140582
NMEA,$GNVTG,247.4,T,242.3,M,2.9,N,5.4,K,A*35,1713027140582
NMEA,$GNDTM,W84,,0000.000000,N,00000.000000,E,0.000,W84*41,1713027140582
NMEA,$GNRMC,165221.00,A,3210.126460,N,03448.782808,E,2.9,247.4,130424,5.1,E,A,V*59,1713027140582
NMEA,$GNGNS,165221.00,3210.126460,N,03448.782808,E,AAAANN,34,0.4,25.9,19.1,,,V*14,1713027140582
NMEA,$GNGGA,165221.00,3210.126460,N,03448.782808,E,1,12,0.4,25.9,M,19.1,M,,*40,1713027140582
NMEA,$PSMSG,magcal=PASS,bluesky=0*00,1713027140586
NMEA,$GPGSV,3,1,11,02,34,317,23,03,14,262,31,08,56,243,43,10,31,049,27,1*67,1713027141566
NMEA,$GPGSV,3,2,11,21,51,325,29,27,41,187,36,28,18,126,30,32,55,057,35,1*66,1713027141566
NMEA,$GPGSV,3,3,11,36,00,000,40,40,00,000,35,49,00,000,39,1*50,1713027141566
NMEA,$GPGSV,2,1,06,03,14,262,24,08,56,243,31,10,31,049,20,27,41,187,29,8*6B,1713027141566
NMEA,$GPGSV,2,2,06,28,18,126,27,32,55,057,22,8*6B,1713027141566
NMEA,$GLGSV,2,1,07,,00,000,23,70,40,232,29,69,65,009,36,84,73,028,24,1*72,1713027141566
NMEA,$GLGSV,2,2,07,83,27,131,24,85,22,330,22,68,16,031,21,1*41,1713027141566
NMEA,$GAGSV,2,1,07,04,28,203,23,10,35,319,21,11,10,308,17,12,57,338,23,7*72,1713027141566
NMEA,$GAGSV,2,2,07,19,73,118,26,24,07,259,27,33,51,092,34,7*46,1713027141566
NMEA,$GAGSV,2,1,07,04,28,203,21,10,35,319,22,11,10,308,22,12,57,338,23,1*73,1713027141566
NMEA,$GAGSV,2,2,07,19,73,118,18,24,07,259,20,33,51,092,27,1*48,1713027141566
NMEA,$GBGSV,5,1,17,60,29,116,31,44,15,144,24,43,56,309,30,42,74,280,38,1*77,1713027141566
NMEA,$GBGSV,5,2,17,39,27,063,26,34,68,161,40,33,23,237,34,21,43,037,36,1*77,1713027141566
NMEA,$GBGSV,5,3,17,16,28,072,24,14,49,245,43,13,18,069,25,12,38,144,33,1*7E,1713027141566
NMEA,$GBGSV,5,4,17,11,82,298,37,09,31,095,28,06,31,084,26,05,46,138,32,1*71,1713027141566
NMEA,$GBGSV,5,5,17,02,27,112,28,1*4F,1713027141566
NMEA,$GBGSV,2,1,07,21,43,037,33,33,23,237,31,34,68,161,39,39,27,063,23,3*7B,1713027141566
NMEA,$GBGSV,2,2,07,42,74,280,37,43,56,309,25,44,15,144,21,3*47,1713027141566
NMEA,$GBGSV,2,1,06,21,43,037,21,33,23,237,26,34,68,161,21,39,27,063,15,5*75,1713027141566
NMEA,$GBGSV,2,2,06,42,74,280,29,43,56,309,25,5*79,1713027141566
NMEA,$GNGSA,A,3,02,03,08,10,21,27,28,32,,,,,0.6,0.4,0.5,1*33,1713027141580
NMEA,$PSSGR,GSA,A,3,03,08,10,27,28,32,,,,,,,0.6,0.4,0.5,1,8*46,1713027141580
NMEA,$GNGSA,A,3,69,70,83,84,85,,,,,,,,0.6,0.4,0.5,2*37,1713027141580
NMEA,$GNGSA,A,3,04,10,12,19,24,33,,,,,,,0.6,0.4,0.5,3*3C,1713027141580
NMEA,$PSSGR,GSA,A,3,304,310,312,319,324,333,,,,,,,0.6,0.4,0.5,3,1*41,1713027141580
NMEA,$GNGSA,A,3,05,06,09,11,12,13,14,16,21,33,34,39,0.6,0.4,0.5,4*34,1713027141580
NMEA,$PSSGR,GSA,A,3,221,234,242,243,,,,,,,,,0.6,0.4,0.5,4,5*4F,1713027141580
NMEA,$GNVTG,270.0,T,264.9,M,3.2,N,5.9,K,A*3C,1713027141580
NMEA,$GNDTM,W84,,0000.000000,N,00000.000000,E,0.000,W84*41,1713027141580
NMEA,$GNRMC,165222.00,A,3210.126579,N,03448.781801,E,3.2,270.0,130424,5.1,E,A,V*53,1713027141580
NMEA,$GNGNS,165222.00,3210.126579,N,03448.781801,E,AAAANN,34,0.4,26.1,19.1,,,V*1F,1713027141580
NMEA,$GNGGA,165222.00,3210.126579,N,03448.781801,E,1,12,0.4,26.1,M,19.1,M,,*4B,1713027141580
NMEA,$PSMSG,magcal=PASS,bluesky=0*00,1713027141586
NMEA,$GPGSV,3,1,11,02,34,317,29,03,14,262,28,08,56,243,41,10,31,049,27,1*67,1713027142562
NMEA,$GPGSV,3,2,11,21,51,325,27,27,41,187,35,28,18,126,35,32,55,057,34,1*6F,1713027142562
NMEA,$GPGSV,3,3,11,36,00,000,40,40,00,000,39,49,00,000,42,1*50,1713027142562
NMEA,$GPGSV,2,1,06,03,14,262,21,08,56,243,32,10,31,049,20,27,41,187,25,8*61,1713027142562
NMEA,$GPGSV,2,2,06,28,18,126,24,32,55,057,21,8*6B,1713027142562
NMEA,$GLGSV,2,1,07,,00,000,23,70,40,232,31,69,65,009,32,84,73,028,18,1*70,1713027142562
NMEA,$GLGSV,2,2,07,83,27,131,21,85,22,330,24,68,16,031,21,1*42,1713027142562
NMEA,$GAGSV,2,1,07,04,28,203,26,10,35,319,19,11,10,308,19,12,57,338,23,7*72,1713027142562
NMEA,$GAGSV,2,2,07,19,73,118,26,24,07,259,24,33,51,092,33,7*42,1713027142562
NMEA,$GAGSV,2,1,07,04,28,203,20,10,35,319,22,11,10,308,12,12,57,338,23,1*71,1713027142562
NMEA,$GAGSV,2,2,07,19,73,118,18,24,07,259,20,33,51,092,24,1*4B,1713027142562
NMEA,$GBGSV,5,1,17,60,29,116,32,44,15,144,24,43,56,309,30,42,74,280,38,1*74,1713027142562
NMEA,$GBGSV,5,2,17,39,27,063,23,34,68,161,42,33,23,237,32,21,43,037,33,1*73,1713027142562
NMEA,$GBGSV,5,3,17,16,28,072,24,14,49,245,39,13,18,069,21,12,38,144,36,1*72,1713027142562
NMEA,$GBGSV,5,4,17,11,82,298,38,09,31,095,30,06,31,084,22,05,46,138,36,1*77,1713027142562
NMEA,$GBGSV,5,5,17,02,27,112,28,1*4F,1713027142562
NMEA,$GBGSV,2,1,07,21,43,037,30,33,23,237,28,34,68,161,38,39,27,063,19,3*78,1713027142562
NMEA,$GBGSV,2,2,07,42,74,280,35,43,56,309,26,44,15,144,21,3*46,1713027142562
NMEA,$GBGSV,2,1,06,21,43,037,21,33,23,237,26,34,68,161,24,39,27,063,15,5*70,1713027142562
NMEA,$GBGSV,2,2,06,42,74,280,30,43,56,309,25,5*71,1713027142562
NMEA,$GNGSA,A,3,02,03,08,10,21,27,28,32,,,,,0.6,0.4,0.5,1*33,1713027142575
NMEA,$PSSGR,GSA,A,3,03,08,10,27,28,32,,,,,,,0.6,0.4,0.5,1,8*46,1713027142575
NMEA,$GNGSA,A,3,69,70,83,85,,,,,,,,,0.6,0.4,0.5,2*3B,1713027142575
NMEA,$GNGSA,A,3,04,10,12,19,24,33,,,,,,,0.6,0.4,0.5,3*3C,1713027142575
NMEA,$PSSGR,GSA,A,3,304,310,312,319,324,333,,,,,,,0.6,0.4,0.5,3,1*41,1713027142575
NMEA,$GNGSA,A,3,05,06,09,11,12,13,14,16,21,33,34,39,0.6,0.4,0.5,4*34,1713027142575
NMEA,$PSSGR,GSA,A,3,221,234,242,243,,,,,,,,,0.6,0.4,0.5,4,5*4F,1713027142575
NMEA,$GNVTG,263.0,T,257.9,M,2.9,N,5.4,K,A*39,1713027142575
NMEA,$GNDTM,W84,,0000.000000,N,00000.000000,E,0.000,W84*41,1713027142575
NMEA,$GNRMC,165223.00,A,3210.126545,N,03448.780865,E,2.9,263.0,130424,5.1,E,A,V*56,1713027142575
NMEA,$GNGNS,165223.00,3210.126545,N,03448.780865,E,AAAANN,33,0.4,26.0,19.1,,,V*14,1713027142575
NMEA,$GNGGA,165223.00,3210.126545,N,03448.780865,E,1,12,0.4,26.0,M,19.1,M,,*47,1713027142575
NMEA,$PSMSG,magcal=PASS,bluesky=0*00,1713027142588
NMEA,$GPGSV,3,1,11,02,34,317,32,03,14,262,29,08,56,243,40,10,31,049,33,1*68,1713027143570
NMEA,$GPGSV,3,2,11,21,51,325,32,27,41,187,40,28,18,126,36,32,55,057,37,1*69,1713027143570
NMEA,$GPGSV,3,3,11,36,00,000,40,40,00,000,41,49,00,000,41,1*5C,1713027143570
NMEA,$GPGSV,2,1,06,03,14,262,25,08,56,243,32,10,31,049,17,27,41,187,29,8*6D,1713027143570
NMEA,$GPGSV,2,2,06,28,18,126,22,32,55,057,27,8*6B,1713027143570
NMEA,$GLGSV,2,1,07,,00,000,23,70,40,232,30,69,65,009,30,84,73,028,18,1*73,1713027143570
NMEA,$GLGSV,2,2,07,83,27,131,29,85,22,330,26,68,16,031,21,1*48,1713027143570
NMEA,$GAGSV,2,1,07,04,28,203,32,10,35,319,28,11,10,308,19,12,57,338,22,7*74,1713027143570
NMEA,$GAGSV,2,2,07,19,73,118,29,24,07,259,29,33,51,092,37,7*44,1713027143570
NMEA,$GAGSV,2,1,07,04,28,203,29,10,35,319,22,11,10,308,12,12,57,338,23,1*78,1713027143570
NMEA,$GAGSV,2,2,07,19,73,118,18,24,07,259,20,33,51,092,28,1*47,1713027143570
NMEA,$GBGSV,4,1,16,60,29,116,32,44,15,144,19,43,56,309,36,42,74,280,43,1*70,1713027143570
NMEA,$GBGSV,4,2,16,39,27,063,26,34,68,161,44,33,23,237,31,21,43,037,36,1*76,1713027143570
NMEA,$GBGSV,4,3,16,16,28,072,25,14,49,245,38,12,38,144,43,11,82,298,41,1*7B,1713027143570
NMEA,$GBGSV,4,4,16,09,31,095,31,06,31,084,29,05,46,138,41,02,27,112,28,1*70,1713027143570
NMEA,$GBGSV,2,1,07,21,43,037,31,33,23,237,30,34,68,161,40,39,27,063,25,3*70,1713027143570
NMEA,$GBGSV,2,2,07,42,74,280,41,43,56,309,30,44,15,144,21,3*42,1713027143570
NMEA,$GBGSV,2,1,06,21,43,037,21,33,23,237,26,34,68,161,28,39,27,063,15,5*7C,1713027143570
NMEA,$GBGSV,2,2,06,42,74,280,28,43,56,309,21,5*7C,1713027143570
NMEA,$GNGSA,A,3,02,03,08,10,21,27,28,32,,,,,0.7,0.4,0.5,1*32,1713027143579
NMEA,$PSSGR,GSA,A,3,03,08,10,27,28,32,,,,,,,0.7,0.4,0.5,1,8*47,1713027143579
NMEA,$GNGSA,A,3,69,70,83,85,,,,,,,,,0.7,0.4,0.5,2*3A,1713027143579
NMEA,$GNGSA,A,3,04,10,12,19,24,33,,,,,,,0.7,0.4,0.5,3*3D,1713027143579
NMEA,$PSSGR,GSA,A,3,304,312,324,333,,,,,,,,,0.7,0.4,0.5,3,1*49,1713027143579
NMEA,$GNGSA,A,3,05,06,09,11,12,13,14,16,21,33,34,39,0.7,0.4,0.5,4*35,1713027143579
