     3.03           OBSERVATION DATA    M                   RINEX VERSION / TYPE
GnssLogger          samsung 14          20240413 165136 UTC PGM / RUN BY / DATE
Google GnssLogger                                           MARKER NAME
Unknown                                                     MARKER NUMBER
Unknown             Unknown                                 OBSERVER / AGENCY
Unknown             GnssLogger          v3.0.6.4            REC # / TYPE / VERS
Unknown             Unknown                                 ANT # / TYPE
        0.0000        0.0000        0.0000                  ANTENNA: DELTA H/E/N
G    6 C1C D1C S1C C5Q D5Q S5Q                              SYS / # / OBS TYPES
R    3 C1C D1C S1C                                          SYS / # / OBS TYPES
C    6 C2I D2I S2I C7Q D7Q S7Q                              SYS / # / OBS TYPES
E    6 C1C D1C S1C C5Q D5Q S5Q                              SYS / # / OBS TYPES
  2024    04    13    16    51   36.0000000     GPS         TIME OF FIRST OBS
 6 R04  6 R05  1 R06 -4 R19  3 R20  2 R21  4                GLONASS SLOT / FRQ #

 C1C    0.000 C1P    0.000 C2C    0.000 C2P    0.000        GLONASS COD/PHS/BIS
                                                            END OF HEADER
> 2024 04 13 16 51 36.4173427  0 33                      
G02  22948098.83127      2656.97127        43.00027                                                
G03  24058718.06527      2650.56927        42.00027  24056382.38225      1977.42525        32.30025
G08  21133536.02728      -871.28328        47.80028  21131185.35425      -651.48225        34.70025
G10  22788447.65526     -1868.83126        39.00026                                                
G21  21707704.23827      1831.48727        44.30027                                                
G27  22142478.85027     -2805.21127        45.20027  22140122.78125     -2090.75025        33.70025
G28  23880863.19226      2683.30026        35.50026                                                
G32  21444978.71927     -1243.73027        45.60027  21442620.85224      -932.15024        27.80024
R06  20995614.40825      2818.80225        35.20025
R05  19560634.42427     -1564.59227        44.90027
R20  19400356.08224      1123.95024        29.00024
R19  21958640.41924     -2882.35024        28.90024
R21  22404963.93627      4026.52627        42.90027
R04  22920663.02424     -3681.40024        27.00024
C60  38630425.78226       169.95026        41.20026                                                
C43  22353684.73526      1758.53726        39.70026  22351800.24025      1322.60025        31.60025
C42  21861369.45828       420.23828        47.60028  21859489.16024       321.75024        28.40024
C39  38998137.12124       803.75024        29.10024  38996245.13124       601.46524        28.70024
C34  21738161.65326     -1051.64726        40.40026  21736281.05525      -786.70025        31.10025
C33  25067488.80825      2675.80025        33.60025  25065614.50525      2012.09425        31.10025
C21  23410359.61527     -2012.10827        44.20027  23408472.12125     -1517.70025        33.80025
C16  39207838.04825      1116.90025        32.80025                                                
C14  22550957.16727      1785.13927        46.50027                                                
C13  39567305.39424       126.05024        28.50024                                                
C12  23521197.38327     -2315.08827        45.10027                                                
C11  21459914.68027       577.75327        43.70027                                                
C09  39212732.75925      1581.65025        34.00025                                                
C05  37616317.23527       222.03027        42.30027                                                
E10  25676615.51826      2222.12126        39.50026  25674705.54125      1663.95025        31.50025
E12  24351149.71925      1537.55025        32.80025  24349239.44225      1134.35025        30.60025
E19  23507448.30125       644.95025        33.50025                                                
E24  28316932.66525     -1701.85025        35.30025  28315030.78124     -1269.40024        29.10024
E33  24341963.17926      -631.05026        35.80026  24340055.30025      -471.24425        30.20025
> 2024 04 13 16 51 37.4173429  0 33                      
G02  22947653.63327      2656.30427        45.20027                                                
G03  24058272.26827      2650.50727        43.40027  24055936.58526      1980.35226        36.70026
G08  21133762.06428      -872.26628        49.80028  21131410.19226      -650.48926        38.20026
G10  22788861.66227     -1869.40027        41.70027                                                
G21  21707414.63327      1830.84527        46.70027                                                
G27  22143068.53628     -2806.05228        47.70028  22140715.76426     -2094.49926        36.60026
G28  23880421.89126      2683.40026        37.80026                                                
G32  21445272.81027     -1244.65727        46.80027  21442913.14325      -928.31625        30.00025
R06  20995141.62926      2825.30026        36.80026
R05  19560988.77227     -1565.23427        46.90027
R20  19400169.60525      1118.90025        30.80025
R19  21959183.63725     -2885.00025        30.30025
R21  22404272.60827      4025.84527        44.50027
R04  22921420.59425     -3689.30025        30.30025
C60  38630449.75927       170.60027        43.20027                                                
C43  22353407.72127      1757.64227        42.00027  22351521.12725      1325.68125        34.30025
C42  21861349.66628       419.41328        49.60028  21859469.66725       317.29225        32.60025
C39  38998044.47925       802.60025        31.50025  38996147.69225       605.60025        31.10025
C34  21738424.26527     -1052.53327        43.00027  21736540.06925      -793.15025        33.10025
C33  25067029.52025      2674.15025        35.40025  25065158.51525      2016.40025        33.60025
C21  23410805.69927     -2012.12527        46.40027  23408917.60726     -1515.40426        36.00026
C16  39207677.05326      1114.50026        35.50026                                                
C14  22550672.35728      1784.24128        48.60028                                                
C13  39567345.56025       127.05025        30.00025                                                
C12  23521701.32828     -2315.24528        47.50028                                                
C11  21459862.21027       576.82427        46.10027                                                
C09  39212488.72226      1579.20026        36.00026                                                
C05  37616334.61627       220.95327        44.30027                                                
E10  25676251.56427      2224.35027        43.30027  25674342.18625      1661.33425        34.50025
E12  24350917.67326      1530.80926        37.20026  24349007.99625      1143.15025        33.10025
E19  23507382.04126       638.17326        36.90026                                                
E24  28317316.09326     -1708.40026        39.00026  28315412.71125     -1275.70025        32.40025
E33  24342143.64826      -638.25626        39.20026  24340236.36825      -476.74125        32.60025
> 2024 04 13 16 51 38.4173430  0 35                      
G02  22947177.81027      2660.47427        43.00027                                                
G03  24057797.04527      2654.12927        42.40027  24055463.76025      1987.70025        31.90025
G08  21133954.77928      -868.80628        48.00028  21131607.10425      -648.95525        35.00025
G10  22789243.24626     -1865.38326        39.70026                                                
G21  21707098.30027      1834.76927        44.70027                                                
G27  22143632.39327     -2802.23327        45.50027  22141280.22225     -2093.40025        32.30025
G28  23879929.58026      2687.60026        36.20026  23877605.58923      2005.50023        22.10023
G32  21445541.97127     -1241.13027        45.50027  21443176.00924      -922.70024        26.20024
R06  20994632.52925      2829.40025        35.10025
R05  19561315.79427     -1561.96327        44.90027
R20  19399995.07424      1127.65024        28.60024
R19  21959736.10225     -2875.75025        30.00025
R21  22403549.75627      4029.99627        42.80027
R04  22922116.06025     -3678.35025        30.60025
C60  38630449.10827       180.65027        41.70027                                                
C44  25371195.89824     -2929.85024        24.90024                                                
C43  22353097.08426      1761.26226        40.00026  22351212.88825      1335.80025        30.30025
C42  21861299.24928       423.02128        48.50028  21859418.35124       324.00024        28.70024
C34  21738650.25727     -1049.04627        41.50027  21736771.75725      -798.57725        31.10025
C33  25066544.10425      2679.70025        34.00025  25064674.89825      2009.30325        30.40025
C21  23411221.46027     -2008.70327        44.50027  23409333.66725     -1514.26525        33.90025
C16  39207488.43225      1124.10025        33.50025                                                
C14  22550359.32227      1787.98627        46.60027                                                
C13  39567351.80324       132.60024        27.10024                                                
C12  23522173.74927     -2311.98627        45.80027                                                
C11  21459779.11527       580.30827        44.50027                                                
C09  39212211.96225      1583.65025        33.90025                                                
C06  38592244.45625      1423.90025        31.80025                                                
C05  37616321.67327       222.20027        42.50027                                                
E10  25675860.58326      2216.30026        38.90026  25673951.50425      1657.00025        31.00025
E12  24350657.40225      1521.65025        34.00025  24348746.82424      1138.20024        29.10024
E19  23507288.15425       650.50025        33.40025                                                
E24  28317674.59325     -1696.40025        35.20025  28315769.11224     -1270.85024        28.30024
E33  24342292.29325      -647.05025        34.60025  24340389.51025      -480.50025        30.20025
C39                                                  38996026.22424       612.95024        28.40024
> 2024 04 13 16 51 39.4173432  0 34                      
G02  22946733.10327      2639.32027        45.20027                                                
G03  24057352.33827      2633.39727        44.00027  24055018.75326      1965.73626        35.90026
G08  21134183.10628      -890.29128        49.50028  21131834.23226      -664.58926        38.70026
G10  22789657.14527     -1886.42527        41.60027                                                
G21  21706811.88327      1813.67027        46.20027                                                
G27  22144226.16727     -2823.49127        47.00027  22141873.69626     -2108.13426        36.50026
G28  23879486.97126      2664.80626        39.10026  23877159.08324      1991.55024        25.40024
G32  21445840.75028     -1262.54128        48.20028  21443479.88424      -944.05024        28.30024
R06  20994147.95026      2805.16226        37.20026
R05  19561662.83927     -1583.54327        46.60027
R20  19399911.61724      1102.50024        29.10024
R19  21960363.15325     -2899.65025        31.40025
R21  22402857.42127      4008.45327        44.30027
R04  22922865.42725     -3702.25025        31.20025
C60  38630475.67427       152.44927        42.80027                                                
C43  22352822.65926      1740.07526        40.70026  22350938.16425      1312.05025        34.20025
C42  21861279.64728       401.99928        50.70028  21859399.34925       302.39225        31.80025
C34  21738917.25727     -1070.17127        43.50027  21737034.56025      -806.35025        33.60025
C33  25066084.70725      2656.50025        34.70025  25064224.19525      2003.42525        33.10025
C21  23411669.83427     -2029.14527        46.20027  23409781.14226     -1528.23426        35.80026
C16  39207331.52526      1098.72426        36.00026                                                
C14  22550078.30228      1766.86028        48.20028                                                
C13  39567405.05224       108.35024        29.00024                                                
C12  23522681.48327     -2332.68827        47.40027                                                
C11  21459732.83227       559.20427        46.90027                                                
C09  39211978.00925      1562.95025        34.70025                                                
C06  38592027.29225      1397.40025        33.80025                                                
C05  37616340.44627       202.66627        43.80027                                                
E10  25675496.52027      2206.86227        43.40027  25673585.64325      1647.13025        32.40025
E12  24350427.64626      1512.86726        37.80026  24348517.36825      1128.60025        34.60025
E19  23507228.08126       619.83526        36.60026                                                
E24  28318059.11226     -1726.05226        39.10026  28316157.82825     -1288.70025        32.50025
E33  24342476.25126      -656.34526        37.60026  24340571.96925      -490.80025        33.20025
C39                                                  38995933.17325       591.06825        30.80025
> 2024 04 13 16 51 40.4173433  0 34                      
G02  22946254.39027      2643.14827        45.20027                                                
G03  24056883.81827      2636.64827        44.20027  24054546.93526      1968.72026        36.50026
G08  21134383.72228      -887.11728        49.40028  21132031.55126      -662.66726        38.50026
G10  22790049.32926     -1882.54326        41.10026  22787700.75523     -1404.40023        21.40023
G21  21706489.96127      1817.25527        45.80027                                                
G27  22144794.03027     -2819.97227        46.80027  22142440.95926     -2106.08226        37.70026
G28  23879009.45726      2668.64426        39.90026                                                
G32  21446108.22028     -1259.26228        47.50028  21443749.15324      -940.40024        28.80024
R06  20993686.92526      2809.43326        37.20026
R05  19561988.16927     -1580.48927        47.10027
R20  19399703.91625      1102.45025        30.70025
R19  21960940.00925     -2897.40025        31.80025
R21  22402140.37327      4012.25327        44.10027
R04  22923579.58825     -3695.20025        31.30025
C60  38630478.72827       153.65027        42.80027                                                
C43  22352519.02526      1743.55326        40.90026  22350633.03026      1313.61526        35.60026
C42  21861233.23528       405.34128        50.50028  21859352.03725       305.49025        33.70025
C34  21739152.35027     -1066.82027        43.90027  21737270.25325      -804.47925        33.70025
C33  25065610.79025      2660.88125        34.80025  25063742.18425      2005.27725        34.30025
C21  23412089.30027     -2025.90527        46.10027  23410200.60726     -1527.00826        36.80026
C16  39207163.69725      1102.47125        35.00025                                                
C14  22549769.57128      1770.30628        48.70028                                                
C13  39567406.60624       113.30024        29.20024                                                
C12  23523159.70728     -2329.55028        47.50028                                                
C11  21459654.94227       562.43227        46.20027                                                
C09  39211700.75625      1566.10125        35.30025                                                
C06  38591789.01225      1401.40025        33.40025                                                
C05  37616333.00627       218.75027        43.80027                                                
E10  25675105.94627      2209.49227        44.70027  25673197.16725      1650.09325        33.00025
E12  24350170.18026      1515.45226        37.10026  24348259.30325      1131.49925        34.20025
E19  23507141.79626       621.91926        38.20026                                                
E24  28318414.72126     -1723.72726        40.80026  28316515.53625     -1287.38325        32.70025
E33  24342630.69926      -653.72726        39.30026  24340727.31725      -488.48025        33.80025
C39                                                  38995812.41325       593.81525        31.70025
> 2024 04 13 16 51 41.4173434  0 33                      
G02  22945783.22127      2640.10527        45.30027                                                
G03  24056412.04827      2633.74227        44.10027  24054075.46626      1966.68726        36.20026
G08  21134581.98928      -890.53928        49.40028  21132231.61626      -665.12026        38.60026
G10  22790428.97026     -1886.12926        35.70026  22788083.39424     -1407.15024        27.60024
G21  21706180.68027      1814.12127        45.80027                                                
G27  22145361.94127     -2823.24227        46.50027  22143007.37126     -2108.34126        36.30026
G28  23878525.39726      2665.67526        37.60026  23876199.30724      1992.60024        25.10024
G32  21446381.13527     -1262.77827        46.90027  21444020.86924      -943.24524        29.40024
R06  20993180.67926      2805.85426        36.90026
R05  19562317.74527     -1583.93927        45.00027
R20  19399506.45725      1102.65025        30.40025
R19  21961534.60225     -2905.20025        30.60025
R21  22401411.68127      4009.14227        43.40027
R04  22924278.20824     -3701.50024        29.30024
C60  38630479.43127       155.40427        42.10027                                                
C43  22352218.13726      1740.16726        41.40026  22350328.54526      1311.63826        35.50026
C42  21861184.47328       402.03528        49.40028  21859303.87525       303.10025        31.20025
C39  38997577.69525       785.20025        32.70025  38995692.89925       591.16925        31.70025
C34  21739389.59027     -1070.31127        41.60027  21737505.39425      -806.53325        34.00025
C33  25065123.43225      2658.85025        33.40025  25063260.82125      2002.60325        33.70025
C21  23412508.81327     -2028.92027        44.00027  23410619.52125     -1528.66925        34.90025
C16  39206966.83726      1099.52026        38.40026                                                
C14  22549459.39028      1767.04528        48.00028                                                
C12  23523637.68027     -2332.63427        46.30027                                                
C11  21459575.00127       559.02927        45.10027                                                
C09  39211429.54825      1562.50025        33.50025                                                
C05  37616321.41827       194.55027        42.30027                                                
C02  38710343.24324       128.10024        26.50024                                                
E10  25674715.12027      2206.99327        42.90027  25672807.54126      1654.42426        35.90026
E12  24349910.06425      1512.78525        35.10025  24347999.48725      1129.08825        34.50025
E19  23507053.46126       618.90226        37.40026                                                
E24  28318772.77726     -1726.37926        40.60026  28316874.79125     -1289.71225        33.10025
E33  24342781.29926      -656.63726        35.70026  24340881.51425      -490.67625        32.00025
> 2024 04 13 16 51 42.4173435  0 32                      
G02  22945307.65427      2644.45827        44.70027                                                
G03  24055937.38127      2637.77027        43.80027  24053603.79725      1969.59925        35.30025
G08  21134781.25528      -886.82528        49.40028  21132431.18226      -662.43026        38.90026
G21  21705864.00327      1818.41927        45.90027                                                
G27  22145931.75127     -2819.19827        45.70027  22143574.18325     -2105.50325        35.30025
G28  23878056.72526      2669.67326        37.70026                                                
G32  21446652.35228     -1258.86028        48.10028  21444291.18624      -939.80024        28.80024
R06  20992678.13126      2809.83426        37.10026
R05  19562635.72927     -1580.15227        43.60027
R19  21962130.19425     -2897.55025        30.10025
R21  22400703.17627      4013.66027        42.60027
R04  22925004.51024     -3697.25024        26.90024
C60  38630483.83326       150.70026        40.70026                                                
C43  22351912.55326      1744.25826        41.40026  22350024.46026      1314.07226        35.70026
C42  21861138.20928       406.03828        49.00028  21859257.01125       306.95025        30.30025
C39  38997456.78325       789.90025        32.90025  38995570.18925       594.35925        31.30025
C34  21739623.63226     -1066.38726        41.40026  21737741.23525      -804.06825        32.80025
C33  25064652.96225      2662.35025        33.90025  25062781.35825      2005.56425        33.80025
C21  23412929.62627     -2024.80627        44.30027  23411038.53525     -1525.40025        33.30025
C16  39206785.06826      1103.63526        39.00026                                                
C14  22549149.30928      1771.09428        48.10028                                                
C12  23524117.25327     -2328.78027        44.80027                                                
C11  21459499.05827       562.92527        45.40027                                                
C09  39211175.82825      1567.45025        30.20025                                                
C05  37616312.02926       202.35026        41.10026                                                
E04  26164420.30923      2997.85023        20.90023                                                
E10  25674322.89627      2210.91227        42.60027  25672416.81626      1651.09226        36.40026
E12  24349651.54725      1516.76425        34.40025  24347742.76925      1132.59825        34.40025
E19  23506965.22726       622.53326        36.10026                                                
E24  28319129.73526     -1722.53626        40.00026  28317232.34825     -1286.22525        32.50025
E33  24342935.59625      -652.40025        30.30025  24341035.21225      -487.48725        30.40025
G10                                                  22788471.53024     -1405.21624        29.10024
> 2024 04 13 16 51 43.4173437  0 32                      
G02  22944867.59027      2644.64927        44.90027                                                
G03  24055500.01527      2637.88827        43.90027  24053162.53426      1969.61626        36.00026
G08  21135008.23028      -887.15728        49.20028  21132659.65626      -662.70026        38.90026
G21  21705575.93427      1818.49527        46.00027                                                
G27  22146528.36927     -2819.20327        45.30027  22144172.00026     -2105.34326        35.60026
G28  23877606.16926      2669.87826        37.20026  23875269.88623      1993.80023        22.90023
G32  21446949.77728     -1259.09828        47.60028  21444589.81124      -940.53024        29.30024
R06  20992210.48726      2809.40926        36.90026
R05  19562996.41127     -1580.43227        43.60027
R20  19399176.02124      1106.90024        27.60024
R19  21962709.42425     -2898.45025        29.90025
R21  22400002.29327      4013.74027        42.10027
R04  22925757.92024     -3695.25024        27.60024
C60  38630507.54826       163.20026        40.80026                                                
C43  22351635.57627      1744.02427        41.60027  22349748.08326      1314.03026        35.50026
C42  21861119.95328       405.91528        48.80028  21859236.65724       305.66624        29.00024
C39  38997368.37525       786.80025        32.70025  38995476.98525       594.47925        31.60025
C34  21739889.87927     -1066.57027        41.50027  21738003.88525      -804.27525        33.30025
C33  25064198.50825      2660.65025        32.70025  25062330.20125      2005.68125        34.20025
C21  23413377.84727     -2024.64727        44.40027  23411489.15525     -1526.12325        33.60025
C16  39206630.10626      1103.75126        39.50026                                                
C14  22548869.63428      1770.94128        47.80028                                                
C12  23524624.23327     -2328.74427        44.50027                                                
C11  21459451.42327       562.70427        44.80027                                                
C09  39210927.03224      1566.05024        28.30024                                                
C05  37616329.44926       217.50026        40.80026                                                
E10  25673963.77627      2211.31827        43.00027  25672056.19726      1651.38526        36.40026
E12  24349421.03825      1517.14125        34.40025  24347514.35825      1132.59325        34.50025
E19  23506906.19926       622.54426        36.10026                                                
E24  28319517.69726     -1722.20326        40.20026  28317621.51025     -1286.20825        31.30025
E33  24343117.00225      -652.65725        31.20025  24341221.11524      -486.70024        29.20024
G10                                                  22788888.87224     -1405.35024        27.70024
> 2024 04 13 16 51 44.4173438  0 33                      
G02  22944396.40627      2644.28327        45.90027                                                
G03  24055031.53027      2637.62227        44.70027  24052688.05226      1969.62426        35.90026
G08  21135210.38028      -887.95228        49.80028  21132858.50826      -663.00326        39.00026
G21  21705259.44327      1818.01527        46.80027                                                
G27  22147091.16927     -2819.79727        45.90027  22144736.89926     -2105.57426        35.90026
G28  23877132.28726      2669.48026        37.70026                                                
G32  21447216.08328     -1259.86628        47.60028  21444859.41425      -941.14925        31.00025
R06  20991707.52526      2808.76626        37.40026
R05  19563313.68127     -1581.20627        43.50027
R20  19399027.71425      1102.45025        30.30025
R19  21963274.62324     -2897.50024        28.10024
R21  22399299.07027      4013.40027        42.80027
R04  22926539.26924     -3698.45024        27.40024
C60  38630511.23527       151.40027        41.70027                                                
C43  22351330.17827      1743.39427        42.50027  22349444.78326      1313.75626        36.20026
C42  21861072.07628       405.28828        49.20028  21859188.78025       304.91925        31.60025
C39  38997250.64725       788.96025        34.90025  38995356.85825       594.17125        31.90025
C34  21740125.60627     -1067.30027        41.50027  21738240.51125      -804.55625        33.70025
C33  25063716.83125      2664.75025        32.50025  25061847.32625      2005.40725        34.70025
C21  23413799.14627     -2024.99527        45.50027  23411907.15625     -1526.15425        34.20025
C16  39206452.41926      1103.36326        39.70026                                                
C14  22548558.83928      1770.37828        48.20028                                                
C12  23525098.59527     -2329.27727        45.10027                                                
C11  21459373.86627       562.03427        45.10027                                                
C09  39210654.31025      1566.15025        33.20025                                                
C05  37616321.44427       197.05027        41.70027                                                
E04  26163352.57024      2998.25024        26.30024                                                
E10  25673573.23727      2211.43527        43.20027  25671665.35726      1651.37626        38.10026
E12  24349161.50825      1516.95925        34.20025  24347255.42726      1132.49226        35.90026
E19  23506818.15026       622.06326        36.90026                                                
E24  28319877.53826     -1722.23826        40.80026  28317977.15425     -1286.31625        32.20025
E33  24343268.18825      -653.08525        32.90025  24341372.30024      -487.76524        29.40024
G10                                                  22789280.49124     -1404.89024        29.40024
> 2024 04 13 16 51 45.4173439  0 31                      
G02  22943919.41527      2651.42427        45.10027                                                
G03  24054554.83827      2644.70127        44.70027  24052215.55725      1975.32825        35.00025
G08  21135408.22128      -881.35028        49.70028  21133055.74926      -657.49726        37.30026
G21  21704942.24127      1825.02627        46.40027                                                
G27  22147658.05527     -2812.88927        45.80027  22145304.08425     -2099.84725        34.60025
G28  23876645.70226      2676.67026        37.00026  23874307.02124      1999.25024        24.70024
G32  21447482.87627     -1253.19527        46.40027  21445128.90625      -934.36025        30.50025
R06  20991216.14326      2815.46126        37.70026
R05  19563631.43927     -1574.48027        42.70027
R20  19398884.69124      1118.60024        29.00024
R19  21963793.54224     -2888.80024        27.90024
R21  22398576.54827      4020.61527        42.90027
C60  38630508.51527       166.96627        41.70027                                                
C43  22351023.46827      1750.06227        42.30027  22349137.47325      1318.75625        34.30025
C42  21861024.68728       412.02028        48.70028  21859139.29224       311.26524        29.30024
C39  38997131.30725       795.54725        34.60025  38995233.62125       600.36925        30.30025
C34  21740362.12027     -1060.60327        41.70027  21738472.82825      -799.14025        31.60025
C33  25063223.35125      2670.30025        30.70025  25061367.33625      2004.36725        33.40025
C21  23414217.93427     -2017.92827        45.90027  23412325.94325     -1520.41325        32.90025
C16  39206265.32726      1110.30426        39.50026                                                
C14  22548249.43128      1777.11728        48.10028                                                
C12  23525575.54227     -2322.46527        45.10027                                                
C11  21459292.90027       568.66527        45.00027                                                
C09  39210381.17725      1574.35025        32.90025                                                
C05  37616307.93127       230.85027        41.50027                                                
E10  25673180.18726      2219.15326        40.60026  25671273.80626      1657.25726        37.00026
E12  24348901.56625      1524.68125        33.50025  24346996.38525      1138.41725        33.60025
E19  23506728.79026       629.39926        35.60026                                                
E24  28320235.16926     -1714.65326        38.70026  28318334.18525     -1279.56325        31.40025
E33  24343421.95925      -651.13925        31.20025  24341525.17224      -480.75024        29.00024
G10                                                  22789664.20324     -1399.15024        27.40024
> 2024 04 13 16 51 46.4173441  0 32                      
G02  22943480.35727      2635.74627        43.60027                                                
G03  24054111.28427      2628.52927        42.60027  24051773.80225      1962.27325        34.10025
G08  21135637.10128      -897.64228        47.60028  21133286.12926      -671.03726        37.00026
G10  22792451.21325     -1892.05025        34.00025  22790084.05124     -1411.95024        27.50024
G21  21704649.78227      1809.18527        44.00027                                                
G27  22148255.08027     -2828.91827        44.00027  22145899.31125     -2113.65025        33.90025
G28  23876206.94426      2661.05026        36.20026                                                
G32  21447784.60627     -1269.43427        44.70027  21445426.13924      -948.85024        28.60024
R06  20990744.40825      2798.65025        35.00025
R05  19563997.32527     -1591.21527        42.60027
R20  19398728.33825      1094.35025        29.70025
R19  21964396.56324     -2911.30024        26.10024
R21  22397879.06927      4004.59227        42.10027
R04  22927942.71424     -3692.70024        25.90024
C60  38630539.23226       141.10026        39.90026                                                
C43  22350752.29426      1734.07826        40.20026  22348864.20225      1305.29425        34.70025
C42  21861006.83827       396.11627        47.00027  21859124.14224       298.45024        28.40024
C39  38997026.21925       780.65025        32.70025  38995144.12225       587.45025        30.10025
C34  21740629.07426     -1076.66826        39.50026  21738740.38125      -812.45025        32.10025
C33  25062780.99625      2657.00025        30.60025  25060913.88925      1998.75025        33.40025
C21  23414668.66027     -2034.03527        44.40027  23412774.57225     -1533.80025        31.70025
C16  39206111.37226      1094.55926        37.80026                                                
C14  22547970.16327      1761.32627        45.50027                                                
C12  23526082.63027     -2338.71527        43.90027                                                
C11  21459245.97127       552.59627        43.20027                                                
C09  39210138.48425      1559.90025        32.20025                                                
C05  37616330.25526       207.50026        40.00026                                                
E10  25672818.77626      2202.02626        39.50026  25670913.29525      1644.25525        35.40025
E12  24348677.16025      1502.04925        30.90025  24346767.18225      1125.10025        33.30025
E19  23506671.66825       613.15025        32.30025                                                
E24  28320621.14026     -1731.84026        37.70026  28318721.65525     -1291.85025        31.30025
E33  24343608.26925      -659.99725        32.30025  24341709.08424      -494.75024        29.20024
> 2024 04 13 16 51 47.4173442  0 31                      
G02  22943005.35727      2648.05827        44.40027                                                
G03  24053640.18027      2641.52327        42.80027  24051300.90025      1970.05025        33.50025
G08  21135836.63328      -885.59428        48.00028  21133484.76226      -661.00426        36.00026
G10  22792843.81125     -1875.75025        33.50025  22790467.95624     -1406.00024        26.40024
G21  21704337.56827      1821.52727        44.60027                                                
G27  22148819.16027     -2816.65427        44.00027  22146465.49025     -2105.90025        31.50025
G28  23875720.85126      2670.87426        36.20026                                                
G32  21448057.58727     -1257.31927        45.10027  21445699.42024      -942.40024        26.40024
R06  20990254.41826      2808.49626        35.90026
R05  19564325.76827     -1578.66527        42.90027
R20  19398532.74424      1103.35024        26.70024
R19  21964993.62024     -2896.70024        28.20024
R21  22397168.43227      4017.19427        42.40027
C60  38630539.10326       152.35026        40.10026                                                
C43  22350444.87826      1746.08126        40.40026  22348559.48325      1317.02825        34.10025
C42  21860958.74227       408.16127        47.40027  21859071.84824       303.75024        26.80024
C39  38996917.26525       790.90025        33.00025  38995019.27925       592.77725        29.60025
C34  21740863.38226     -1064.68926        39.70026  21738975.88925      -806.38525        31.00025
C33  25062296.70225      2667.15025        30.60025  25060434.99125      2012.36825        31.60025
C21  23415085.84227     -2021.12327        45.00027  23413190.85425     -1520.75125        29.80025
C16  39205935.86426      1106.82726        38.30026                                                
C14  22547659.44927      1773.28827        46.90027                                                
C12  23526562.46827     -2325.91827        44.00027                                                
C11  21459169.69527       564.55827        43.20027                                                
C09  39209873.03825      1571.55025        33.50025                                                
C05  37616321.43126       227.00026        40.60026                                                
E10  25672429.51626      2216.01126        38.70026  25670521.03725      1654.78025        35.40025
E12  24348414.11225      1515.60025        30.80025  24346507.13325      1132.30025        32.10025
E19  23506578.00325       615.30525        32.60025                                                
E24  28320975.36526     -1723.90026        36.70026  28319079.47824     -1287.69424        29.40024
E33  24343775.12425      -654.45025        30.20025  24341862.74824      -487.95024        27.90024
> 2024 04 13 16 51 48.4173443  0 30                      
G02  22942531.24127      2631.94227        44.00027                                                
G03  24053168.46227      2625.04227        43.10027  24050830.98125      1958.48025        35.30025
G08  21136033.75328      -902.33028        48.00028  21133684.87926      -673.16926        37.10026
G10  22793214.21125     -1895.50025        34.10025  22790856.94224     -1413.54924        29.00024
G21  21704023.54227      1805.22427        44.40027                                                
G27  22149393.11927     -2833.11727        43.40027  22147033.45225     -2117.52625        34.70025
G28  23875252.13126      2657.01726        36.50026  23872905.35623      1986.20023        21.90023
G32  21448326.65727     -1274.01427        44.80027  21445967.29024      -952.89924        29.40024
R06  20989768.01025      2793.75925        35.40025
R05  19564649.39927     -1595.75727        42.40027
R20  19398348.52724      1084.05024        26.60024
R21  22396448.48627      4000.69727        42.30027
C60  38630538.05926       138.25026        39.60026                                                
C43  22350143.44226      1729.73226        39.90026  22348254.45025      1303.84425        35.00025
C42  21860910.93128       391.78428        47.60028  21859027.33525       295.00025        29.60025
C39  38996790.60825       774.70025        33.40025  38994900.11725       584.50025        30.60025
C34  21741097.07626     -1081.20226        39.60026  21739211.08225      -811.87025        32.60025
C33  25061826.48325      2649.00025        30.40025  25059954.57925      1995.60025        33.60025
C21  23415502.70927     -2037.45327        45.00027  23413612.81825     -1535.50025        32.30025
C16  39205750.14826      1090.63326        38.60026                                                
C14  22547349.91927      1756.95027        46.80027                                                
C12  23527040.19327     -2342.44927        43.70027                                                
C11  21459086.20827       548.11727        43.20027                                                
C09  39209602.18225      1555.60025        32.80025                                                
C05  37616308.99626       181.25026        40.60026                                                
E10  25672039.34126      2200.30826        39.10026  25670131.76226      1643.00426        35.70026
E12  24348157.64625      1502.62925        32.80025  24346251.26525      1121.93325        33.30025
E19  23506493.91725       607.85025        33.60025                                                
E24  28321337.37126     -1733.64626        38.70026  28319437.28625     -1295.55025        30.70025
E33  24343914.08325      -666.90025        31.20025  24342020.89424      -497.00024        27.00024
> 2024 04 13 16 51 49.4173444  0 33                      
G02  22942061.19727      2637.11627        46.00027                                                
G03  24052703.81627      2630.05027        44.90027  24050361.83726      1964.03126        36.50026
G08  21136237.34328      -897.67028        49.30028  21133885.77126      -670.34126        39.00026
G10  22793612.66626     -1888.19526        35.80026  22791249.70225     -1409.69225        30.80025
G21  21703708.79127      1810.28027        45.60027                                                
G27  22149959.45827     -2828.15827        45.20027  22147601.59026     -2111.85726        35.80026
G28  23874775.19326      2662.02026        38.50026  23872438.31124      1987.50024        25.90024
G32  21448600.09927     -1269.27727        45.70027  21446238.93425      -947.73825        31.00025
R06  20989275.48326      2799.09626        37.00026
R05  19564981.00127     -1591.05727        44.00027
R20  19398163.28725      1094.85025        29.60025
R19  21966143.21124     -2912.10024        27.40024
R21  22395727.51627      4005.96127        44.00027
R04  22930133.05524     -3702.95024        24.90024
C60  38630540.48926       151.05026        41.40026                                                
C43  22349836.18627      1734.54227        41.70027  22347952.59026      1307.12526        35.90026
C42  21860866.89328       396.67428        49.40028  21858981.19824       298.81524        29.40024
C39  38996672.82125       779.75025        33.50025  38994782.03025       588.45025        31.00025
C34  21741333.34426     -1076.34226        41.40026  21739448.54925      -810.81625        34.00025
C33  25061336.05425      2653.05025        33.00025  25059473.14425      1999.72325        34.80025
C21  23415924.24927     -2032.53727        47.00027  23414033.15825     -1531.76525        33.90025
C16  39205571.50426      1095.77626        39.80026                                                
C14  22547043.86228      1761.85328        48.20028                                                
C12  23527517.79427     -2337.65227        45.70027                                                
C11  21459017.58727       552.88627        44.90027                                                
C09  39209331.80025      1559.83725        34.50025                                                
C05  37616303.63127       204.73127        42.20027                                                
E04  26160656.71023      2990.05023        22.20023                                                
E10  25671648.74327      2204.55827        42.30027  25669742.96326      1646.33026        37.80026
E12  24347900.15525      1509.80325        34.70025  24345994.37525      1127.55525        35.20025
E19  23506407.60925       612.94025        35.10025                                                
E24  28321696.25426     -1729.67626        40.20026  28319797.36825     -1291.85025        31.90025
E33  24344074.80425      -660.87925        34.20025  24342175.31925      -493.37825        29.70025
> 2024 04 13 16 51 50.4173446  0 33                      
G02  22941621.83827      2632.77627        46.00027                                                
G03  24052262.95827      2625.44427        45.40027  24049921.27926      1960.49826        35.90026
G08  21136468.32028      -902.66728        49.70028  21134117.64826      -674.08526        37.90026
G10  22794040.90725     -1891.20025        33.90025  22791666.85024     -1411.85024        28.50024
G21  21703424.72427      1805.80627        45.40027                                                
G27  22150553.48427     -2832.84527        45.10027  22148200.71226     -2115.55326        36.00026
G28  23874323.24326      2657.35926        38.10026                                                
G32  21448897.93027     -1274.21327        44.10027  21446543.06025      -951.72125        30.50025
R06  20988801.94726      2794.01626        36.80026
R05  19565336.69227     -1596.04527        43.00027
R20  19398074.38524      1087.10024        29.00024
R19  21966734.23924     -2913.45024        26.50024
R21  22395041.42827      4001.46927        43.30027
R04  22930875.77824     -3703.25024        27.60024
C60  38630571.20527       141.10027        41.70027                                                
C43  22349566.81027      1729.85827        42.50027  22347681.11526      1303.41426        35.80026
C42  21860852.34028       391.91628        48.80028  21858967.84425       295.11925        30.00025
C39  38996589.01625       776.05025        34.20025  38994690.43025       585.80025        30.70025
C34  21741604.19326     -1081.16726        41.10026  21739716.70025      -815.01425        33.90025
C33  25060901.79125      2647.70025        32.60025  25059027.18925      1996.17525        34.70025
C21  23416375.27327     -2037.08627        45.70027  23414484.48225     -1535.55925        33.00025
C16  39205423.84326      1091.17626        38.90026                                                
C14  22546765.49228      1757.14728        47.90028                                                
C12  23528027.87827     -2342.38627        45.40027                                                
C11  21458971.55627       548.02227        44.50027                                                
C09  39209084.00925      1555.30025        34.20025                                                
C05  37616325.05327       198.06027        42.20027                                                
E04  26160165.78724      2985.05024        27.50024                                                
E10  25671289.72927      2200.13827        41.90027  25669384.24826      1642.89026        37.90026
E12  24347671.55025      1504.81225        33.90025  24345767.56925      1123.73525        34.90025
E19  23506347.78725       608.21525        35.10025                                                
E24  28322089.11826     -1734.27326        41.20026  28320187.53525     -1295.55025        32.30025
E33  24344265.90825      -665.19925        33.60025  24342361.32724      -496.10024        29.20024
> 2024 04 13 16 51 51.4173447  0 31                      
G02  22941151.58127      2631.47927        46.60027                                                
G03  24051795.09827      2624.11027        45.00027  24049451.62126      1959.55826        35.80026
G08  21136667.19928      -904.39428        49.60028  21134318.02626      -675.41226        37.60026
G21  21703113.35727      1804.34127        44.00027                                                
G27  22151124.10627     -2834.39327        45.00027  22148771.33426     -2116.66926        35.80026
G28  23873857.18226      2656.00726        36.80026                                                
G32  21449170.25827     -1275.96027        41.90027  21446813.29025      -953.03225        30.60025
R06  20988315.80126      2792.29326        37.00026
R05  19565661.48427     -1597.91227        42.90027
R20  19397842.46325      1087.15025        30.20025
R21  22394325.94027      4000.07427        43.60027
C60  38630572.52126       152.00026        40.90026                                                
C43  22349262.33727      1728.18827        42.20027  22347379.04125      1302.44225        35.40025
C42  21860805.38928       390.33928        48.10028  21858921.79324       294.00124        28.50024
C39  38996466.81725       777.35025        33.40025  38994573.32825       584.17425        30.20025
C34  21741840.84626     -1082.92326        40.20026  21739952.45425      -816.59025        33.40025
C33  25060403.05425      2648.70025        31.30025  25058547.33825      1995.19725        34.70025
C21  23416801.39527     -2038.51527        43.90027  23414905.80825     -1536.22325        33.40025
C16  39205247.38226      1089.77826        37.30026                                                
C14  22546457.42227      1755.61327        47.00027                                                
C12  23528507.06327     -2343.94627        44.60027                                                
C11  21458896.12527       546.34427        43.20027                                                
C09  39208817.61025      1552.85025        33.70025                                                
C05  37616314.07726       209.00026        41.10026                                                
E04  26159621.48124      2984.14724        28.70024                                                
E10  25670902.21427      2198.88427        42.00027  25668995.23426      1642.02526        36.60026
E12  24347417.14425      1503.34625        32.80025  24345510.46425      1122.64725        35.10025
E19  23506266.36025       606.52725        34.90025                                                
E24  28322450.18526     -1735.55826        39.20026  28320548.60225     -1296.11525        31.90025
E33  24344429.41225      -670.68825        33.20025  24342518.53525      -498.18025        30.20025
G10                                                  22792060.29524     -1414.48124        29.20024
> 2024 04 13 16 51 52.4173448  0 32                      
G02  22940680.38527      2631.70227        46.20027                                                
G03  24051323.60227      2624.14027        44.40027  24048982.82326      1959.54526        35.80026
G08  21136871.73528      -904.71828        48.90028  21134520.76326      -675.73226        37.50026
G21  21702797.45327      1804.38727        43.70027                                                
G27  22151695.28827     -2834.37927        44.30027  22149339.81825     -2116.73625        35.30025
G28  23873374.29426      2656.13826        36.80026  23871030.51723      1984.95023        23.40023
G32  21449439.54927     -1276.18927        41.90027  21447088.87625      -953.17025        30.30025
R06  20987821.22126      2792.06326        36.90026
R05  19566001.22627     -1598.26327        42.10027
R20  19397731.91724      1086.00024        29.40024
R19  21967823.57924     -2915.50024        24.00024
R21  22393602.01927      4000.35127        43.60027
C60  38630576.19626       139.05026        40.00026                                                
C43  22348961.12327      1728.16027        41.80027  22347076.02825      1301.89025        34.60025
C42  21860761.39727       390.24627        47.40027  21858876.60224       294.20024        27.60024
C39  38996340.38225       776.35025        33.60025  38994454.68825       583.76525        30.00025
C34  21742077.16026     -1083.13026        40.30026  21740191.16625      -816.61525        33.70025
C33  25059942.65025      2648.55025        30.50025  25058069.24725      1994.89525        34.10025
C21  23417217.88427     -2038.39827        42.90027  23415326.19425     -1536.65425        33.00025
C16  39205065.48526      1089.89326        36.80026                                                
C14  22546152.31127      1755.60227        46.40027                                                
C12  23528987.40827     -2343.99227        44.20027                                                
C11  21458820.35527       546.10827        43.00027                                                
C09  39208549.67325      1556.75025        33.20025                                                
C05  37616309.65826       194.25026        40.70026                                                
E04  26159073.83725      2984.02525        30.90025                                                
E10  25670516.15927      2198.98627        42.30027  25668607.08026      1642.09326        36.20026
E12  24347158.50025      1503.38325        31.50025  24345254.21825      1122.74425        34.30025
E19  23506178.59825       606.12325        34.20025                                                
E24  28322807.61526     -1735.52126        39.00026  28320907.83125     -1296.02725        32.60025
E33  24344586.58125      -665.55025        30.80025  24342676.60325      -498.12725        29.50025
G10                                                  22792449.80224     -1412.90024        27.40024
> 2024 04 13 16 51 53.4173449  0 31                      
G02  22940208.69627      2644.06527        46.10027                                                
G03  24050855.51127      2636.77227        44.40027  24048512.93325      1969.80325        34.60025
G08  21137071.88128      -892.76928        48.90028  21134721.80826      -665.70826        36.50026
G21  21702488.85127      1816.82127        43.30027                                                
G27  22152262.37927     -2822.17327        43.90027  22149907.51025     -2106.45725        35.20025
G28  23872890.91325      2668.84525        35.20025                                                
G32  21449707.14826     -1264.12226        40.30026  21447360.67325      -941.87825        29.90025
R06  20987330.34526      2804.36926        35.80026
R05  19566331.18227     -1585.88027        41.70027
R20  19397587.30124      1097.90024        29.10024
R21  22392884.50027      4012.94027        43.20027
C60  38630574.58126       162.50026        40.10026                                                
C43  22348655.81927      1740.06027        42.60027  22346773.72225      1313.99825        33.00025
C42  21860713.31527       402.23327        47.20027  21858828.52024       301.80024        28.40024
C39  38996228.14525       788.79125        34.30025  38994332.55725       596.32925        29.70025
C34  21742312.68226     -1071.13226        39.40026  21740426.08825      -805.32925        33.20025
C33  25059446.97725      2658.70025        30.50025  25057590.06325      2004.87225        34.00025
C21  23417642.57527     -2025.86827        42.80027  23415746.68725     -1524.34125        32.00025
C16  39204881.59726      1102.87726        36.60026                                                
C14  22545842.80927      1767.53427        46.50027                                                
C12  23529465.16227     -2331.69227        43.80027                                                
C11  21458742.59327       558.08327        42.70027                                                
C09  39208285.14125      1565.40025        34.20025                                                
C05  37616296.05226       206.10026        40.10026                                                
E04  26158528.69925      2998.44325        29.50025                                                
E10  25670126.61326      2212.94826        40.30026  25668216.03526      1652.56226        35.60026
E12  24346899.36425      1520.20925        30.20025  24344997.18125      1134.58225        33.50025
E19  23506087.34625       618.20025        32.80025                                                
E24  28323167.55126     -1721.74326        37.40026  28321266.86725     -1284.06625        29.90025
E33  24344742.65725      -657.95525        31.60025  24342830.88024      -489.00024        29.10024
G10                                                  22792840.31724     -1401.45024        27.20024
> 2024 04 13 16 51 54.4173451  0 34                      
G02  22939767.41827      2624.75227        46.90027                                                
G03  24050412.13427      2617.29827        45.20027  24048071.95426      1954.61626        36.30026
G08  21137303.33728      -912.64728        49.30028  21134954.16426      -681.29726        39.00026
G10  22795620.90826     -1901.27926        36.60026  22793257.04524     -1419.40024        27.40024
G21  21702203.76527      1797.33027        45.90027                                                
G27  22152859.58327     -2841.82127        45.10027  22150507.11126     -2121.88826        36.10026
G28  23872452.93326      2646.90026        39.10026                                                
G32  21450018.34927     -1283.95727        43.80027  21447663.48025      -958.80025        30.00025
R06  20986873.77826      2784.03226        37.10026
R05  19566685.55427     -1606.23927        44.30027
R20  19397373.86625      1074.85025        31.20025
R19  21969093.70124     -2918.95024        26.90024
R21  22392194.99427      3993.20527        44.60027
R04  22933740.39023     -3710.95023        23.40023
C60  38630607.87527       130.30027        42.20027                                                
C43  22348381.52627      1720.45127        41.70027  22346500.62826      1296.20026        36.00026
C42  21860698.94128       382.74628        50.30028  21858815.34525       288.35025        30.40025
C39  38996129.23025       769.08625        34.70025  38994243.83525       579.35025        31.00025
C34  21742584.91027     -1090.86027        43.00027  21740694.41925      -822.00025        33.80025
C33  25059008.09826      2639.15026        35.70026  25057140.39125      1989.89025        34.40025
C21  23418089.88227     -2045.12727        46.50027  23416198.19125     -1541.85025        34.60025
C16  39204743.70926      1081.75026        36.80026                                                
C14  22545565.81827      1748.18327        47.20027                                                
C13  39567621.49424        98.55024        28.80024                                                
C12  23529976.02527     -2351.26927        46.20027                                                
C11  21458700.33927       538.51327        45.40027                                                
C09  39208043.52426      1547.08326        35.50026                                                
C05  37616323.05027       192.70027        43.10027                                                
E04  26158022.36625      2978.70025        31.10025                                                
E10  25669768.67727      2192.85327        42.50027  25667856.90126      1637.39526        35.80026
E12  24346680.53226      1496.60026        35.60026  24344770.55425      1118.50025        35.20025
E19  23506038.19626       599.23526        35.60026                                                
E24  28323555.79826     -1741.69926        40.50026  28321656.91325     -1301.55025        32.70025
E33  24344927.34626      -673.62726        36.70026  24343020.66625      -503.80025        31.10025
> 2024 04 13 16 51 55.4173452  0 34                      
G02  22939296.25128      2626.96828        47.50028                                                
G03  24049946.36427      2619.23127        45.50027  24047602.88626      1956.02626        36.00026
G08  21137509.40228      -910.94528        50.30028  21135157.23026      -680.11326        39.60026
G10  22796007.74726     -1898.08526        38.30026  22793652.87824     -1417.35024        25.90024
G21  21701888.79027      1799.44027        46.40027                                                
G27  22153434.09227     -2839.81127        45.30027  22151078.62326     -2120.46526        37.20026
G28  23871982.36626      2651.32526        39.80026  23869636.19024      1978.45024        24.50024
G32  21450290.66827     -1282.09127        44.00027  21447936.09825      -957.33625        29.70025
R06  20986366.93626      2785.88326        37.20026
