# 
# Header Description:
# 
# Version: v3.0.6.4 Platform: 14 Manufacturer: samsung Model: SM-S906E
# 
# Raw,utcTimeMillis,TimeNanos,LeapSecond,TimeUncertaintyNanos,FullBiasNanos,BiasNanos,BiasUncertaintyNanos,DriftNanosPerSecond,DriftUncertaintyNanosPerSecond,HardwareClockDiscontinuityCount,Svid,TimeOffsetNanos,State,ReceivedSvTimeNanos,ReceivedSvTimeUncertaintyNanos,Cn0DbHz,PseudorangeRateMetersPerSecond,PseudorangeRateUncertaintyMetersPerSecond,AccumulatedDeltaRangeState,AccumulatedDeltaRangeMeters,AccumulatedDeltaRangeUncertaintyMeters,CarrierFrequencyHz,CarrierCycles,CarrierPhase,CarrierPhaseUncertainty,MultipathIndicator,SnrInDb,ConstellationType,AgcDb,BasebandCn0DbHz,FullInterSignalBiasNanos,FullInterSignalBiasUncertaintyNanos,SatelliteInterSignalBiasNanos,SatelliteInterSignalBiasUncertaintyNanos,CodeType,ChipsetElapsedRealtimeNanos
# 
# UncalAccel,utcTimeMillis,elapsedRealtimeNanos,UncalAccelXMps2,UncalAccelYMps2,UncalAccelZMps2,BiasXMps2,BiasYMps2,BiasZMps2
# 
# Accel,utcTimeMillis,elapsedRealtimeNanos,AccelXMps2,AccelYMps2,AccelZMps2
# 
# UncalGyro,utcTimeMillis,elapsedRealtimeNanos,UncalGyroXRadPerSec,UncalGyroYRadPerSec,UncalGyroZRadPerSec,DriftXRadPerSec,DriftYRadPerSec,DriftZRadPerSec
# 
# Gyro,utcTimeMillis,elapsedRealtimeNanos,GyroXRadPerSec,GyroYRadPerSec,GyroZRadPerSec
# 
# UncalMag,utcTimeMillis,elapsedRealtimeNanos,UncalMagXMicroT,UncalMagYMicroT,UncalMagZMicroT,BiasXMicroT,BiasYMicroT,BiasZMicroT
# 
# Mag,utcTimeMillis,elapsedRealtimeNanos,MagXMicroT,MagYMicroT,MagZMicroT
# 
# OrientationDeg,utcTimeMillis,elapsedRealtimeNanos,yawDeg,rollDeg,pitchDeg
# 
# Fix,Provider,LatitudeDegrees,LongitudeDegrees,AltitudeMeters,SpeedMps,AccuracyMeters,BearingDegrees,UnixTimeMillis,SpeedAccuracyMps,BearingAccuracyDegrees,elapsedRealtimeNanos,VerticalAccuracyMeters,MockLocation,NumberOfUsedSignals,VerticalSpeedAccuracyMps,SolutionType
# 
# Nav,Svid,Type,Status,MessageId,Sub-messageId,Data(Bytes)
# 
# Status,UnixTimeMillis,SignalCount,SignalIndex,ConstellationType,Svid,CarrierFrequencyHz,Cn0DbHz,AzimuthDegrees,ElevationDegrees,UsedInFix,HasAlmanacData,HasEphemerisData,BasebandCn0DbHz
# 
# Agc,utcTimeMillis,TimeNanos,LeapSecond,TimeUncertaintyNanos,FullBiasNanos,BiasNanos,BiasUncertaintyNanos,DriftNanosPerSecond,DriftUncertaintyNanosPerSecond,HardwareClockDiscontinuityCount,AgcDb,CarrierFrequencyHz,ConstellationType
# 
Fix,FLP,32.1687711000,34.8132726000,47.95362851830181,0.13001147,3.964,51.417374,1713027077555,1.0170894,45.0,338291696001511,2.6169577,0,,,
Status,,58,0,1,2,1575420030,38.00,317.0,34.0,1,1,1,33.0
Status,,58,1,1,3,1575420030,37.00,262.0,14.0,1,1,0,32.0
Status,,58,2,1,8,1575420030,42.80,244.0,56.0,1,1,1,37.8
Status,,58,3,1,10,1575420030,34.00,49.0,31.0,1,1,1,29.0
Status,,58,4,1,21,1575420030,39.30,325.0,51.0,1,1,1,34.3
Status,,58,5,1,27,1575420030,40.20,188.0,41.0,1,1,1,35.2
Status,,58,6,1,28,1575420030,30.50,126.0,18.0,1,1,0,25.5
Status,,58,7,1,32,1575420030,40.60,57.0,55.0,1,1,1,35.6
Status,,58,8,3,6,1599750020,31.20,231.0,39.0,1,1,0,26.2
Status,,58,9,3,5,1602562560,40.90,8.0,65.0,1,1,0,35.9
Status,,58,10,3,20,1603124990,25.00,26.0,73.0,1,1,0,20.0
Status,,58,11,3,19,1603687550,24.90,131.0,28.0,1,1,0,19.9
Status,,58,12,3,21,1604249980,38.90,330.0,22.0,1,1,0,33.9
Status,,58,13,3,4,1605374980,23.00,31.0,16.0,0,1,0,18.0
Status,,58,14,5,60,1561097980,36.90,116.0,29.0,1,1,0,31.9
Status,,58,15,5,44,1561097980,20.80,144.0,15.0,0,1,0,15.8
Status,,58,16,5,43,1561097980,35.40,309.0,56.0,1,1,0,30.4
Status,,58,17,5,42,1561097980,43.30,278.0,74.0,1,1,0,38.3
Status,,58,18,5,39,1561097980,24.80,63.0,27.0,1,1,0,19.8
Status,,58,19,5,34,1561097980,36.10,160.0,69.0,1,1,0,31.1
Status,,58,20,5,33,1561097980,29.30,237.0,22.0,0,1,0,24.3
Status,,58,21,5,21,1561097980,39.90,37.0,44.0,1,1,0,34.9
Status,,58,22,5,16,1561097980,28.50,73.0,28.0,1,1,0,23.5
Status,,58,23,5,14,1561097980,42.20,245.0,49.0,1,1,0,37.2
Status,,58,24,5,13,1561097980,24.20,69.0,18.0,1,1,0,19.2
Status,,58,25,5,12,1561097980,40.80,144.0,38.0,1,1,0,35.8
Status,,58,26,5,11,1561097980,39.40,300.0,82.0,1,1,0,34.4
Status,,58,27,5,9,1561097980,29.70,95.0,30.0,1,1,0,24.7
Status,,58,28,5,5,1561097980,38.00,138.0,46.0,1,1,0,33.0
Status,,58,29,5,2,1561097980,24.10,112.0,27.0,0,1,0,19.1
Status,,58,30,6,4,1575420030,19.60,202.0,27.0,0,1,0,14.6
Status,,58,31,6,10,1575420030,35.20,318.0,34.0,1,1,0,30.2
Status,,58,32,6,12,1575420030,28.50,338.0,57.0,1,1,0,23.5
Status,,58,33,6,19,1575420030,29.20,119.0,73.0,1,1,0,24.2
Status,,58,34,6,24,1575420030,31.00,260.0,7.0,1,1,0,26.0
Status,,58,35,6,33,1575420030,31.50,91.0,51.0,1,1,0,26.5
Status,,58,36,1,3,1176450050,27.30,262.0,14.0,1,1,0,22.3
Status,,58,37,1,8,1176450050,29.70,244.0,56.0,1,1,1,24.7
Status,,58,38,1,10,1176450050,21.90,49.0,31.0,1,1,1,16.9
Status,,58,39,1,27,1176450050,28.70,188.0,41.0,1,1,1,23.7
Status,,58,40,1,28,1176450050,16.00,126.0,18.0,0,1,0,11.0
Status,,58,41,1,32,1176450050,22.80,57.0,55.0,1,1,1,17.8
Status,,58,42,6,10,1176450050,26.20,318.0,34.0,1,1,0,21.2
Status,,58,43,6,12,1176450050,25.30,338.0,57.0,1,1,0,20.3
Status,,58,44,6,24,1176450050,23.80,260.0,7.0,1,1,0,18.8
Status,,58,45,6,33,1176450050,24.90,91.0,51.0,1,1,0,19.9
Status,,58,46,5,21,1176450050,29.30,37.0,44.0,1,1,0,24.3
Status,,58,47,5,33,1176450050,26.60,237.0,22.0,0,1,0,21.6
Status,,58,48,5,34,1176450050,26.60,160.0,69.0,1,1,0,21.6
Status,,58,49,5,39,1176450050,24.20,63.0,27.0,1,1,0,19.2
Status,,58,50,5,42,1176450050,23.90,278.0,74.0,1,1,0,18.9
Status,,58,51,5,43,1176450050,27.10,309.0,56.0,1,1,0,22.1
Status,,58,52,5,21,1575420030,35.20,37.0,44.0,1,1,0,30.2
Status,,58,53,5,33,1575420030,25.10,237.0,22.0,1,1,0,20.1
Status,,58,54,5,34,1575420030,33.80,160.0,69.0,1,1,0,28.8
Status,,58,55,5,39,1575420030,30.70,63.0,27.0,1,1,0,25.7
Status,,58,56,5,42,1575420030,37.80,278.0,74.0,1,1,0,32.8
Status,,58,57,5,43,1575420030,36.00,309.0,56.0,1,1,0,31.0
Fix,GPS,32.1687709900,34.8132722900,45.31585693359375,0.0,3.7900925,,1713027079000,1.0069569,,338292694201874,2.5,0,,,
Raw,1713027078417,332296412000000,18,0.0,-1396730000005342789,-0.7691726684570312,34.25081740715541,-137.1602544876685,18.58010122864439,6,2,0.0,16399,579096340796082,11,43.0,-505.6047058105469,0.05019833892583847,16,0.0,0.0,1575420030,,,,0,0.0,1,-57.65,38.0,0.0,0.0,,,C,338292111201719
Raw,1713027078417,332296412000000,18,0.0,-1396730000005342789,-0.7691726684570312,34.25081740715541,-137.1602544876685,18.58010122864439,6,3,0.0,16399,579096337091455,12,42.0,-504.386474609375,0.025497570633888245,16,0.0,0.0,1575420030,,,,0,0.0,1,-57.65,37.0,0.0,0.0,,,C,338292111201719
Raw,1713027078417,332296412000000,18,0.0,-1396730000005342789,-0.7691726684570312,34.25081740715541,-137.1602544876685,18.58010122864439,6,8,0.0,16399,579096346848812,7,47.8,165.79957580566406,0.0387054942548275,16,0.0,0.0,1575420030,,,,0,0.0,1,-57.65,42.8,0.0,0.0,,,C,338292111201719
Raw,1713027078417,332296412000000,18,0.0,-1396730000005342789,-0.7691726684570312,34.25081740715541,-137.1602544876685,18.58010122864439,6,10,0.0,16399,579096341328621,16,39.0,355.62664794921875,0.05640523508191109,16,0.0,0.0,1575420030,,,,0,0.0,1,-57.65,34.0,0.0,0.0,,,C,338292111201719
Raw,1713027078417,332296412000000,18,0.0,-1396730000005342789,-0.7691726684570312,34.25081740715541,-137.1602544876685,18.58010122864439,6,21,0.0,16399,579096344933593,10,44.3,-348.5203857421875,0.043399106711149216,16,0.0,0.0,1575420030,,,,0,0.0,1,-57.65,39.3,0.0,0.0,,,C,338292111201719
Raw,1713027078417,332296412000000,18,0.0,-1396730000005342789,-0.7691726684570312,34.25081740715541,-137.1602544876685,18.58010122864439,6,27,0.0,16399,579096343483341,9,45.2,533.8138427734375,0.04430919513106346,16,0.0,0.0,1575420030,,,,0,0.0,1,-57.65,40.2,0.0,0.0,,,C,338292111201719
Raw,1713027078417,332296412000000,18,0.0,-1396730000005342789,-0.7691726684570312,34.25081740715541,-137.1602544876685,18.58010122864439,6,28,0.0,16399,579096337684715,24,35.5,-510.6150207519531,0.527999997138977,16,0.0,0.0,1575420030,,,,0,0.0,1,-57.65,30.5,0.0,0.0,,,C,338292111201719
Raw,1713027078417,332296412000000,18,0.0,-1396730000005342789,-0.7691726684570312,34.25081740715541,-137.1602544876685,18.58010122864439,6,32,0.0,16399,579096345809951,9,45.6,236.67388916015625,0.04130919650197029,16,0.0,0.0,1575420030,,,,0,0.0,1,-57.65,40.6,0.0,0.0,,,C,338292111201719
Raw,1713027078417,332296412000000,18,0.0,-1396730000005342789,-0.7691726684570312,34.25081740715541,-137.1602544876685,18.58010122864439,6,6,0.0,49359,71478347308869,21,35.2,-528.2423095703125,10.758195877075195,16,0.0,0.0,1599750020,,,,0,0.0,3,-58.74,31.200000000000003,3780.947265625,16.15144920349121,,,C,338292111201719
Raw,1713027078417,332296412000000,18,0.0,-1396730000005342789,-0.7691726684570312,34.25081740715541,-137.1602544876685,18.58010122864439,6,5,0.0,49359,71478352095447,9,44.9,292.6892395019531,0.030719272792339325,16,0.0,0.0,1602562560,,,,0,0.0,3,-58.74,40.9,3780.947265625,16.15144920349121,,,C,338292111201719
Raw,1713027078417,332296412000000,18,0.0,-1396730000005342789,-0.7691726684570312,34.25081740715541,-137.1602544876685,18.58010122864439,6,20,0.0,49359,71478352630078,46,29.0,-210.184326171875,0.8554999828338623,16,0.0,0.0,1603124990,,,,0,0.0,3,-58.74,25.0,3780.947265625,16.15144920349121,,,C,338292111201719
Raw,1713027078417,332296412000000,18,0.0,-1396730000005342789,-0.7691726684570312,34.25081740715541,-137.1602544876685,18.58010122864439,6,19,0.0,49359,71478344096560,53,28.9,538.824951171875,0.9375,16,0.0,0.0,1603687550,,,,0,0.0,3,-58.74,24.9,3780.947265625,16.15144920349121,,,C,338292111201719
Raw,1713027078417,332296412000000,18,0.0,-1396730000005342789,-0.7691726684570312,34.25081740715541,-137.1602544876685,18.58010122864439,6,21,0.0,49359,71478342607785,11,42.9,-752.45263671875,0.0470779612660408,16,0.0,0.0,1604249980,,,,0,0.0,3,-58.74,38.9,3780.947265625,16.15144920349121,,,C,338292111201719
Raw,1713027078417,332296412000000,18,0.0,-1396730000005342789,-0.7691726684570312,34.25081740715541,-137.1602544876685,18.58010122864439,6,4,0.0,49359,71478340887598,61,27.0,687.4755249023438,1.0234999656677246,16,0.0,0.0,1605374980,,,,0,0.0,3,-58.74,23.0,3780.947265625,16.15144920349121,,,C,338292111201719
Raw,1713027078417,332296412000000,18,0.0,-1396730000005342789,-0.7691726684570312,34.25081740715541,-137.1602544876685,18.58010122864439,6,60,0.0,16399,579082288485470,13,41.2,-32.63711166381836,1.2364000082015991,16,0.0,0.0,1561097980,,,,0,0.0,5,-65.94,36.900000000000006,-1544.809814453125,11.611129760742188,,,I,338292111201719
Raw,1713027078417,332296412000000,18,0.0,-1396730000005342789,-0.7691726684570312,34.25081740715541,-137.1602544876685,18.58010122864439,6,43,0.0,16399,579082342778834,14,39.7,-337.7084655761719,0.050082769244909286,16,0.0,0.0,1561097980,,,,0,0.0,5,-65.94,35.400000000000006,-1544.809814453125,11.611129760742188,,,I,338292111201719
Raw,1713027078417,332296412000000,18,0.0,-1396730000005342789,-0.7691726684570312,34.25081740715541,-137.1602544876685,18.58010122864439,6,42,0.0,16399,579082344421021,6,47.6,-80.70223236083984,0.04134079068899155,16,0.0,0.0,1561097980,,,,0,0.0,5,-65.94,43.300000000000004,-1544.809814453125,11.611129760742188,,,I,338292111201719
Raw,1713027078417,332296412000000,18,0.0,-1396730000005342789,-0.7691726684570312,34.25081740715541,-137.1602544876685,18.58010122864439,6,39,0.0,16399,579082287258917,53,29.1,-154.35174560546875,0.8629999756813049,16,0.0,0.0,1561097980,,,,0,0.0,5,-65.94,24.8,-1544.809814453125,11.611129760742188,,,I,338292111201719
Raw,1713027078417,332296412000000,18,0.0,-1396730000005342789,-0.7691726684570312,34.25081740715541,-137.1602544876685,18.58010122864439,6,34,0.0,16399,579082344831998,13,40.4,201.9578399658203,0.04596894234418869,16,0.0,0.0,1561097980,,,,0,0.0,5,-65.94,36.1,-1544.809814453125,11.611129760742188,,,I,338292111201719
Raw,1713027078417,332296412000000,18,0.0,-1396730000005342789,-0.7691726684570312,34.25081740715541,-137.1602544876685,18.58010122864439,6,33,0.0,16399,579082333726558,27,33.6,-513.8592529296875,0.6240000128746033,16,0.0,0.0,1561097980,,,,0,0.0,5,-65.94,29.3,-1544.809814453125,11.611129760742188,,,I,338292111201719
Raw,1713027078417,332296412000000,18,0.0,-1396730000005342789,-0.7691726684570312,34.25081740715541,-137.1602544876685,18.58010122864439,6,21,0.0,16399,579082339254146,10,44.2,386.40423583984375,0.02095322497189045,16,0.0,0.0,1561097980,,,,0,0.0,5,-65.94,39.900000000000006,-1544.809814453125,11.611129760742188,,,I,338292111201719
Raw,1713027078417,332296412000000,18,0.0,-1396730000005342789,-0.7691726684570312,34.25081740715541,-137.1602544876685,18.58010122864439,6,16,0.0,16399,579082286559430,31,32.8,-214.48890686035156,0.684499979019165,16,0.0,0.0,1561097980,,,,0,0.0,5,-65.94,28.499999999999996,-1544.809814453125,11.611129760742188,,,I,338292111201719
Raw,1713027078417,332296412000000,18,0.0,-1396730000005342789,-0.7691726684570312,34.25081740715541,-137.1602544876685,18.58010122864439,6,14,0.0,16399,579082342120804,7,46.5,-342.8171081542969,0.04474407434463501,16,0.0,0.0,1561097980,,,,0,0.0,5,-65.94,42.2,-1544.809814453125,11.611129760742188,,,I,338292111201719
Raw,1713027078417,332296412000000,18,0.0,-1396730000005342789,-0.7691726684570312,34.25081740715541,-137.1602544876685,18.58010122864439,6,13,0.0,16399,579082285360376,53,28.5,-24.206579208374023,0.9359999895095825,16,0.0,0.0,1561097980,,,,0,0.0,5,-65.94,24.2,-1544.809814453125,11.611129760742188,,,I,338292111201719
Raw,1713027078417,332296412000000,18,0.0,-1396730000005342789,-0.7691726684570312,34.25081740715541,-137.1602544876685,18.58010122864439,6,12,0.0,16399,579082338884431,9,45.1,444.5882873535156,0.02185790240764618,16,0.0,0.0,1561097980,,,,0,0.0,5,-65.94,40.800000000000004,-1544.809814453125,11.611129760742188,,,I,338292111201719
Raw,1713027078417,332296412000000,18,0.0,-1396730000005342789,-0.7691726684570312,34.25081740715541,-137.1602544876685,18.58010122864439,6,11,0.0,16399,579082345760130,10,43.7,-110.951416015625,0.04195322468876839,16,0.0,0.0,1561097980,,,,0,0.0,5,-65.94,39.400000000000006,-1544.809814453125,11.611129760742188,,,I,338292111201719
Raw,1713027078417,332296412000000,18,0.0,-1396730000005342789,-0.7691726684570312,34.25081740715541,-137.1602544876685,18.58010122864439,6,9,0.0,16399,579082286543103,27,34.0,-303.7392578125,0.5945000052452087,16,0.0,0.0,1561097980,,,,0,0.0,5,-65.94,29.7,-1544.809814453125,11.611129760742188,,,I,338292111201719
Raw,1713027078417,332296412000000,18,0.0,-1396730000005342789,-0.7691726684570312,34.25081740715541,-137.1602544876685,18.58010122864439,6,5,0.0,16399,579082291868172,11,42.3,-42.63861846923828,0.9107524752616882,16,0.0,0.0,1561097980,,,,0,0.0,5,-65.94,38.0,-1544.809814453125,11.611129760742188,,,I,338292111201719
Raw,1713027078417,332296412000000,18,0.0,-1396730000005342789,-0.7691726684570312,34.25081740715541,-137.1602544876685,18.58010122864439,6,10,0.0,23567,579096331694730,14,39.5,-422.85552978515625,0.06351468712091446,16,0.0,0.0,1575420030,,,,0,0.0,6,-61.36,35.2,-1469.77978515625,14.033061027526855,,,C,338292111201719
Raw,1713027078417,332296412000000,18,0.0,-1396730000005342789,-0.7691726684570312,34.25081740715541,-137.1602544876685,18.58010122864439,6,12,0.0,23567,579096336116008,31,32.8,-292.5860290527344,0.7055000066757202,16,0.0,0.0,1575420030,,,,0,0.0,6,-61.36,28.499999999999996,-1469.77978515625,14.033061027526855,,,C,338292111201719
Raw,1713027078417,332296412000000,18,0.0,-1396730000005342789,-0.7691726684570312,34.25081740715541,-137.1602544876685,18.58010122864439,6,19,0.0,23567,579096338930293,27,33.5,-122.72990417480469,0.6585000157356262,16,0.0,0.0,1575420030,,,,0,0.0,6,-61.36,29.2,-1469.77978515625,14.033061027526855,,,C,338292111201719
Raw,1713027078417,332296412000000,18,0.0,-1396730000005342789,-0.7691726684570312,34.25081740715541,-137.1602544876685,18.58010122864439,6,24,0.0,23567,579096322887580,21,35.3,323.8512878417969,0.5684999823570251,16,0.0,0.0,1575420030,,,,0,0.0,6,-61.36,30.999999999999996,-1469.77978515625,14.033061027526855,,,C,338292111201719
Raw,1713027078417,332296412000000,18,0.0,-1396730000005342789,-0.7691726684570312,34.25081740715541,-137.1602544876685,18.58010122864439,6,33,0.0,23567,579096336146651,21,35.8,120.0848159790039,0.565500020980835,16,0.0,0.0,1575420030,,,,0,0.0,6,-61.36,31.499999999999996,-1469.77978515625,14.033061027526855,,,C,338292111201719
Raw,1713027078417,332296412000000,18,0.0,-1396730000005342789,-0.7691726684570312,34.25081740715541,-137.1602544876685,18.58010122864439,6,3,0.0,81935,579096337099246,8,32.3,-503.9033203125,3.8995773792266846,16,0.0,0.0,1176450050,,,,0,0.0,1,-38.83,27.299999999999997,-7861.54052734375,6.015102386474609,,,Q,338292111201719
Raw,1713027078417,332296412000000,18,0.0,-1396730000005342789,-0.7691726684570312,34.25081740715541,-137.1602544876685,18.58010122864439,6,8,0.0,81935,579096346856653,7,34.7,166.0158233642578,0.09900851547718048,16,0.0,0.0,1176450050,,,,0,0.0,1,-38.83,29.700000000000003,-7861.54052734375,6.015102386474609,,,Q,338292111201719
Raw,1713027078417,332296412000000,18,0.0,-1396730000005342789,-0.7691726684570312,34.25081740715541,-137.1602544876685,18.58010122864439,6,27,0.0,81935,579096343491200,8,33.7,532.78173828125,0.6360000371932983,16,0.0,0.0,1176450050,,,,0,0.0,1,-38.83,28.700000000000003,-7861.54052734375,6.015102386474609,,,Q,338292111201719
Raw,1713027078417,332296412000000,18,0.0,-1396730000005342789,-0.7691726684570312,34.25081740715541,-137.1602544876685,18.58010122864439,6,32,0.0,81935,579096345817816,14,27.8,237.5379638671875,1.0190000534057617,16,0.0,0.0,1176450050,,,,0,0.0,1,-38.83,22.8,-7861.54052734375,6.015102386474609,,,Q,338292111201719
Raw,1713027078417,332296412000000,18,0.0,-1396730000005342789,-0.7691726684570312,34.25081740715541,-137.1602544876685,18.58010122864439,6,10,0.0,81935,579096331701101,9,31.5,-424.0211181640625,0.7579999566078186,16,0.0,0.0,1176450050,,,,0,0.0,6,-38.83,26.2,-7858.0908203125,81.06987762451172,,,Q,338292111201719
Raw,1713027078417,332296412000000,18,0.0,-1396730000005342789,-0.7691726684570312,34.25081740715541,-137.1602544876685,18.58010122864439,6,12,0.0,81935,579096336122380,10,30.6,-289.0641784667969,0.8255000114440918,16,0.0,0.0,1176450050,,,,0,0.0,6,-38.83,25.3,-7858.0908203125,81.06987762451172,,,Q,338292111201719
Raw,1713027078417,332296412000000,18,0.0,-1396730000005342789,-0.7691726684570312,34.25081740715541,-137.1602544876685,18.58010122864439,6,24,0.0,81935,579096322893924,12,29.1,323.4787292480469,0.8644999861717224,16,0.0,0.0,1176450050,,,,0,0.0,6,-38.83,23.8,-7858.0908203125,81.06987762451172,,,Q,338292111201719
Raw,1713027078417,332296412000000,18,0.0,-1396730000005342789,-0.7691726684570312,34.25081740715541,-137.1602544876685,18.58010122864439,6,33,0.0,81935,579096336153015,11,30.2,120.08625793457031,4.011271953582764,16,0.0,0.0,1176450050,,,,0,0.0,6,-38.83,24.9,-7858.0908203125,81.06987762451172,,,Q,338292111201719
Raw,1713027078417,332296412000000,18,0.0,-1396730000005342789,-0.7691726684570312,34.25081740715541,-137.1602544876685,18.58010122864439,6,21,0.0,16399,579082339260442,7,33.8,386.75262451171875,0.14850851893424988,16,0.0,0.0,1176450050,,,,0,0.0,5,-38.83,29.299999999999997,-7849.55810546875,78.69770812988281,,,Q,338292111201719
Raw,1713027078417,332296412000000,18,0.0,-1396730000005342789,-0.7691726684570312,34.25081740715541,-137.1602544876685,18.58010122864439,6,33,0.0,16399,579082333732810,9,31.1,-512.7379760742188,5.461260795593262,16,0.0,0.0,1176450050,,,,0,0.0,5,-38.83,26.6,-7849.55810546875,78.69770812988281,,,Q,338292111201719
Raw,1713027078417,332296412000000,18,0.0,-1396730000005342789,-0.7691726684570312,34.25081740715541,-137.1602544876685,18.58010122864439,6,34,0.0,16399,579082344838271,9,31.1,200.4732208251953,0.7774999737739563,16,0.0,0.0,1176450050,,,,0,0.0,5,-38.83,26.6,-7849.55810546875,78.69770812988281,,,Q,338292111201719
Raw,1713027078417,332296412000000,18,0.0,-1396730000005342789,-0.7691726684570312,34.25081740715541,-137.1602544876685,18.58010122864439,6,39,0.0,16399,579082287265228,11,28.7,-153.2700653076172,6.321224212646484,16,0.0,0.0,1176450050,,,,0,0.0,5,-38.83,24.2,-7849.55810546875,78.69770812988281,,,Q,338292111201719
Raw,1713027078417,332296412000000,18,0.0,-1396730000005342789,-0.7691726684570312,34.25081740715541,-137.1602544876685,18.58010122864439,6,42,0.0,16399,579082344427293,12,28.4,-81.99092102050781,0.9375,16,0.0,0.0,1176450050,,,,0,0.0,5,-38.83,23.9,-7849.55810546875,78.69770812988281,,,Q,338292111201719
Raw,1713027078417,332296412000000,18,0.0,-1396730000005342789,-0.7691726684570312,34.25081740715541,-137.1602544876685,18.58010122864439,6,43,0.0,16399,579082342785120,8,31.6,-337.0355529785156,0.7745000123977661,16,0.0,0.0,1176450050,,,,0,0.0,5,-38.83,27.1,-7849.55810546875,78.69770812988281,,,Q,338292111201719
Raw,1713027078417,332296412000000,18,0.0,-1396730000005342789,-0.7691726684570312,34.25081740715541,-137.1602544876685,18.58010122864439,6,21,0.0,16399,579082339254061,4,42.2,386.7810974121094,0.0995146855711937,16,0.0,0.0,1575420030,,,,0,0.0,5,-61.36,35.2,-1461.5054931640625,75.88536071777344,,,P,338292111201719
Raw,1713027078417,332296412000000,18,0.0,-1396730000005342789,-0.7691726684570312,34.25081740715541,-137.1602544876685,18.58010122864439,6,33,0.0,16399,579082333726589,10,32.1,-512.2719116210938,5.263172149658203,16,0.0,0.0,1575420030,,,,0,0.0,5,-61.36,25.1,-1461.5054931640625,75.88536071777344,,,P,338292111201719
Raw,1713027078417,332296412000000,18,0.0,-1396730000005342789,-0.7691726684570312,34.25081740715541,-137.1602544876685,18.58010122864439,6,34,0.0,16399,579082344831916,5,40.8,202.3635711669922,0.09490714967250824,16,0.0,0.0,1575420030,,,,0,0.0,5,-61.36,33.8,-1461.5054931640625,75.88536071777344,,,P,338292111201719
Raw,1713027078417,332296412000000,18,0.0,-1396730000005342789,-0.7691726684570312,34.25081740715541,-137.1602544876685,18.58010122864439,6,39,0.0,16399,579082287258833,6,37.7,-153.66099548339844,0.6862728595733643,16,0.0,0.0,1575420030,,,,0,0.0,5,-61.36,30.700000000000003,-1461.5054931640625,75.88536071777344,,,P,338292111201719
Raw,1713027078417,332296412000000,18,0.0,-1396730000005342789,-0.7691726684570312,34.25081740715541,-137.1602544876685,18.58010122864439,6,42,0.0,16399,579082344420924,3,44.8,-80.30254364013672,0.08999757468700409,16,0.0,0.0,1575420030,,,,0,0.0,5,-61.36,37.8,-1461.5054931640625,75.88536071777344,,,P,338292111201719
Raw,1713027078417,332296412000000,18,0.0,-1396730000005342789,-0.7691726684570312,34.25081740715541,-137.1602544876685,18.58010122864439,6,43,0.0,16399,579082342778756,3,43.0,-337.31072998046875,0.08789195865392685,16,0.0,0.0,1575420030,,,,0,0.0,5,-61.36,36.0,-1461.5054931640625,75.88536071777344,,,P,338292111201719
Fix,FLP,32.1687711000,34.8132724000,47.30269241706786,0.04240608,3.964,,1713027078554,1.0069569,,338292694201874,2.4709222,0,,,
Status,1713027079000,58,0,1,2,1575420030,40.20,317.0,34.0,1,1,1,35.2
Status,1713027079000,58,1,1,3,1575420030,38.40,262.0,14.0,1,1,0,33.4
Status,1713027079000,58,2,1,8,1575420030,44.80,244.0,56.0,1,1,1,39.8
Status,1713027079000,58,3,1,10,1575420030,36.70,49.0,31.0,1,1,1,31.7
Status,1713027079000,58,4,1,21,1575420030,41.70,325.0,51.0,1,1,1,36.7
Status,1713027079000,58,5,1,27,1575420030,42.70,188.0,41.0,1,1,1,37.7
Status,1713027079000,58,6,1,28,1575420030,32.80,126.0,18.0,1,1,0,27.8
Status,1713027079000,58,7,1,32,1575420030,41.80,57.0,55.0,1,1,1,36.8
Status,1713027079000,58,8,3,6,1599750020,32.80,231.0,39.0,1,1,0,27.8
Status,1713027079000,58,9,3,5,1602562560,42.90,8.0,65.0,1,1,0,37.9
Status,1713027079000,58,10,3,20,1603124990,26.80,26.0,73.0,1,1,0,21.8
Status,1713027079000,58,11,3,19,1603687550,26.30,131.0,28.0,1,1,0,21.3
Status,1713027079000,58,12,3,21,1604249980,40.50,330.0,22.0,1,1,0,35.5
Status,1713027079000,58,13,3,4,1605374980,26.30,31.0,16.0,0,1,0,21.3
Status,1713027079000,58,14,5,60,1561097980,38.90,116.0,29.0,1,1,0,33.9
Status,1713027079000,58,15,5,44,1561097980,20.80,144.0,15.0,0,1,0,15.8
Status,1713027079000,58,16,5,43,1561097980,37.70,309.0,56.0,1,1,0,32.7
Status,1713027079000,58,17,5,42,1561097980,45.30,278.0,74.0,1,1,0,40.3
Status,1713027079000,58,18,5,39,1561097980,27.20,63.0,27.0,1,1,0,22.2
Status,1713027079000,58,19,5,34,1561097980,38.70,160.0,69.0,1,1,0,33.7
Status,1713027079000,58,20,5,33,1561097980,31.10,237.0,22.0,0,1,0,26.1
Status,1713027079000,58,21,5,21,1561097980,42.10,37.0,44.0,1,1,0,37.1
Status,1713027079000,58,22,5,16,1561097980,31.20,73.0,28.0,1,1,0,26.2
Status,1713027079000,58,23,5,14,1561097980,44.30,245.0,49.0,1,1,0,39.3
Status,1713027079000,58,24,5,13,1561097980,25.70,69.0,18.0,1,1,0,20.7
Status,1713027079000,58,25,5,12,1561097980,43.20,144.0,38.0,1,1,0,38.2
Status,1713027079000,58,26,5,11,1561097980,41.80,300.0,82.0,1,1,0,36.8
Status,1713027079000,58,27,5,9,1561097980,31.70,95.0,30.0,1,1,0,26.7
Status,1713027079000,58,28,5,5,1561097980,40.00,138.0,46.0,1,1,0,35.0
Status,1713027079000,58,29,5,2,1561097980,24.10,112.0,27.0,0,1,0,19.1
Status,1713027079000,58,30,6,4,1575420030,19.60,202.0,27.0,0,1,0,14.6
Status,1713027079000,58,31,6,10,1575420030,39.00,318.0,34.0,1,1,0,34.0
Status,1713027079000,58,32,6,12,1575420030,32.90,338.0,57.0,1,1,0,27.9
Status,1713027079000,58,33,6,19,1575420030,32.60,119.0,73.0,1,1,0,27.6
Status,1713027079000,58,34,6,24,1575420030,34.70,260.0,7.0,1,1,0,29.7
Status,1713027079000,58,35,6,33,1575420030,34.90,91.0,51.0,1,1,0,29.9
Status,1713027079000,58,36,1,3,1176450050,31.70,262.0,14.0,1,1,0,26.7
Status,1713027079000,58,37,1,8,1176450050,33.20,244.0,56.0,1,1,1,28.2
Status,1713027079000,58,38,1,10,1176450050,21.90,49.0,31.0,1,1,1,16.9
Status,1713027079000,58,39,1,27,1176450050,31.60,188.0,41.0,1,1,1,26.6
Status,1713027079000,58,40,1,28,1176450050,16.00,126.0,18.0,0,1,0,11.0
Status,1713027079000,58,41,1,32,1176450050,25.00,57.0,55.0,1,1,1,20.0
Status,1713027079000,58,42,6,10,1176450050,29.20,318.0,34.0,1,1,0,24.2
Status,1713027079000,58,43,6,12,1176450050,27.80,338.0,57.0,1,1,0,22.8
Status,1713027079000,58,44,6,24,1176450050,27.10,260.0,7.0,1,1,0,22.1
Status,1713027079000,58,45,6,33,1176450050,27.30,91.0,51.0,1,1,0,22.3
Status,1713027079000,58,46,5,21,1176450050,31.50,37.0,44.0,1,1,0,26.5
Status,1713027079000,58,47,5,33,1176450050,29.10,237.0,22.0,0,1,0,24.1
Status,1713027079000,58,48,5,34,1176450050,28.60,160.0,69.0,1,1,0,23.6
Status,1713027079000,58,49,5,39,1176450050,26.60,63.0,27.0,1,1,0,21.6
Status,1713027079000,58,50,5,42,1176450050,28.10,278.0,74.0,1,1,0,23.1
Status,1713027079000,58,51,5,43,1176450050,29.80,309.0,56.0,1,1,0,24.8
Status,1713027079000,58,52,5,21,1575420030,37.50,37.0,44.0,1,1,0,32.5
Status,1713027079000,58,53,5,33,1575420030,27.40,237.0,22.0,1,1,0,22.4
Status,1713027079000,58,54,5,34,1575420030,37.10,160.0,69.0,1,1,0,32.1
Status,1713027079000,58,55,5,39,1575420030,34.00,63.0,27.0,0,1,0,29.0
Status,1713027079000,58,56,5,42,1575420030,42.00,278.0,74.0,1,1,0,37.0
Status,1713027079000,58,57,5,43,1575420030,39.50,309.0,56.0,1,1,0,34.5
Raw,1713027079417,332297412000000,18,0.0,-1396730000005342923,-0.7902164459228516,31.070892873685807,-136.72249487588638,17.17603654932611,6,2,0.0,16399,579097340797767,9,45.2,-505.4778747558594,0.048809196799993515,16,0.0,0.0,1575420030,,,,0,0.0,1,-56.0,40.2,0.0,0.0,,,C,338293119580989
Raw,1713027079417,332297412000000,18,0.0,-1396730000005342923,-0.7902164459228516,31.070892873685807,-136.72249487588638,17.17603654932611,6,3,0.0,16399,579097337093142,11,43.4,-504.374755859375,0.02469833754003048,16,0.0,0.0,1575420030,,,,0,0.0,1,-56.0,38.4,0.0,0.0,,,C,338293119580989
Raw,1713027079417,332297412000000,18,0.0,-1396730000005342923,-0.7902164459228516,31.070892873685807,-136.72249487588638,17.17603654932611,6,8,0.0,16399,579097346848258,6,49.8,165.98670959472656,0.037792082875967026,16,0.0,0.0,1575420030,,,,0,0.0,1,-56.0,44.8,0.0,0.0,,,C,338293119580989
Raw,1713027079417,332297412000000,18,0.0,-1396730000005342923,-0.7902164459228516,31.070892873685807,-136.72249487588638,17.17603654932611,6,10,0.0,16399,579097341327440,13,41.7,355.7349548339844,0.05039195343852043,16,0.0,0.0,1575420030,,,,0,0.0,1,-56.0,36.7,0.0,0.0,,,C,338293119580989
Raw,1713027079417,332297412000000,18,0.0,-1396730000005342923,-0.7902164459228516,31.070892873685807,-136.72249487588638,17.17603654932611,6,21,0.0,16399,579097344934759,8,46.7,-348.3982849121094,0.04220025613903999,16,0.0,0.0,1575420030,,,,0,0.0,1,-56.0,41.7,0.0,0.0,,,C,338293119580989
Raw,1713027079417,332297412000000,18,0.0,-1396730000005342923,-0.7902164459228516,31.070892873685807,-136.72249487588638,17.17603654932611,6,27,0.0,16399,579097343481574,7,47.7,533.9739990234375,0.043205492198467255,16,0.0,0.0,1575420030,,,,0,0.0,1,-56.0,42.7,0.0,0.0,,,C,338293119580989
Raw,1713027079417,332297412000000,18,0.0,-1396730000005342923,-0.7902164459228516,31.070892873685807,-136.72249487588638,17.17603654932611,6,28,0.0,16399,579097337686387,19,37.8,-510.6340637207031,0.4580000042915344,16,0.0,0.0,1575420030,,,,0,0.0,1,-56.0,32.8,0.0,0.0,,,C,338293119580989
Raw,1713027079417,332297412000000,18,0.0,-1396730000005342923,-0.7902164459228516,31.070892873685807,-136.72249487588638,17.17603654932611,6,32,0.0,16399,579097345809170,8,46.8,236.8504180908203,0.04070025682449341,16,0.0,0.0,1575420030,,,,0,0.0,1,-56.0,41.8,0.0,0.0,,,C,338293119580989
Raw,1713027079417,332297412000000,18,0.0,-1396730000005342923,-0.7902164459228516,31.070892873685807,-136.72249487588638,17.17603654932611,6,6,0.0,49359,71479347310646,19,36.8,-529.4600219726562,0.5130000114440918,16,0.0,0.0,1599750020,,,,0,0.0,3,-57.74,32.8,3781.804931640625,15.25079345703125,,,C,338293119580989
Raw,1713027079417,332297412000000,18,0.0,-1396730000005342923,-0.7902164459228516,31.070892873685807,-136.72249487588638,17.17603654932611,6,5,0.0,49359,71479352094465,7,46.9,292.809326171875,0.0296342633664608,16,0.0,0.0,1602562560,,,,0,0.0,3,-57.74,42.9,3781.804931640625,15.25079345703125,,,C,338293119580989
Raw,1713027079417,332297412000000,18,0.0,-1396730000005342923,-0.7902164459228516,31.070892873685807,-136.72249487588638,17.17603654932611,6,20,0.0,49359,71479352630900,40,30.8,-209.2399444580078,0.7954999804496765,16,0.0,0.0,1603124990,,,,0,0.0,3,-57.74,26.8,3781.804931640625,15.25079345703125,,,C,338293119580989
Raw,1713027079417,332297412000000,18,0.0,-1396730000005342923,-0.7902164459228516,31.070892873685807,-136.72249487588638,17.17603654932611,6,19,0.0,49359,71479344094948,40,30.3,539.3203125,0.8075000047683716,16,0.0,0.0,1603687550,,,,0,0.0,3,-57.74,26.3,3781.804931640625,15.25079345703125,,,C,338293119580989
Raw,1713027079417,332297412000000,18,0.0,-1396730000005342923,-0.7902164459228516,31.070892873685807,-136.72249487588638,17.17603654932611,6,21,0.0,49359,71479342610291,9,44.5,-752.3253173828125,0.04571378231048584,16,0.0,0.0,1604249980,,,,0,0.0,3,-57.74,40.5,3781.804931640625,15.25079345703125,,,C,338293119580989
Raw,1713027079417,332297412000000,18,0.0,-1396730000005342923,-0.7902164459228516,31.070892873685807,-136.72249487588638,17.17603654932611,6,4,0.0,49359,71479340885271,40,30.3,688.9507446289062,0.8134999871253967,16,0.0,0.0,1605374980,,,,0,0.0,3,-57.74,26.3,3781.804931640625,15.25079345703125,,,C,338293119580989
Raw,1713027079417,332297412000000,18,0.0,-1396730000005342923,-0.7902164459228516,31.070892873685807,-136.72249487588638,17.17603654932611,6,60,0.0,16399,579083288485590,11,43.2,-32.761940002441406,1.0679999589920044,16,0.0,0.0,1561097980,,,,0,0.0,5,-63.87,38.900000000000006,-1544.645263671875,11.239644050598145,,,I,338293119580989
Raw,1713027079417,332297412000000,18,0.0,-1396730000005342923,-0.7902164459228516,31.070892873685807,-136.72249487588638,17.17603654932611,6,43,0.0,16399,579083342779958,12,42.0,-337.5367126464844,0.04806635528802872,16,0.0,0.0,1561097980,,,,0,0.0,5,-63.87,37.7,-1544.645263671875,11.239644050598145,,,I,338293119580989
Raw,1713027079417,332297412000000,18,0.0,-1396730000005342923,-0.7902164459228516,31.070892873685807,-136.72249487588638,17.17603654932611,6,42,0.0,16399,579083344421287,5,49.6,-80.5439453125,0.04053422436118126,16,0.0,0.0,1561097980,,,,0,0.0,5,-63.87,45.300000000000004,-1544.645263671875,11.239644050598145,,,I,338293119580989
Raw,1713027079417,332297412000000,18,0.0,-1396730000005342923,-0.7902164459228516,31.070892873685807,-136.72249487588638,17.17603654932611,6,39,0.0,16399,579083287259426,35,31.5,-154.1309051513672,0.7429999709129333,16,0.0,0.0,1561097980,,,,0,0.0,5,-63.87,27.2,-1544.645263671875,11.239644050598145,,,I,338293119580989
Raw,1713027079417,332297412000000,18,0.0,-1396730000005342923,-0.7902164459228516,31.070892873685807,-136.72249487588638,17.17603654932611,6,34,0.0,16399,579083344831322,11,43.0,202.12794494628906,0.04425979033112526,16,0.0,0.0,1561097980,,,,0,0.0,5,-63.87,38.7,-1544.645263671875,11.239644050598145,,,I,338293119580989
Raw,1713027079417,332297412000000,18,0.0,-1396730000005342923,-0.7902164459228516,31.070892873685807,-136.72249487588638,17.17603654932611,6,33,0.0,16399,579083333728290,21,35.4,-513.5424194335938,0.5339999794960022,16,0.0,0.0,1561097980,,,,0,0.0,5,-63.87,31.099999999999998,-1544.645263671875,11.239644050598145,,,I,338293119580989
Raw,1713027079417,332297412000000,18,0.0,-1396730000005342923,-0.7902164459228516,31.070892873685807,-136.72249487588638,17.17603654932611,6,21,0.0,16399,579083339252858,7,46.4,386.407470703125,0.01924407295882702,16,0.0,0.0,1561097980,,,,0,0.0,5,-63.87,42.1,-1544.645263671875,11.239644050598145,,,I,338293119580989
Raw,1713027079417,332297412000000,18,0.0,-1396730000005342923,-0.7902164459228516,31.070892873685807,-136.72249487588638,17.17603654932611,6,16,0.0,16399,579083286560167,21,35.5,-214.02801513671875,0.5444999933242798,16,0.0,0.0,1561097980,,,,0,0.0,5,-63.87,31.2,-1544.645263671875,11.239644050598145,,,I,338293119580989
Raw,1713027079417,332297412000000,18,0.0,-1396730000005342923,-0.7902164459228516,31.070892873685807,-136.72249487588638,17.17603654932611,6,14,0.0,16399,579083342121954,6,48.6,-342.6446838378906,0.043822284787893295,16,0.0,0.0,1561097980,,,,0,0.0,5,-63.87,44.300000000000004,-1544.645263671875,11.239644050598145,,,I,338293119580989
Raw,1713027079417,332297412000000,18,0.0,-1396730000005342923,-0.7902164459228516,31.070892873685807,-136.72249487588638,17.17603654932611,6,13,0.0,16399,579083285360442,46,30.0,-24.398618698120117,0.8059999942779541,16,0.0,0.0,1561097980,,,,0,0.0,5,-63.87,25.7,-1544.645263671875,11.239644050598145,,,I,338293119580989
Raw,1713027079417,332297412000000,18,0.0,-1396730000005342923,-0.7902164459228516,31.070892873685807,-136.72249487588638,17.17603654932611,6,12,0.0,16399,579083338882950,6,47.5,444.618408203125,0.02034078910946846,16,0.0,0.0,1561097980,,,,0,0.0,5,-63.87,43.2,-1544.645263671875,11.239644050598145,,,I,338293119580989
Raw,1713027079417,332297412000000,18,0.0,-1396730000005342923,-0.7902164459228516,31.070892873685807,-136.72249487588638,17.17603654932611,6,11,0.0,16399,579083345760505,8,46.1,-110.7729263305664,0.040743377059698105,16,0.0,0.0,1561097980,,,,0,0.0,5,-63.87,41.800000000000004,-1544.645263671875,11.239644050598145,,,I,338293119580989
Raw,1713027079417,332297412000000,18,0.0,-1396730000005342923,-0.7902164459228516,31.070892873685807,-136.72249487588638,17.17603654932611,6,9,0.0,16399,579083286544117,21,36.0,-303.2687683105469,0.5145000219345093,16,0.0,0.0,1561097980,,,,0,0.0,5,-63.87,31.7,-1544.645263671875,11.239644050598145,,,I,338293119580989
Raw,1713027079417,332297412000000,18,0.0,-1396730000005342923,-0.7902164459228516,31.070892873685807,-136.72249487588638,17.17603654932611,6,5,0.0,16399,579083291868314,9,44.3,-42.431758880615234,1.273937463760376,16,0.0,0.0,1561097980,,,,0,0.0,5,-63.87,40.0,-1544.645263671875,11.239644050598145,,,I,338293119580989
Raw,1713027079417,332297412000000,18,0.0,-1396730000005342923,-0.7902164459228516,31.070892873685807,-136.72249487588638,17.17603654932611,6,10,0.0,23567,579097331696144,10,43.3,-423.2796630859375,0.05989910662174225,16,0.0,0.0,1575420030,,,,0,0.0,6,-59.69,39.0,-1469.199462890625,13.552139282226562,,,C,338293119580989
Raw,1713027079417,332297412000000,18,0.0,-1396730000005342923,-0.7902164459228516,31.070892873685807,-136.72249487588638,17.17603654932611,6,12,0.0,23567,579097336116982,19,37.2,-291.3032531738281,0.07009553164243698,16,0.0,0.0,1575420030,,,,0,0.0,6,-59.69,32.900000000000006,-1469.199462890625,13.552139282226562,,,C,338293119580989
Raw,1713027079417,332297412000000,18,0.0,-1396730000005342923,-0.7902164459228516,31.070892873685807,-136.72249487588638,17.17603654932611,6,19,0.0,23567,579097338930714,19,36.9,-121.44025421142578,0.07309553027153015,16,0.0,0.0,1575420030,,,,0,0.0,6,-59.69,32.6,-1469.199462890625,13.552139282226562,,,C,338293119580989
Raw,1713027079417,332297412000000,18,0.0,-1396730000005342923,-0.7902164459228516,31.070892873685807,-136.72249487588638,17.17603654932611,6,24,0.0,23567,579097322886501,16,39.0,325.0977783203125,0.06930868327617645,16,0.0,0.0,1575420030,,,,0,0.0,6,-59.69,34.7,-1469.199462890625,13.552139282226562,,,C,338293119580989
Raw,1713027079417,332297412000000,18,0.0,-1396730000005342923,-0.7902164459228516,31.070892873685807,-136.72249487588638,17.17603654932611,6,33,0.0,23567,579097336146249,16,39.2,121.4561538696289,0.06630868464708328,16,0.0,0.0,1575420030,,,,0,0.0,6,-59.69,34.900000000000006,-1469.199462890625,13.552139282226562,,,C,338293119580989
Raw,1713027079417,332297412000000,18,0.0,-1396730000005342923,-0.7902164459228516,31.070892873685807,-136.72249487588638,17.17603654932611,6,3,0.0,81935,579097337100933,6,36.7,-504.6493225097656,2.3760368824005127,16,0.0,0.0,1176450050,,,,0,0.0,1,-37.73,31.700000000000003,-7861.53955078125,6.015183925628662,,,Q,338293119580989
Raw,1713027079417,332297412000000,18,0.0,-1396730000005342923,-0.7902164459228516,31.070892873685807,-136.72249487588638,17.17603654932611,6,8,0.0,81935,579097346856103,5,38.2,165.76292419433594,0.05711478739976883,16,0.0,0.0,1176450050,,,,0,0.0,1,-37.73,33.2,-7861.53955078125,6.015183925628662,,,Q,338293119580989
Raw,1713027079417,332297412000000,18,0.0,-1396730000005342923,-0.7902164459228516,31.070892873685807,-136.72249487588638,17.17603654932611,6,27,0.0,81935,579097343489422,6,36.6,533.737060546875,6.941941261291504,16,0.0,0.0,1176450050,,,,0,0.0,1,-37.73,31.6,-7861.53955078125,6.015183925628662,,,Q,338293119580989
Raw,1713027079417,332297412000000,18,0.0,-1396730000005342923,-0.7902164459228516,31.070892873685807,-136.72249487588638,17.17603654932611,6,32,0.0,81935,579097345817041,10,30.0,236.56105041503906,3.156183958053589,16,0.0,0.0,1176450050,,,,0,0.0,1,-37.73,25.0,-7861.53955078125,6.015183925628662,,,Q,338293119580989
Raw,1713027079417,332297412000000,18,0.0,-1396730000005342923,-0.7902164459228516,31.070892873685807,-136.72249487588638,17.17603654932611,6,10,0.0,81935,579097331702513,7,34.5,-423.3545837402344,2.39996075630188,16,0.0,0.0,1176450050,,,,0,0.0,6,-37.73,29.2,-7857.53662109375,74.78070831298828,,,Q,338293119580989
Raw,1713027079417,332297412000000,18,0.0,-1396730000005342923,-0.7902164459228516,31.070892873685807,-136.72249487588638,17.17603654932611,6,12,0.0,81935,579097336123352,8,33.1,-291.3066711425781,0.655500054359436,16,0.0,0.0,1176450050,,,,0,0.0,6,-37.73,27.8,-7857.53662109375,74.78070831298828,,,Q,338293119580989
Raw,1713027079417,332297412000000,18,0.0,-1396730000005342923,-0.7902164459228516,31.070892873685807,-136.72249487588638,17.17603654932611,6,24,0.0,81935,579097322892850,8,32.4,325.0841369628906,0.684499979019165,16,0.0,0.0,1176450050,,,,0,0.0,6,-37.73,27.099999999999998,-7857.53662109375,74.78070831298828,,,Q,338293119580989
Raw,1713027079417,332297412000000,18,0.0,-1396730000005342923,-0.7902164459228516,31.070892873685807,-136.72249487588638,17.17603654932611,6,33,0.0,81935,579097336152611,8,32.6,121.4869613647461,1.6046251058578491,16,0.0,0.0,1176450050,,,,0,0.0,6,-37.73,27.3,-7857.53662109375,74.78070831298828,,,Q,338293119580989
Raw,1713027079417,332297412000000,18,0.0,-1396730000005342923,-0.7902164459228516,31.070892873685807,-136.72249487588638,17.17603654932611,6,21,0.0,16399,579083339259156,6,36.0,386.1674499511719,0.11558473855257034,16,0.0,0.0,1176450050,,,,0,0.0,5,-37.73,31.5,-7849.42919921875,72.41315460205078,,,Q,338293119580989
Raw,1713027079417,332297412000000,18,0.0,-1396730000005342923,-0.7902164459228516,31.070892873685807,-136.72249487588638,17.17603654932611,6,33,0.0,16399,579083333734531,7,33.6,-513.8352661132812,0.6809999942779541,16,0.0,0.0,1176450050,,,,0,0.0,5,-37.73,29.1,-7849.42919921875,72.41315460205078,,,Q,338293119580989
Raw,1713027079417,332297412000000,18,0.0,-1396730000005342923,-0.7902164459228516,31.070892873685807,-136.72249487588638,17.17603654932611,6,34,0.0,16399,579083344837607,8,33.1,202.1168670654297,0.6675000190734863,16,0.0,0.0,1176450050,,,,0,0.0,5,-37.73,28.6,-7849.42919921875,72.41315460205078,,,Q,338293119580989
Raw,1713027079417,332297412000000,18,0.0,-1396730000005342923,-0.7902164459228516,31.070892873685807,-136.72249487588638,17.17603654932611,6,39,0.0,16399,579083287265753,9,31.1,-154.32386779785156,0.781999945640564,16,0.0,0.0,1176450050,,,,0,0.0,5,-37.73,26.6,-7849.42919921875,72.41315460205078,,,Q,338293119580989
Raw,1713027079417,332297412000000,18,0.0,-1396730000005342923,-0.7902164459228516,31.070892873685807,-136.72249487588638,17.17603654932611,6,42,0.0,16399,579083344427558,8,32.6,-80.85482788085938,3.113121509552002,16,0.0,0.0,1176450050,,,,0,0.0,5,-37.73,28.1,-7849.42919921875,72.41315460205078,,,Q,338293119580989
Raw,1713027079417,332297412000000,18,0.0,-1396730000005342923,-0.7902164459228516,31.070892873685807,-136.72249487588638,17.17603654932611,6,43,0.0,16399,579083342786251,7,34.3,-337.8206481933594,1.6090636253356934,16,0.0,0.0,1176450050,,,,0,0.0,5,-37.73,29.799999999999997,-7849.42919921875,72.41315460205078,,,Q,338293119580989
Raw,1713027079417,332297412000000,18,0.0,-1396730000005342923,-0.7902164459228516,31.070892873685807,-136.72249487588638,17.17603654932611,6,21,0.0,16399,579083339252778,3,44.5,386.14599609375,0.09749757498502731,16,0.0,0.0,1575420030,,,,0,0.0,5,-59.69,37.5,-1461.51416015625,69.47059631347656,,,P,338293119580989
Raw,1713027079417,332297412000000,18,0.0,-1396730000005342923,-0.7902164459228516,31.070892873685807,-136.72249487588638,17.17603654932611,6,33,0.0,16399,579083333728298,8,34.4,-513.7051391601562,3.52133846282959,16,0.0,0.0,1575420030,,,,0,0.0,5,-59.69,27.4,-1461.51416015625,69.47059631347656,,,P,338293119580989
Raw,1713027079417,332297412000000,18,0.0,-1396730000005342923,-0.7902164459228516,31.070892873685807,-136.72249487588638,17.17603654932611,6,34,0.0,16399,579083344831237,3,44.1,201.83261108398438,0.08999757468700409,16,0.0,0.0,1575420030,,,,0,0.0,5,-59.69,37.1,-1461.51416015625,69.47059631347656,,,P,338293119580989
Raw,1713027079417,332297412000000,18,0.0,-1396730000005342923,-0.7902164459228516,31.070892873685807,-136.72249487588638,17.17603654932611,6,39,0.0,16399,579083287259343,4,41.0,-154.2728729248047,0.09780868887901306,16,0.0,0.0,1575420030,,,,0,0.0,5,-59.69,34.0,-1461.51416015625,69.47059631347656,,,P,338293119580989
Raw,1713027079417,332297412000000,18,0.0,-1396730000005342923,-0.7902164459228516,31.070892873685807,-136.72249487588638,17.17603654932611,6,42,0.0,16399,579083344421193,2,49.0,-80.83568572998047,0.08670549094676971,16,0.0,0.0,1575420030,,,,0,0.0,5,-59.69,42.0,-1461.51416015625,69.47059631347656,,,P,338293119580989
Raw,1713027079417,332297412000000,18,0.0,-1396730000005342923,-0.7902164459228516,31.070892873685807,-136.72249487588638,17.17603654932611,6,43,0.0,16399,579083342779882,2,46.5,-337.823486328125,0.08539910614490509,16,0.0,0.0,1575420030,,,,0,0.0,5,-59.69,39.5,-1461.51416015625,69.47059631347656,,,P,338293119580989
Fix,GPS,32.1687712000,34.8132738700,44.76971435546875,0.0,3.7900925,,1713027080000,1.0027264,,338293702581719,2.5,0,,,
Fix,FLP,32.1687712000,34.8132738000,47.28228379147882,0.09575685,3.9,,1713027079562,1.0027264,,338293702581719,2.4569466,0,,,
Fix,NLP,32.1688319000,34.8134070000,50.80000305175781,,15.985,,1713027079668,,,338293808000000,64.154526,0,,,
Status,1713027080000,58,0,1,2,1575420030,38.00,317.0,34.0,1,1,1,33.0
Status,1713027080000,58,1,1,3,1575420030,37.40,262.0,14.0,1,1,0,32.4
Status,1713027080000,58,2,1,8,1575420030,43.00,244.0,56.0,1,1,1,38.0
Status,1713027080000,58,3,1,10,1575420030,34.70,49.0,31.0,1,1,1,29.7
Status,1713027080000,58,4,1,21,1575420030,39.70,325.0,51.0,1,1,1,34.7
Status,1713027080000,58,5,1,27,1575420030,40.50,188.0,41.0,1,1,1,35.5
Status,1713027080000,58,6,1,28,1575420030,31.20,126.0,18.0,1,1,0,26.2
Status,1713027080000,58,7,1,32,1575420030,40.50,57.0,55.0,1,1,1,35.5
Status,1713027080000,58,8,3,6,1599750020,31.10,231.0,39.0,1,1,0,26.1
Status,1713027080000,58,9,3,5,1602562560,40.90,8.0,65.0,1,1,0,35.9
Status,1713027080000,58,10,3,20,1603124990,24.60,26.0,73.0,1,1,0,19.6
Status,1713027080000,58,11,3,19,1603687550,26.00,131.0,28.0,1,1,0,21.0
Status,1713027080000,58,12,3,21,1604249980,38.80,330.0,22.0,1,1,0,33.8
Status,1713027080000,58,13,3,4,1605374980,26.60,31.0,16.0,1,1,0,21.6
Status,1713027080000,58,14,5,60,1561097980,37.40,116.0,29.0,1,1,0,32.4
Status,1713027080000,58,15,5,44,1561097980,20.60,144.0,15.0,0,1,0,15.6
Status,1713027080000,58,16,5,43,1561097980,35.70,309.0,56.0,1,1,0,30.7
Status,1713027080000,58,17,5,42,1561097980,44.20,278.0,74.0,1,1,0,39.2
Status,1713027080000,58,18,5,34,1561097980,37.20,160.0,69.0,1,1,0,32.2
Status,1713027080000,58,19,5,33,1561097980,29.70,237.0,22.0,0,1,0,24.7
Status,1713027080000,58,20,5,21,1561097980,40.20,37.0,44.0,1,1,0,35.2
Status,1713027080000,58,21,5,16,1561097980,29.20,73.0,28.0,1,1,0,24.2
Status,1713027080000,58,22,5,14,1561097980,42.30,245.0,49.0,1,1,0,37.3
Status,1713027080000,58,23,5,13,1561097980,22.80,69.0,18.0,1,1,0,17.8
Status,1713027080000,58,24,5,12,1561097980,41.50,144.0,38.0,1,1,0,36.5
Status,1713027080000,58,25,5,11,1561097980,40.20,300.0,82.0,1,1,0,35.2
Status,1713027080000,58,26,5,9,1561097980,29.60,95.0,30.0,1,1,0,24.6
Status,1713027080000,58,27,5,6,1561097980,27.50,85.0,31.0,1,1,0,22.5
Status,1713027080000,58,28,5,5,1561097980,38.20,138.0,46.0,1,1,0,33.2
Status,1713027080000,58,29,5,2,1561097980,24.10,112.0,27.0,0,1,0,19.1
Status,1713027080000,58,30,6,4,1575420030,19.60,202.0,27.0,0,1,0,14.6
Status,1713027080000,58,31,6,10,1575420030,34.60,318.0,34.0,1,1,0,29.6
Status,1713027080000,58,32,6,12,1575420030,29.70,338.0,57.0,1,1,0,24.7
Status,1713027080000,58,33,6,19,1575420030,29.10,119.0,73.0,1,1,0,24.1
Status,1713027080000,58,34,6,24,1575420030,30.90,260.0,7.0,1,1,0,25.9
Status,1713027080000,58,35,6,33,1575420030,30.30,91.0,51.0,1,1,0,25.3
Status,1713027080000,58,36,1,3,1176450050,26.90,262.0,14.0,1,1,0,21.9
Status,1713027080000,58,37,1,8,1176450050,30.00,244.0,56.0,1,1,1,25.0
Status,1713027080000,58,38,1,10,1176450050,21.90,49.0,31.0,1,1,1,16.9
Status,1713027080000,58,39,1,27,1176450050,27.30,188.0,41.0,1,1,1,22.3
Status,1713027080000,58,40,1,28,1176450050,17.10,126.0,18.0,0,1,0,12.1
Status,1713027080000,58,41,1,32,1176450050,21.20,57.0,55.0,1,1,1,16.2
Status,1713027080000,58,42,6,10,1176450050,25.70,318.0,34.0,1,1,0,20.7
Status,1713027080000,58,43,6,12,1176450050,23.80,338.0,57.0,1,1,0,18.8
Status,1713027080000,58,44,6,24,1176450050,23.00,260.0,7.0,1,1,0,18.0
Status,1713027080000,58,45,6,33,1176450050,24.90,91.0,51.0,1,1,0,19.9
Status,1713027080000,58,46,5,21,1176450050,29.40,37.0,44.0,1,1,0,24.4
Status,1713027080000,58,47,5,33,1176450050,25.90,237.0,22.0,0,1,0,20.9
Status,1713027080000,58,48,5,34,1176450050,26.60,160.0,69.0,1,1,0,21.6
Status,1713027080000,58,49,5,39,1176450050,23.90,63.0,27.0,1,1,0,18.9
Status,1713027080000,58,50,5,42,1176450050,24.20,278.0,74.0,1,1,0,19.2
Status,1713027080000,58,51,5,43,1176450050,25.80,309.0,56.0,1,1,0,20.8
Status,1713027080000,58,52,5,21,1575420030,33.20,37.0,44.0,1,1,0,28.2
Status,1713027080000,58,53,5,33,1575420030,26.00,237.0,22.0,1,1,0,21.0
Status,1713027080000,58,54,5,34,1575420030,33.40,160.0,69.0,1,1,0,28.4
Status,1713027080000,58,55,5,39,1575420030,29.70,63.0,27.0,0,1,0,24.7
Status,1713027080000,58,56,5,42,1575420030,38.50,278.0,74.0,1,1,0,33.5
Status,1713027080000,58,57,5,43,1575420030,35.40,309.0,56.0,1,1,0,30.4
Raw,1713027080417,332298412000000,18,0.0,-1396730000005343064,-0.9638175964355469,24.969423975562677,-136.69708412843036,13.912730973709401,6,2,0.0,16399,579098340799454,11,43.0,-506.27142333984375,0.05019833892583847,16,0.0,0.0,1575420030,,,,0,0.0,1,-57.38,38.0,0.0,0.0,,,C,338294115615885
Raw,1713027080417,332298412000000,18,0.0,-1396730000005343064,-0.9638175964355469,24.969423975562677,-136.69708412843036,13.912730973709401,6,3,0.0,16399,579098337094827,12,42.4,-505.0639343261719,0.025497570633888245,16,0.0,0.0,1575420030,,,,0,0.0,1,-57.38,37.4,0.0,0.0,,,C,338294115615885
Raw,1713027080417,332298412000000,18,0.0,-1396730000005343064,-0.9638175964355469,24.969423975562677,-136.69708412843036,13.912730973709401,6,8,0.0,16399,579098346847715,6,48.0,165.32833862304688,0.03830587491393089,16,0.0,0.0,1575420030,,,,0,0.0,1,-57.38,43.0,0.0,0.0,,,C,338294115615885
Raw,1713027080417,332298412000000,18,0.0,-1396730000005343064,-0.9638175964355469,24.969423975562677,-136.69708412843036,13.912730973709401,6,10,0.0,16399,579098341326267,16,39.7,354.9705505371094,0.05640523508191109,16,0.0,0.0,1575420030,,,,0,0.0,1,-57.38,34.7,0.0,0.0,,,C,338294115615885
Raw,1713027080417,332298412000000,18,0.0,-1396730000005343064,-0.9638175964355469,24.969423975562677,-136.69708412843036,13.912730973709401,6,21,0.0,16399,579098344935914,10,44.7,-349.1448974609375,0.043399106711149216,16,0.0,0.0,1575420030,,,,0,0.0,1,-57.38,39.7,0.0,0.0,,,C,338294115615885
Raw,1713027080417,332298412000000,18,0.0,-1396730000005343064,-0.9638175964355469,24.969423975562677,-136.69708412843036,13.912730973709401,6,27,0.0,16399,579098343479793,9,45.5,533.2472534179688,0.04430919513106346,16,0.0,0.0,1575420030,,,,0,0.0,1,-57.38,40.5,0.0,0.0,,,C,338294115615885
Raw,1713027080417,332298412000000,18,0.0,-1396730000005343064,-0.9638175964355469,24.969423975562677,-136.69708412843036,13.912730973709401,6,28,0.0,16399,579098337688129,21,36.2,-511.43328857421875,0.49799999594688416,16,0.0,0.0,1575420030,,,,0,0.0,1,-57.38,31.200000000000003,0.0,0.0,,,C,338294115615885
Raw,1713027080417,332298412000000,18,0.0,-1396730000005343064,-0.9638175964355469,24.969423975562677,-136.69708412843036,13.912730973709401,6,32,0.0,16399,579098345808372,9,45.5,236.1792755126953,0.04130919650197029,16,0.0,0.0,1575420030,,,,0,0.0,1,-57.38,40.5,0.0,0.0,,,C,338294115615885
Raw,1713027080417,332298412000000,18,0.0,-1396730000005343064,-0.9638175964355469,24.969423975562677,-136.69708412843036,13.912730973709401,6,6,0.0,49359,71480347312444,21,35.1,-530.2283325195312,0.5429999828338623,16,0.0,0.0,1599750020,,,,0,0.0,3,-58.6,31.1,3782.74560546875,14.484251976013184,,,C,338294115615885
Raw,1713027080417,332298412000000,18,0.0,-1396730000005343064,-0.9638175964355469,24.969423975562677,-136.69708412843036,13.912730973709401,6,5,0.0,49359,71480352093474,9,44.9,292.19757080078125,0.030719272792339325,16,0.0,0.0,1602562560,,,,0,0.0,3,-58.6,40.9,3782.74560546875,14.484251976013184,,,C,338294115615885
Raw,1713027080417,332298412000000,18,0.0,-1396730000005343064,-0.9638175964355469,24.969423975562677,-136.69708412843036,13.912730973709401,6,20,0.0,49359,71480352631582,53,28.6,-210.87623596191406,0.9254999756813049,16,0.0,0.0,1603124990,,,,0,0.0,3,-58.6,24.6,3782.74560546875,14.484251976013184,,,C,338294115615885
Raw,1713027080417,332298412000000,18,0.0,-1396730000005343064,-0.9638175964355469,24.969423975562677,-136.69708412843036,13.912730973709401,6,19,0.0,49359,71480344093205,40,30.0,537.5911254882812,0.8075000047683716,16,0.0,0.0,1603687550,,,,0,0.0,3,-58.6,26.0,3782.74560546875,14.484251976013184,,,C,338294115615885
Raw,1713027080417,332298412000000,18,0.0,-1396730000005343064,-0.9638175964355469,24.969423975562677,-136.69708412843036,13.912730973709401,6,21,0.0,49359,71480342612802,11,42.8,-753.10107421875,0.0470779612660408,16,0.0,0.0,1604249980,,,,0,0.0,3,-58.6,38.8,3782.74560546875,14.484251976013184,,,C,338294115615885
Raw,1713027080417,332298412000000,18,0.0,-1396730000005343064,-0.9638175964355469,24.969423975562677,-136.69708412843036,13.912730973709401,6,4,0.0,49359,71480340883051,40,30.6,686.9059448242188,0.8134999871253967,16,0.0,0.0,1605374980,,,,0,0.0,3,-58.6,26.6,3782.74560546875,14.484251976013184,,,C,338294115615885
Raw,1713027080417,332298412000000,18,0.0,-1396730000005343064,-0.9638175964355469,24.969423975562677,-136.69708412843036,13.912730973709401,6,60,0.0,16399,579084288485692,12,41.7,-34.69193649291992,1.2364000082015991,16,0.0,0.0,1561097980,,,,0,0.0,5,-65.71,37.400000000000006,-1544.4593505859375,10.906549453735352,,,I,338294115615885
Raw,1713027080417,332298412000000,18,0.0,-1396730000005343064,-0.9638175964355469,24.969423975562677,-136.69708412843036,13.912730973709401,6,44,0.0,16399,579084332713800,92,24.9,562.6469116210938,2.7144999504089355,16,0.0,0.0,1561097980,,,,0,0.0,5,-65.71,20.599999999999998,-1544.4593505859375,10.906549453735352,,,I,338294115615885
Raw,1713027080417,332298412000000,18,0.0,-1396730000005343064,-0.9638175964355469,24.969423975562677,-136.69708412843036,13.912730973709401,6,43,0.0,16399,579084342781094,14,40.0,-338.23193359375,0.6262012124061584,16,0.0,0.0,1561097980,,,,0,0.0,5,-65.71,35.7,-1544.4593505859375,10.906549453735352,,,I,338294115615885
Raw,1713027080417,332298412000000,18,0.0,-1396730000005343064,-0.9638175964355469,24.969423975562677,-136.69708412843036,13.912730973709401,6,42,0.0,16399,579084344421555,6,48.5,-81.23670959472656,0.040822286158800125,16,0.0,0.0,1561097980,,,,0,0.0,5,-65.71,44.2,-1544.4593505859375,10.906549453735352,,,I,338294115615885
Raw,1713027080417,332298412000000,18,0.0,-1396730000005343064,-0.9638175964355469,24.969423975562677,-136.69708412843036,13.912730973709401,6,34,0.0,16399,579084344830668,12,41.5,201.4583282470703,0.04506635665893555,16,0.0,0.0,1561097980,,,,0,0.0,5,-65.71,37.2,-1544.4593505859375,10.906549453735352,,,I,338294115615885
Raw,1713027080417,332298412000000,18,0.0,-1396730000005343064,-0.9638175964355469,24.969423975562677,-136.69708412843036,13.912730973709401,6,33,0.0,16399,579084333730009,27,34.0,-514.6082153320312,0.5839999914169312,16,0.0,0.0,1561097980,,,,0,0.0,5,-65.71,29.7,-1544.4593505859375,10.906549453735352,,,I,338294115615885
Raw,1713027080417,332298412000000,18,0.0,-1396730000005343064,-0.9638175964355469,24.969423975562677,-136.69708412843036,13.912730973709401,6,21,0.0,16399,579084339251571,9,44.5,385.7502136230469,0.020357903093099594,16,0.0,0.0,1561097980,,,,0,0.0,5,-65.71,40.2,-1544.4593505859375,10.906549453735352,,,I,338294115615885
Raw,1713027080417,332298412000000,18,0.0,-1396730000005343064,-0.9638175964355469,24.969423975562677,-136.69708412843036,13.912730973709401,6,16,0.0,16399,579084286560896,27,33.5,-215.87158203125,0.6345000267028809,16,0.0,0.0,1561097980,,,,0,0.0,5,-65.71,29.2,-1544.4593505859375,10.906549453735352,,,I,338294115615885
Raw,1713027080417,332298412000000,18,0.0,-1396730000005343064,-0.9638175964355469,24.969423975562677,-136.69708412843036,13.912730973709401,6,14,0.0,16399,579084342123098,7,46.6,-343.36383056640625,0.04474407434463501,16,0.0,0.0,1561097980,,,,0,0.0,5,-65.71,42.300000000000004,-1544.4593505859375,10.906549453735352,,,I,338294115615885
Raw,1713027080417,332298412000000,18,0.0,-1396730000005343064,-0.9638175964355469,24.969423975562677,-136.69708412843036,13.912730973709401,6,13,0.0,16399,579084285360521,70,27.1,-25.46443748474121,1.0160000324249268,16,0.0,0.0,1561097980,,,,0,0.0,5,-65.71,22.8,-1544.4593505859375,10.906549453735352,,,I,338294115615885
Raw,1713027080417,332298412000000,18,0.0,-1396730000005343064,-0.9638175964355469,24.969423975562677,-136.69708412843036,13.912730973709401,6,12,0.0,16399,579084338881474,8,45.8,443.9925231933594,0.021243374794721603,16,0.0,0.0,1561097980,,,,0,0.0,5,-65.71,41.5,-1544.4593505859375,10.906549453735352,,,I,338294115615885
Raw,1713027080417,332298412000000,18,0.0,-1396730000005343064,-0.9638175964355469,24.969423975562677,-136.69708412843036,13.912730973709401,6,11,0.0,16399,579084345760882,9,44.5,-111.44202423095703,0.04135790467262268,16,0.0,0.0,1561097980,,,,0,0.0,5,-65.71,40.2,-1544.4593505859375,10.906549453735352,,,I,338294115615885
Raw,1713027080417,332298412000000,18,0.0,-1396730000005343064,-0.9638175964355469,24.969423975562677,-136.69708412843036,13.912730973709401,6,9,0.0,16399,579084286545140,27,33.9,-304.12335205078125,0.6345000267028809,16,0.0,0.0,1561097980,,,,0,0.0,5,-65.71,29.599999999999998,-1544.4593505859375,10.906549453735352,,,I,338294115615885
Raw,1713027080417,332298412000000,18,0.0,-1396730000005343064,-0.9638175964355469,24.969423975562677,-136.69708412843036,13.912730973709401,6,6,0.0,16399,579084288613129,35,31.8,-273.4450378417969,0.7565000057220459,16,0.0,0.0,1561097980,,,,0,0.0,5,-65.71,27.5,-1544.4593505859375,10.906549453735352,,,I,338294115615885
Raw,1713027080417,332298412000000,18,0.0,-1396730000005343064,-0.9638175964355469,24.969423975562677,-136.69708412843036,13.912730973709401,6,5,0.0,16399,579084291868457,11,42.5,-42.671173095703125,1.1806999444961548,16,0.0,0.0,1561097980,,,,0,0.0,5,-65.71,38.2,-1544.4593505859375,10.906549453735352,,,I,338294115615885
Raw,1713027080417,332298412000000,18,0.0,-1396730000005343064,-0.9638175964355469,24.969423975562677,-136.69708412843036,13.912730973709401,6,10,0.0,23567,579098331697548,16,38.9,-421.74786376953125,0.45399999618530273,16,0.0,0.0,1575420030,,,,0,0.0,6,-61.11,34.6,-1468.774169921875,13.10297966003418,,,C,338294115615885
Raw,1713027080417,332298412000000,18,0.0,-1396730000005343064,-0.9638175964355469,24.969423975562677,-136.69708412843036,13.912730973709401,6,12,0.0,23567,579098336117950,27,34.0,-289.56036376953125,0.6154999732971191,16,0.0,0.0,1575420030,,,,0,0.0,6,-61.11,29.7,-1468.774169921875,13.10297966003418,,,C,338294115615885
Raw,1713027080417,332298412000000,18,0.0,-1396730000005343064,-0.9638175964355469,24.969423975562677,-136.69708412843036,13.912730973709401,6,19,0.0,23567,579098338931127,27,33.4,-123.7860336303711,0.6585000157356262,16,0.0,0.0,1575420030,,,,0,0.0,6,-61.11,29.099999999999998,-1468.774169921875,13.10297966003418,,,C,338294115615885
Raw,1713027080417,332298412000000,18,0.0,-1396730000005343064,-0.9638175964355469,24.969423975562677,-136.69708412843036,13.912730973709401,6,24,0.0,23567,579098322885405,24,35.2,322.8141784667969,0.5684999823570251,16,0.0,0.0,1575420030,,,,0,0.0,6,-61.11,30.900000000000002,-1468.774169921875,13.10297966003418,,,C,338294115615885
Raw,1713027080417,332298412000000,18,0.0,-1396730000005343064,-0.9638175964355469,24.969423975562677,-136.69708412843036,13.912730973709401,6,33,0.0,23567,579098336145853,24,34.6,123.1295166015625,0.6154999732971191,16,0.0,0.0,1575420030,,,,0,0.0,6,-61.11,30.3,-1468.774169921875,13.10297966003418,,,C,338294115615885
Raw,1713027080417,332298412000000,18,0.0,-1396730000005343064,-0.9638175964355469,24.969423975562677,-136.69708412843036,13.912730973709401,6,3,0.0,81935,579098337102610,9,31.9,-506.5216979980469,0.7669999599456787,16,0.0,0.0,1176450050,,,,0,0.0,1,-38.97,26.9,-7861.53955078125,6.015265464782715,,,Q,338294115615885
Raw,1713027080417,332298412000000,18,0.0,-1396730000005343064,-0.9638175964355469,24.969423975562677,-136.69708412843036,13.912730973709401,6,8,0.0,81935,579098346855546,6,35.0,165.37184143066406,0.07852034270763397,16,0.0,0.0,1176450050,,,,0,0.0,1,-38.97,30.0,-7861.53955078125,6.015265464782715,,,Q,338294115615885
Raw,1713027080417,332298412000000,18,0.0,-1396730000005343064,-0.9638175964355469,24.969423975562677,-136.69708412843036,13.912730973709401,6,27,0.0,81935,579098343487639,8,32.3,533.45703125,0.6859999895095825,16,0.0,0.0,1176450050,,,,0,0.0,1,-38.97,27.299999999999997,-7861.53955078125,6.015265464782715,,,Q,338294115615885
Raw,1713027080417,332298412000000,18,0.0,-1396730000005343064,-0.9638175964355469,24.969423975562677,-136.69708412843036,13.912730973709401,6,28,0.0,81935,579098337695881,27,22.1,-511.0576171875,3.767000198364258,16,0.0,0.0,1176450050,,,,0,0.0,1,-38.97,17.1,-7861.53955078125,6.015265464782715,,,Q,338294115615885
