NMEA,$GPGSV,2,1,08,02,34,317,38,03,14,262,37,08,56,244,43,10,31,049,34,1*67,1713027078566
NMEA,$GPGSV,2,2,08,21,51,325,39,27,41,188,40,28,18,126,31,32,55,057,41,1*62,1713027078566
NMEA,$GPGSV,2,1,06,03,14,262,27,08,56,244,30,10,31,049,22,27,41,188,29,8*63,1713027078566
NMEA,$GPGSV,2,2,06,28,18,126,16,32,55,057,23,8*68,1713027078566
NMEA,$GLGSV,2,1,06,70,39,231,31,69,65,008,41,84,73,026,25,83,28,131,25,1*7D,1713027078566
NMEA,$GLGSV,2,2,06,85,22,330,39,68,16,031,23,1*73,1713027078566
NMEA,$GAGSV,2,1,06,04,27,202,20,10,34,318,35,12,57,338,29,19,73,119,29,7*73,1713027078566
NMEA,$GAGSV,2,2,06,24,07,260,31,33,51,091,32,7*7F,1713027078566
NMEA,$GAGSV,1,1,04,10,34,318,26,12,57,338,25,24,07,260,24,33,51,091,25,1*7F,1713027078566
NMEA,$GBGSV,4,1,16,60,29,116,37,44,15,144,21,43,56,309,35,42,74,278,43,1*7A,1713027078566
NMEA,$GBGSV,4,2,16,39,27,063,25,34,69,160,36,33,22,237,29,21,44,037,40,1*7E,1713027078566
NMEA,$GBGSV,4,3,16,16,28,073,29,14,49,245,42,13,18,069,24,12,38,144,41,1*77,1713027078566
NMEA,$GBGSV,4,4,16,11,82,300,39,09,30,095,30,05,46,138,38,02,27,112,24,1*72,1713027078566
NMEA,$GBGSV,2,1,06,21,44,037,35,33,22,237,25,34,69,160,34,39,27,063,31,3*71,1713027078566
NMEA,$GBGSV,2,2,06,42,74,278,38,43,56,309,36,3*7A,1713027078566
NMEA,$GBGSV,2,1,06,21,44,037,29,33,22,237,27,34,69,160,27,39,27,063,24,5*7E,1713027078566
NMEA,$GBGSV,2,2,06,42,74,278,24,43,56,309,27,5*71,1713027078566
NMEA,$GNGSA,A,3,02,03,08,10,21,27,28,32,,,,,0.7,0.4,0.5,1*32,1713027078580
NMEA,$PSSGR,GSA,A,3,03,08,10,27,32,,,,,,,,0.7,0.4,0.5,1,8*4D,1713027078580
NMEA,$GNGSA,A,3,69,70,83,84,85,,,,,,,,0.7,0.4,0.5,2*36,1713027078580
NMEA,$GNGSA,A,3,10,12,19,24,33,,,,,,,,0.7,0.4,0.5,3*39,1713027078580
NMEA,$PSSGR,GSA,A,3,310,312,324,333,,,,,,,,,0.7,0.4,0.5,3,1*4C,1713027078580
NMEA,$GNGSA,A,3,05,06,09,11,12,13,14,16,21,33,34,39,0.7,0.4,0.5,4*35,1713027078580
NMEA,$PSSGR,GSA,A,3,221,234,239,242,243,,,,,,,,0.7,0.4,0.5,4,5*76,1713027078580
NMEA,$GNVTG,,T,,M,0.0,N,0.0,K,A*3D,1713027078580
NMEA,$GNDTM,W84,,0000.000000,N,00000.000000,E,0.000,W84*41,1713027078580
NMEA,$GNRMC,165119.00,A,3210.126259,N,03448.796337,E,0.0,,130424,5.1,E,A,V*7F,1713027078580
NMEA,$GNGNS,165119.00,3210.126259,N,03448.796337,E,AAAANN,33,0.4,26.2,19.1,,,V*1D,1713027078580
NMEA,$GNGGA,165119.00,3210.126259,N,03448.796337,E,1,12,0.4,26.2,M,19.1,M,,*4E,1713027078580
NMEA,$PSMSG,magcal=PASS,bluesky=0*00,1713027078596
NMEA,$GPGSV,2,1,08,02,34,317,40,03,14,262,38,08,56,244,45,10,31,049,37,1*62,1713027079578
NMEA,$GPGSV,2,2,08,21,51,325,42,27,41,188,43,28,18,126,33,32,55,057,42,1*6C,1713027079578
NMEA,$GPGSV,2,1,06,03,14,262,32,08,56,244,33,10,31,049,22,27,41,188,32,8*6E,1713027079578
NMEA,$GPGSV,2,2,06,28,18,126,16,32,55,057,25,8*6E,1713027079578
NMEA,$GLGSV,2,1,06,70,39,231,33,69,65,008,43,84,73,026,27,83,28,131,26,1*7C,1713027079578
NMEA,$GLGSV,2,2,06,85,22,330,41,68,16,031,26,1*79,1713027079578
NMEA,$GAGSV,2,1,06,04,27,202,20,10,34,318,39,12,57,338,33,19,73,119,33,7*7F,1713027079578
NMEA,$GAGSV,2,2,06,24,07,260,35,33,51,091,35,7*7C,1713027079578
NMEA,$GAGSV,1,1,04,10,34,318,29,12,57,338,28,24,07,260,27,33,51,091,27,1*7C,1713027079578
NMEA,$GBGSV,4,1,16,60,29,116,39,44,15,144,21,43,56,309,38,42,74,278,45,1*7F,1713027079578
NMEA,$GBGSV,4,2,16,39,27,063,27,34,69,160,39,33,22,237,31,21,44,037,42,1*78,1713027079578
NMEA,$GBGSV,4,3,16,16,28,073,31,14,49,245,44,13,18,069,26,12,38,144,43,1*78,1713027079578
NMEA,$GBGSV,4,4,16,11,82,300,42,09,30,095,32,05,46,138,40,02,27,112,24,1*73,1713027079578
NMEA,$GBGSV,2,1,06,21,44,037,38,33,22,237,27,34,69,160,37,39,27,063,34,3*78,1713027079578
NMEA,$GBGSV,2,2,06,42,74,278,42,43,56,309,40,3*76,1713027079578
NMEA,$GBGSV,2,1,06,21,44,037,32,33,22,237,29,34,69,160,29,39,27,063,27,5*77,1713027079578
NMEA,$GBGSV,2,2,06,42,74,278,28,43,56,309,30,5*7B,1713027079578
NMEA,$GNGSA,A,3,02,03,08,10,21,27,28,32,,,,,0.7,0.4,0.5,1*32,1713027079596
NMEA,$PSSGR,GSA,A,3,03,08,10,27,32,,,,,,,,0.7,0.4,0.5,1,8*4D,1713027079596
NMEA,$GNGSA,A,3,68,69,70,83,84,85,,,,,,,0.7,0.4,0.5,2*38,1713027079596
NMEA,$GNGSA,A,3,10,12,19,24,33,,,,,,,,0.7,0.4,0.5,3*39,1713027079596
NMEA,$PSSGR,GSA,A,3,310,312,324,333,,,,,,,,,0.7,0.4,0.5,3,1*4C,1713027079596
NMEA,$GNGSA,A,3,05,06,09,11,12,13,14,16,21,33,34,39,0.7,0.4,0.5,4*35,1713027079596
NMEA,$PSSGR,GSA,A,3,221,234,239,242,243,,,,,,,,0.7,0.4,0.5,4,5*76,1713027079596
NMEA,$GNVTG,,T,,M,0.0,N,0.0,K,A*3D,1713027079596
NMEA,$GNDTM,W84,,0000.000000,N,00000.000000,E,0.000,W84*41,1713027079596
NMEA,$GNRMC,165120.00,A,3210.126272,N,03448.796432,E,0.0,,130424,5.1,E,A,V*7E,1713027079596
NMEA,$GNGNS,165120.00,3210.126272,N,03448.796432,E,AAAANN,34,0.4,25.7,19.1,,,V*1D,1713027079596
NMEA,$GNGGA,165120.00,3210.126272,N,03448.796432,E,1,12,0.4,25.7,M,19.1,M,,*49,1713027079596
NMEA,$PSMSG,magcal=PASS,bluesky=0*00,1713027079606
NMEA,$GPGSV,2,1,08,02,34,317,38,03,14,262,37,08,56,244,43,10,31,049,35,1*66,1713027080572
NMEA,$GPGSV,2,2,08,21,51,325,40,27,41,188,41,28,18,126,31,32,55,057,41,1*6D,1713027080572
NMEA,$GPGSV,2,1,06,03,14,262,27,08,56,244,30,10,31,049,22,27,41,188,27,8*6D,1713027080572
NMEA,$GPGSV,2,2,06,28,18,126,17,32,55,057,21,8*6B,1713027080572
NMEA,$GLGSV,2,1,06,70,39,231,31,69,65,008,41,84,73,026,25,83,28,131,26,1*7E,1713027080572
NMEA,$GLGSV,2,2,06,85,22,330,39,68,16,031,27,1*77,1713027080572
NMEA,$GAGSV,2,1,06,04,27,202,20,10,34,318,35,12,57,338,30,19,73,119,29,7*7B,1713027080572
NMEA,$GAGSV,2,2,06,24,07,260,31,33,51,091,30,7*7D,1713027080572
NMEA,$GAGSV,1,1,04,10,34,318,26,12,57,338,24,24,07,260,23,33,51,091,25,1*79,1713027080572
NMEA,$GBGSV,4,1,16,60,29,116,37,44,15,144,21,43,56,309,36,42,74,278,44,1*7E,1713027080572
NMEA,$GBGSV,4,2,16,34,69,160,37,33,22,237,30,21,44,037,40,16,28,073,29,1*78,1713027080572
NMEA,$GBGSV,4,3,16,14,49,245,42,13,18,069,23,12,38,144,42,11,82,300,40,1*7C,1713027080572
NMEA,$GBGSV,4,4,16,09,30,095,30,06,31,085,28,05,46,138,38,02,27,112,24,1*72,1713027080572
NMEA,$GBGSV,2,1,06,21,44,037,33,33,22,237,26,34,69,160,33,39,27,063,30,3*72,1713027080572
NMEA,$GBGSV,2,2,06,42,74,278,39,43,56,309,35,3*78,1713027080572
NMEA,$GBGSV,2,1,06,21,44,037,29,33,22,237,26,34,69,160,27,39,27,063,24,5*7F,1713027080572
NMEA,$GBGSV,2,2,06,42,74,278,24,43,56,309,26,5*70,1713027080572
NMEA,$GNGSA,A,3,02,03,08,10,21,27,28,32,,,,,0.7,0.4,0.5,1*32,1713027080585
NMEA,$PSSGR,GSA,A,3,03,08,10,27,32,,,,,,,,0.7,0.4,0.5,1,8*4D,1713027080585
NMEA,$GNGSA,A,3,68,69,70,83,84,85,,,,,,,0.7,0.4,0.5,2*38,1713027080585
NMEA,$GNGSA,A,3,10,12,19,24,33,,,,,,,,0.7,0.4,0.5,3*39,1713027080585
NMEA,$PSSGR,GSA,A,3,310,312,324,333,,,,,,,,,0.7,0.4,0.5,3,1*4C,1713027080585
NMEA,$GNGSA,A,3,05,06,09,11,12,13,14,16,21,33,34,39,0.7,0.4,0.5,4*35,1713027080585
NMEA,$PSSGR,GSA,A,3,221,234,239,242,243,,,,,,,,0.7,0.4,0.5,4,5*76,1713027080585
NMEA,$GNVTG,,T,,M,0.0,N,0.0,K,A*3D,1713027080585
NMEA,$GNDTM,W84,,0000.000000,N,00000.000000,E,0.000,W84*41,1713027080585
NMEA,$GNRMC,165121.00,A,3210.126271,N,03448.796525,E,0.0,,130424,5.1,E,A,V*7B,1713027080585
NMEA,$GNGNS,165121.00,3210.126271,N,03448.796525,E,AAAANN,34,0.4,25.2,19.1,,,V*1D,1713027080585
NMEA,$GNGGA,165121.00,3210.126271,N,03448.796525,E,1,12,0.4,25.2,M,19.1,M,,*49,1713027080585
NMEA,$PSMSG,magcal=PASS,bluesky=0*00,1713027080605
NMEA,$GPGSV,2,1,08,02,34,317,40,03,14,262,39,08,56,244,45,10,31,049,37,1*63,1713027081573
NMEA,$GPGSV,2,2,08,21,51,325,41,27,41,188,42,28,18,126,34,32,55,057,43,1*68,1713027081573
NMEA,$GPGSV,2,1,06,03,14,262,31,08,56,244,34,10,31,049,22,27,41,188,32,8*6A,1713027081573
NMEA,$GPGSV,2,2,06,28,18,126,20,32,55,057,23,8*6D,1713027081573
NMEA,$GLGSV,2,1,06,70,39,231,33,69,65,008,43,84,73,026,25,83,28,131,27,1*7F,1713027081573
NMEA,$GLGSV,2,2,06,85,22,330,40,68,16,031,27,1*79,1713027081573
NMEA,$GAGSV,2,1,06,04,27,202,20,10,34,318,39,12,57,338,34,19,73,119,32,7*79,1713027081573
NMEA,$GAGSV,2,2,06,24,07,260,35,33,51,091,33,7*7A,1713027081573
NMEA,$GAGSV,1,1,04,10,34,318,27,12,57,338,29,24,07,260,27,33,51,091,28,1*7C,1713027081573
NMEA,$GBGSV,4,1,15,60,29,116,39,43,56,309,36,42,74,278,46,34,69,160,39,1*72,1713027081573
NMEA,$GBGSV,4,2,15,33,22,237,30,21,44,037,42,16,28,073,32,14,49,245,44,1*73,1713027081573
NMEA,$GBGSV,4,3,15,13,18,069,25,12,38,144,43,11,82,300,43,09,30,095,30,1*73,1713027081573
NMEA,$GBGSV,4,4,15,06,31,085,30,05,46,138,40,02,27,112,24,1*42,1713027081573
NMEA,$GBGSV,2,1,06,21,44,037,38,33,22,237,29,34,69,160,37,39,27,063,32,3*70,1713027081573
NMEA,$GBGSV,2,2,06,42,74,278,43,43,56,309,38,3*78,1713027081573
NMEA,$GBGSV,2,1,06,21,44,037,31,33,22,237,29,34,69,160,29,39,27,063,26,5*75,1713027081573
NMEA,$GBGSV,2,2,06,42,74,278,27,43,56,309,30,5*74,1713027081573
NMEA,$GNGSA,A,3,02,03,08,10,21,27,28,32,,,,,0.7,0.4,0.5,1*32,1713027081583
NMEA,$PSSGR,GSA,A,3,03,08,27,32,,,,,,,,,0.7,0.4,0.5,1,8*4C,1713027081583
NMEA,$GNGSA,A,3,68,69,70,83,84,85,,,,,,,0.7,0.4,0.5,2*38,1713027081583
NMEA,$GNGSA,A,3,10,12,19,24,33,,,,,,,,0.7,0.4,0.5,3*39,1713027081583
NMEA,$PSSGR,GSA,A,3,310,312,324,333,,,,,,,,,0.7,0.4,0.5,3,1*4C,1713027081583
NMEA,$GNGSA,A,3,05,06,09,11,12,13,14,16,21,33,34,39,0.7,0.4,0.5,4*35,1713027081583
NMEA,$PSSGR,GSA,A,3,221,234,239,242,243,,,,,,,,0.7,0.4,0.5,4,5*76,1713027081583
NMEA,$GNVTG,,T,,M,0.0,N,0.0,K,A*3D,1713027081583
NMEA,$GNDTM,W84,,0000.000000,N,00000.000000,E,0.000,W84*41,1713027081583
NMEA,$GNRMC,165122.00,A,3210.126267,N,03448.796678,E,0.0,,130424,5.1,E,A,V*74,1713027081583
NMEA,$GNGNS,165122.00,3210.126267,N,03448.796678,E,AAAANN,34,0.4,24.4,19.1,,,V*15,1713027081583
NMEA,$GNGGA,165122.00,3210.126267,N,03448.796678,E,1,12,0.4,24.4,M,19.1,M,,*41,1713027081583
NMEA,$PSMSG,magcal=PASS,bluesky=0*00,1713027081590
NMEA,$GPGSV,2,1,08,02,34,317,40,03,14,262,39,08,56,244,44,10,31,049,36,1*63,1713027082578
NMEA,$GPGSV,2,2,08,21,51,325,41,27,41,188,42,28,18,126,35,32,55,057,43,1*69,1713027082578
NMEA,$GPGSV,2,1,06,03,14,262,32,08,56,244,34,10,31,049,16,27,41,188,33,8*6F,1713027082578
NMEA,$GPGSV,2,2,06,28,18,126,20,32,55,057,24,8*6A,1713027082578
NMEA,$GLGSV,2,1,06,70,39,231,33,69,65,008,43,84,73,026,27,83,28,131,28,1*72,1713027082578
NMEA,$GLGSV,2,2,06,85,22,330,40,68,16,031,27,1*79,1713027082578
NMEA,$GAGSV,2,1,06,04,27,202,20,10,34,318,40,12,57,338,33,19,73,119,34,7*76,1713027082578
NMEA,$GAGSV,2,2,06,24,07,260,37,33,51,091,35,7*7E,1713027082578
NMEA,$GAGSV,1,1,04,10,34,318,28,12,57,338,29,24,07,260,27,33,51,091,29,1*72,1713027082578
NMEA,$GBGSV,4,1,15,60,29,116,39,43,56,309,37,42,74,278,46,34,69,160,40,1*7D,1713027082578
NMEA,$GBGSV,4,2,15,33,22,237,31,21,44,037,42,16,28,073,31,14,49,245,44,1*71,1713027082578
NMEA,$GBGSV,4,3,15,13,18,069,25,12,38,144,43,11,82,300,42,09,30,095,31,1*73,1713027082578
NMEA,$GBGSV,4,4,15,06,31,085,29,05,46,138,40,02,27,112,24,1*4A,1713027082578
NMEA,$GBGSV,2,1,06,21,44,037,39,33,22,237,29,34,69,160,37,39,27,063,34,3*77,1713027082578
NMEA,$GBGSV,2,2,06,42,74,278,43,43,56,309,39,3*79,1713027082578
NMEA,$GBGSV,2,1,06,21,44,037,32,33,22,237,30,34,69,160,29,39,27,063,27,5*7F,1713027082578
NMEA,$GBGSV,2,2,06,42,74,278,29,43,56,309,31,5*7B,1713027082578
NMEA,$GNGSA,A,3,02,03,08,10,21,27,28,32,,,,,0.7,0.4,0.5,1*32,1713027082597
NMEA,$PSSGR,GSA,A,3,03,08,27,32,,,,,,,,,0.7,0.4,0.5,1,8*4C,1713027082597
NMEA,$GNGSA,A,3,68,69,70,83,84,85,,,,,,,0.7,0.4,0.5,2*38,1713027082597
NMEA,$GNGSA,A,3,10,12,19,24,33,,,,,,,,0.7,0.4,0.5,3*39,1713027082597
NMEA,$PSSGR,GSA,A,3,310,312,324,333,,,,,,,,,0.7,0.4,0.5,3,1*4C,1713027082597
NMEA,$GNGSA,A,3,05,06,09,11,12,13,14,16,21,33,34,39,0.7,0.4,0.5,4*35,1713027082597
NMEA,$PSSGR,GSA,A,3,221,234,239,242,243,,,,,,,,0.7,0.4,0.5,4,5*76,1713027082597
NMEA,$GNVTG,,T,,M,0.0,N,0.0,K,A*3D,1713027082597
NMEA,$GNDTM,W84,,0000.000000,N,00000.000000,E,0.000,W84*41,1713027082597
NMEA,$GNRMC,165123.00,A,3210.126339,N,03448.797031,E,0.0,,130424,5.1,E,A,V*75,1713027082597
NMEA,$GNGNS,165123.00,3210.126339,N,03448.797031,E,AAAANN,34,0.4,24.2,19.1,,,V*12,1713027082597
NMEA,$GNGGA,165123.00,3210.126339,N,03448.797031,E,1,12,0.4,24.2,M,19.1,M,,*46,1713027082597
NMEA,$PSMSG,magcal=PASS,bluesky=0*00,1713027082609
NMEA,$GPGSV,2,1,08,02,34,317,40,03,14,262,39,08,56,244,44,10,31,049,31,1*64,1713027083571
NMEA,$GPGSV,2,2,08,21,51,325,41,27,41,188,42,28,18,126,33,32,55,057,42,1*6E,1713027083571
NMEA,$GPGSV,2,1,06,03,14,262,31,08,56,244,34,10,31,049,23,27,41,188,31,8*68,1713027083571
NMEA,$GPGSV,2,2,06,28,18,126,20,32,55,057,24,8*6A,1713027083571
NMEA,$GLGSV,2,1,06,70,39,231,33,69,65,008,41,84,73,026,26,83,28,131,27,1*7E,1713027083571
NMEA,$GLGSV,2,2,06,85,22,330,39,68,16,031,25,1*75,1713027083571
NMEA,$GAGSV,2,1,06,04,27,202,20,10,34,318,39,12,57,338,31,19,73,119,33,7*7D,1713027083571
NMEA,$GAGSV,2,2,06,24,07,260,36,33,51,091,31,7*7B,1713027083571
NMEA,$GAGSV,1,1,04,10,34,318,31,12,57,338,29,24,07,260,28,33,51,091,27,1*7B,1713027083571
NMEA,$GBGSV,4,1,15,60,29,116,38,43,56,309,37,42,74,278,45,39,27,063,28,1*74,1713027083571
NMEA,$GBGSV,4,2,15,34,69,160,37,33,22,237,29,21,44,037,40,16,28,073,34,1*7F,1713027083571
NMEA,$GBGSV,4,3,15,14,49,245,44,13,18,069,25,12,38,144,42,11,82,300,41,1*7E,1713027083571
NMEA,$GBGSV,4,4,15,09,30,095,29,05,46,138,38,02,27,112,22,1*4C,1713027083571
NMEA,$GBGSV,2,1,06,21,44,037,36,33,22,237,28,34,69,160,37,39,27,063,32,3*7F,1713027083571
NMEA,$GBGSV,2,2,06,42,74,278,43,43,56,309,39,3*79,1713027083571
NMEA,$GBGSV,2,1,06,21,44,037,30,33,22,237,29,34,69,160,30,39,27,063,27,5*7D,1713027083571
NMEA,$GBGSV,2,2,06,42,74,278,27,43,56,309,31,5*75,1713027083571
NMEA,$GNGSA,A,3,02,03,08,10,21,27,28,32,,,,,0.6,0.4,0.5,1*33,1713027083585
NMEA,$PSSGR,GSA,A,3,03,08,10,27,32,,,,,,,,0.6,0.4,0.5,1,8*4C,1713027083585
NMEA,$GNGSA,A,3,68,69,70,83,84,85,,,,,,,0.6,0.4,0.5,2*39,1713027083585
NMEA,$GNGSA,A,3,10,12,19,24,33,,,,,,,,0.6,0.4,0.5,3*38,1713027083585
NMEA,$PSSGR,GSA,A,3,310,312,324,333,,,,,,,,,0.6,0.4,0.5,3,1*4D,1713027083585
NMEA,$GNGSA,A,3,05,06,09,11,12,13,14,16,21,33,34,39,0.6,0.4,0.5,4*34,1713027083585
NMEA,$PSSGR,GSA,A,3,221,234,239,242,243,,,,,,,,0.6,0.4,0.5,4,5*77,1713027083585
NMEA,$GNVTG,,T,,M,0.0,N,0.0,K,A*3D,1713027083585
NMEA,$GNDTM,W84,,0000.000000,N,00000.000000,E,0.000,W84*41,1713027083585
NMEA,$GNRMC,165124.00,A,3210.126413,N,03448.797117,E,0.0,,130424,5.1,E,A,V*78,1713027083585
NMEA,$GNGNS,165124.00,3210.126413,N,03448.797117,E,AAAANN,34,0.4,23.9,19.1,,,V*13,1713027083585
NMEA,$GNGGA,165124.00,3210.126413,N,03448.797117,E,1,12,0.4,23.9,M,19.1,M,,*47,1713027083585
NMEA,$PSMSG,magcal=PASS,bluesky=0*00,1713027083593
NMEA,$GPGSV,2,1,07,02,34,317,40,03,14,262,39,08,56,244,44,21,51,325,41,1*61,1713027084569
NMEA,$GPGSV,2,2,07,27,41,188,41,28,18,126,33,32,55,057,43,1*55,1713027084569
NMEA,$GPGSV,2,1,06,03,14,262,30,08,56,244,34,10,31,049,24,27,41,188,30,8*6F,1713027084569
NMEA,$GPGSV,2,2,06,28,18,126,20,32,55,057,24,8*6A,1713027084569
NMEA,$GLGSV,2,1,06,70,39,231,33,69,65,008,40,84,73,026,26,83,28,131,26,1*7E,1713027084569
NMEA,$GLGSV,2,2,06,85,22,330,39,68,16,031,23,1*73,1713027084569
NMEA,$GAGSV,2,1,06,04,27,202,17,10,34,318,38,12,57,338,30,19,73,119,32,7*78,1713027084569
NMEA,$GAGSV,2,2,06,24,07,260,36,33,51,091,26,7*7D,1713027084569
NMEA,$GAGSV,1,1,04,10,34,318,31,12,57,338,29,24,07,260,27,33,51,091,25,1*76,1713027084569
NMEA,$GBGSV,4,1,15,60,29,116,36,43,56,309,37,42,74,278,45,39,27,063,29,1*7B,1713027084569
NMEA,$GBGSV,4,2,15,34,69,160,37,33,22,237,30,21,44,037,40,16,28,073,35,1*76,1713027084569
NMEA,$GBGSV,4,3,15,14,49,245,44,13,18,069,25,12,38,144,41,11,82,300,41,1*7D,1713027084569
NMEA,$GBGSV,4,4,15,09,30,095,26,05,46,138,37,02,27,112,22,1*4C,1713027084569
NMEA,$GBGSV,2,1,06,21,44,037,36,33,22,237,28,34,69,160,35,39,27,063,30,3*7F,1713027084569
NMEA,$GBGSV,2,2,06,42,74,278,42,43,56,309,38,3*79,1713027084569
NMEA,$GBGSV,2,1,06,21,44,037,29,33,22,237,29,34,69,160,28,39,27,063,27,5*7C,1713027084569
NMEA,$GBGSV,2,2,06,42,74,278,26,43,56,309,31,5*74,1713027084569
NMEA,$GNGSA,A,3,02,03,08,10,21,27,28,32,,,,,0.6,0.4,0.5,1*33,1713027084585
NMEA,$PSSGR,GSA,A,3,03,08,10,27,32,,,,,,,,0.6,0.4,0.5,1,8*4C,1713027084585
NMEA,$GNGSA,A,3,68,69,70,83,84,85,,,,,,,0.6,0.4,0.5,2*39,1713027084585
NMEA,$GNGSA,A,3,10,12,19,24,33,,,,,,,,0.6,0.4,0.5,3*38,1713027084585
NMEA,$PSSGR,GSA,A,3,310,312,324,333,,,,,,,,,0.6,0.4,0.5,3,1*4D,1713027084585
NMEA,$GNGSA,A,3,05,06,09,11,12,13,14,16,21,33,34,39,0.6,0.4,0.5,4*34,1713027084585
NMEA,$PSSGR,GSA,A,3,221,234,239,242,243,,,,,,,,0.6,0.4,0.5,4,5*77,1713027084585
NMEA,$GNVTG,,T,,M,0.0,N,0.0,K,A*3D,1713027084585
NMEA,$GNDTM,W84,,0000.000000,N,00000.000000,E,0.000,W84*41,1713027084585
NMEA,$GNRMC,165125.00,A,3210.126480,N,03448.797141,E,0.0,,130424,5.1,E,A,V*70,1713027084585
NMEA,$GNGNS,165125.00,3210.126480,N,03448.797141,E,AAAANN,34,0.4,24.0,19.1,,,V*15,1713027084585
NMEA,$GNGGA,165125.00,3210.126480,N,03448.797141,E,1,12,0.4,24.0,M,19.1,M,,*41,1713027084585
NMEA,$PSMSG,magcal=PASS,bluesky=0*00,1713027084594
NMEA,$GPGSV,2,1,07,02,34,317,40,03,14,262,39,08,56,244,44,21,51,325,41,1*61,1713027085568
NMEA,$GPGSV,2,2,07,27,41,188,40,28,18,126,32,32,55,057,43,1*55,1713027085568
NMEA,$GPGSV,2,1,06,03,14,262,31,08,56,244,34,10,31,049,23,27,41,188,31,8*68,1713027085568
NMEA,$GPGSV,2,2,06,28,18,126,18,32,55,057,24,8*61,1713027085568
NMEA,$GLGSV,2,1,06,70,39,231,33,69,65,008,40,84,73,026,24,83,28,131,26,1*7C,1713027085568
NMEA,$GLGSV,2,2,06,85,22,330,38,68,16,031,24,1*75,1713027085568
NMEA,$GAGSV,2,1,06,04,27,202,17,10,34,318,39,12,57,338,30,19,73,119,32,7*79,1713027085568
NMEA,$GAGSV,2,2,06,24,07,260,36,33,51,091,27,7*7C,1713027085568
NMEA,$GAGSV,1,1,04,10,34,318,31,12,57,338,29,24,07,260,26,33,51,091,24,1*76,1713027085568
NMEA,$GBGSV,4,1,15,60,29,116,37,43,56,309,37,42,74,278,45,39,27,063,28,1*7B,1713027085568
NMEA,$GBGSV,4,2,15,34,69,160,37,33,22,237,28,21,44,037,40,16,28,073,35,1*7F,1713027085568
NMEA,$GBGSV,4,3,15,14,49,245,44,13,18,069,25,12,38,144,40,11,82,300,41,1*7C,1713027085568
NMEA,$GBGSV,4,4,15,09,30,095,24,05,46,138,37,02,27,112,22,1*4E,1713027085568
NMEA,$GBGSV,2,1,06,21,44,037,37,33,22,237,28,34,69,160,34,39,27,063,29,3*77,1713027085568
NMEA,$GBGSV,2,2,06,42,74,278,42,43,56,309,39,3*78,1713027085568
NMEA,$GBGSV,2,1,06,21,44,037,29,33,22,237,30,34,69,160,29,39,27,063,27,5*75,1713027085568
NMEA,$GBGSV,2,2,06,42,74,278,25,43,56,309,31,5*77,1713027085568
NMEA,$GNGSA,A,3,02,03,08,10,21,27,28,32,,,,,0.6,0.4,0.5,1*33,1713027085587
NMEA,$PSSGR,GSA,A,3,03,08,10,27,28,32,,,,,,,0.6,0.4,0.5,1,8*46,1713027085587
NMEA,$GNGSA,A,3,68,69,70,83,84,85,,,,,,,0.6,0.4,0.5,2*39,1713027085587
NMEA,$GNGSA,A,3,10,12,19,24,33,,,,,,,,0.6,0.4,0.5,3*38,1713027085587
NMEA,$PSSGR,GSA,A,3,310,312,324,333,,,,,,,,,0.6,0.4,0.5,3,1*4D,1713027085587
NMEA,$GNGSA,A,3,05,06,09,11,12,14,16,21,33,34,39,42,0.6,0.4,0.5,4*30,1713027085587
NMEA,$PSSGR,GSA,A,3,221,234,239,242,243,,,,,,,,0.6,0.4,0.5,4,5*77,1713027085587
NMEA,$GNVTG,,T,,M,0.0,N,0.0,K,A*3D,1713027085587
NMEA,$GNDTM,W84,,0000.000000,N,00000.000000,E,0.000,W84*41,1713027085587
NMEA,$GNRMC,165126.00,A,3210.126590,N,03448.797077,E,0.0,,130424,5.1,E,A,V*77,1713027085587
NMEA,$GNGNS,165126.00,3210.126590,N,03448.797077,E,AAAANN,33,0.4,23.8,19.1,,,V*1A,1713027085587
NMEA,$GNGGA,165126.00,3210.126590,N,03448.797077,E,1,12,0.4,23.8,M,19.1,M,,*49,1713027085587
NMEA,$PSMSG,magcal=PASS,bluesky=0*00,1713027085593
NMEA,$GPGSV,2,1,07,02,34,317,41,03,14,262,40,08,56,244,45,21,51,325,42,1*6C,1713027086566
NMEA,$GPGSV,2,2,07,27,41,188,41,28,18,126,33,32,55,057,43,1*55,1713027086566
NMEA,$GPGSV,2,1,06,03,14,262,31,08,56,244,34,10,31,049,24,27,41,188,31,8*6F,1713027086566
NMEA,$GPGSV,2,2,06,28,18,126,18,32,55,057,26,8*63,1713027086566
NMEA,$GLGSV,2,1,06,70,39,231,33,69,65,008,40,84,73,026,26,83,28,131,24,1*7C,1713027086566
NMEA,$GLGSV,2,2,06,85,22,330,39,68,16,031,23,1*73,1713027086566
NMEA,$GAGSV,2,1,06,04,27,202,22,10,34,318,39,12,57,338,30,19,73,119,33,7*7E,1713027086566
NMEA,$GAGSV,2,2,06,24,07,260,37,33,51,091,29,7*73,1713027086566
NMEA,$GAGSV,1,1,04,10,34,318,33,12,57,338,31,24,07,260,27,33,51,091,24,1*7C,1713027086566
NMEA,$GBGSV,4,1,15,60,29,116,37,43,56,309,38,42,74,278,45,39,27,063,31,1*7C,1713027086566
NMEA,$GBGSV,4,2,15,34,69,160,37,33,22,237,28,21,44,037,41,16,28,073,35,1*7E,1713027086566
NMEA,$GBGSV,4,3,15,14,49,245,44,13,18,069,25,12,38,144,41,11,82,300,41,1*7D,1713027086566
NMEA,$GBGSV,4,4,15,09,30,095,29,05,46,138,37,02,27,112,22,1*43,1713027086566
NMEA,$GBGSV,2,1,06,21,44,037,37,33,22,237,28,34,69,160,35,39,27,063,31,3*7F,1713027086566
NMEA,$GBGSV,2,2,06,42,74,278,41,43,56,309,40,3*75,1713027086566
NMEA,$GBGSV,2,1,06,21,44,037,30,33,22,237,30,34,69,160,29,39,27,063,27,5*7D,1713027086566
NMEA,$GBGSV,2,2,06,42,74,278,27,43,56,309,32,5*76,1713027086566
NMEA,$GNGSA,A,3,02,03,08,10,21,27,28,32,,,,,0.6,0.4,0.5,1*33,1713027086578
NMEA,$PSSGR,GSA,A,3,03,08,10,27,28,32,,,,,,,0.6,0.4,0.5,1,8*46,1713027086578
NMEA,$GNGSA,A,3,68,69,70,83,84,85,,,,,,,0.6,0.4,0.5,2*39,1713027086578
NMEA,$GNGSA,A,3,10,12,19,24,33,,,,,,,,0.6,0.4,0.5,3*38,1713027086578
NMEA,$PSSGR,GSA,A,3,310,312,324,333,,,,,,,,,0.6,0.4,0.5,3,1*4D,1713027086578
NMEA,$GNGSA,A,3,05,06,09,11,12,14,16,21,33,34,39,42,0.6,0.4,0.5,4*30,1713027086578
NMEA,$PSSGR,GSA,A,3,221,234,239,242,243,,,,,,,,0.6,0.4,0.5,4,5*77,1713027086578
NMEA,$GNVTG,,T,,M,0.0,N,0.0,K,A*3D,1713027086578
NMEA,$GNDTM,W84,,0000.000000,N,00000.000000,E,0.000,W84*41,1713027086578
NMEA,$GNRMC,165127.00,A,3210.126640,N,03448.797012,E,0.0,,130424,5.1,E,A,V*7B,1713027086578
NMEA,$GNGNS,165127.00,3210.126640,N,03448.797012,E,AAAANN,33,0.4,24.1,19.1,,,V*18,1713027086578
NMEA,$GNGGA,165127.00,3210.126640,N,03448.797012,E,1,12,0.4,24.1,M,19.1,M,,*4B,1713027086578
NMEA,$PSMSG,magcal=PASS,bluesky=0*00,1713027086585
NMEA,$GPGSV,2,1,07,02,34,317,40,03,14,262,40,08,56,244,45,21,51,325,41,1*6E,1713027087571
NMEA,$GPGSV,2,2,07,27,41,188,41,28,18,126,32,32,55,057,41,1*56,1713027087571
NMEA,$GPGSV,2,1,06,03,14,262,30,08,56,244,32,10,31,049,22,27,41,188,30,8*6F,1713027087571
NMEA,$GPGSV,2,2,06,28,18,126,20,32,55,057,26,8*68,1713027087571
NMEA,$GLGSV,2,1,06,70,39,231,34,69,65,008,39,84,73,026,25,83,28,131,24,1*76,1713027087571
NMEA,$GLGSV,2,2,06,85,22,330,39,68,16,031,23,1*73,1713027087571
NMEA,$GAGSV,2,1,06,04,27,202,22,10,34,318,36,12,57,338,29,19,73,119,31,7*7B,1713027087571
NMEA,$GAGSV,2,2,06,24,07,260,34,33,51,091,27,7*7E,1713027087571
NMEA,$GAGSV,1,1,04,10,34,318,32,12,57,338,28,24,07,260,26,33,51,091,24,1*74,1713027087571
NMEA,$GBGSV,4,1,15,60,29,116,37,43,56,309,38,42,74,278,44,39,27,063,30,1*7C,1713027087571
NMEA,$GBGSV,4,2,15,34,69,160,37,33,22,237,26,21,44,037,42,16,28,073,35,1*73,1713027087571
NMEA,$GBGSV,4,3,15,14,49,245,44,13,18,069,25,12,38,144,41,11,82,300,41,1*7D,1713027087571
NMEA,$GBGSV,4,4,15,09,30,095,29,05,46,138,37,02,27,112,22,1*43,1713027087571
NMEA,$GBGSV,2,1,06,21,44,037,36,33,22,237,27,34,69,160,34,39,27,063,30,3*71,1713027087571
NMEA,$GBGSV,2,2,06,42,74,278,40,43,56,309,40,3*74,1713027087571
NMEA,$GBGSV,2,1,06,21,44,037,28,33,22,237,29,34,69,160,27,39,27,063,26,5*73,1713027087571
NMEA,$GBGSV,2,2,06,42,74,278,25,43,56,309,30,5*76,1713027087571
NMEA,$GNGSA,A,3,02,03,08,10,21,27,28,32,,,,,0.7,0.4,0.5,1*32,1713027087598
NMEA,$PSSGR,GSA,A,3,03,08,10,27,28,32,,,,,,,0.7,0.4,0.5,1,8*47,1713027087598
NMEA,$GNGSA,A,3,68,69,70,83,84,85,,,,,,,0.7,0.4,0.5,2*38,1713027087598
NMEA,$GNGSA,A,3,10,12,19,24,33,,,,,,,,0.7,0.4,0.5,3*39,1713027087598
NMEA,$PSSGR,GSA,A,3,310,312,324,333,,,,,,,,,0.7,0.4,0.5,3,1*4C,1713027087598
NMEA,$GNGSA,A,3,05,06,09,11,12,14,16,21,33,34,39,42,0.7,0.4,0.5,4*31,1713027087598
NMEA,$PSSGR,GSA,A,3,221,234,239,242,243,,,,,,,,0.7,0.4,0.5,4,5*76,1713027087598
NMEA,$GNVTG,,T,,M,0.0,N,0.0,K,A*3D,1713027087598
NMEA,$GNDTM,W84,,0000.000000,N,00000.000000,E,0.000,W84*41,1713027087598
NMEA,$GNRMC,165128.00,A,3210.126683,N,03448.796959,E,0.0,,130424,5.1,E,A,V*7C,1713027087598
NMEA,$GNGNS,165128.00,3210.126683,N,03448.796959,E,AAAANN,33,0.4,24.3,19.1,,,V*1D,1713027087598
NMEA,$GNGGA,165128.00,3210.126683,N,03448.796959,E,1,12,0.4,24.3,M,19.1,M,,*4E,1713027087598
NMEA,$PSMSG,magcal=PASS,bluesky=0*00,1713027087602
NMEA,$GPGSV,2,1,08,02,34,317,39,03,14,262,38,08,56,244,43,10,31,049,29,1*65,1713027088567
NMEA,$GPGSV,2,2,08,21,51,325,39,27,41,188,39,28,18,126,31,32,55,057,40,1*6D,1713027088567
NMEA,$GPGSV,2,1,06,03,14,262,29,08,56,244,32,10,31,049,23,27,41,188,29,8*6E,1713027088567
NMEA,$GPGSV,2,2,06,28,18,126,20,32,55,057,24,8*6A,1713027088567
NMEA,$GLGSV,2,1,06,70,39,231,31,69,65,008,39,84,73,026,26,83,28,131,22,1*76,1713027088567
NMEA,$GLGSV,2,2,06,85,22,330,38,68,16,031,22,1*73,1713027088567
NMEA,$GAGSV,2,1,06,04,27,202,22,10,34,318,35,12,57,338,27,19,73,119,28,7*7E,1713027088567
NMEA,$GAGSV,2,2,06,24,07,260,33,33,51,091,28,7*76,1713027088567
NMEA,$GAGSV,1,1,04,10,34,318,30,12,57,338,28,24,07,260,26,33,51,091,24,1*76,1713027088567
NMEA,$GBGSV,4,1,15,60,29,116,36,43,56,309,36,42,74,278,43,39,27,063,28,1*7D,1713027088567
NMEA,$GBGSV,4,2,15,34,69,160,35,33,22,237,26,21,44,037,40,16,28,073,34,1*72,1713027088567
NMEA,$GBGSV,4,3,15,14,49,245,41,13,18,069,25,12,38,144,40,11,82,300,39,1*76,1713027088567
NMEA,$GBGSV,4,4,15,09,30,095,28,05,46,138,36,02,27,112,22,1*43,1713027088567
NMEA,$GBGSV,2,1,06,21,44,037,35,33,22,237,25,34,69,160,32,39,27,063,28,3*7F,1713027088567
NMEA,$GBGSV,2,2,06,42,74,278,38,43,56,309,37,3*7B,1713027088567
NMEA,$GBGSV,2,1,06,21,44,037,27,33,22,237,29,34,69,160,28,39,27,063,26,5*73,1713027088567
NMEA,$GBGSV,2,2,06,42,74,278,24,43,56,309,30,5*77,1713027088567
NMEA,$GNGSA,A,3,02,03,08,10,21,27,28,32,,,,,0.7,0.4,0.5,1*32,1713027088582
NMEA,$PSSGR,GSA,A,3,03,08,10,27,28,32,,,,,,,0.7,0.4,0.5,1,8*47,1713027088582
NMEA,$GNGSA,A,3,68,69,70,83,84,85,,,,,,,0.7,0.4,0.5,2*38,1713027088582
NMEA,$GNGSA,A,3,10,12,19,24,33,,,,,,,,0.7,0.4,0.5,3*39,1713027088582
NMEA,$PSSGR,GSA,A,3,310,312,324,333,,,,,,,,,0.7,0.4,0.5,3,1*4C,1713027088582
NMEA,$GNGSA,A,3,05,09,11,12,14,16,21,33,34,39,42,43,0.7,0.4,0.5,4*30,1713027088582
NMEA,$PSSGR,GSA,A,3,221,234,239,242,243,,,,,,,,0.7,0.4,0.5,4,5*76,1713027088582
NMEA,$GNVTG,,T,,M,0.0,N,0.0,K,A*3D,1713027088582
NMEA,$GNDTM,W84,,0000.000000,N,00000.000000,E,0.000,W84*41,1713027088582
NMEA,$GNRMC,165129.00,A,3210.126711,N,03448.796982,E,0.0,,130424,5.1,E,A,V*71,1713027088582
NMEA,$GNGNS,165129.00,3210.126711,N,03448.796982,E,AAAANN,32,0.4,23.8,19.1,,,V*1D,1713027088582
NMEA,$GNGGA,165129.00,3210.126711,N,03448.796982,E,1,12,0.4,23.8,M,19.1,M,,*4F,1713027088582
NMEA,$PSMSG,magcal=PASS,bluesky=0*00,1713027088586
NMEA,$GPGSV,2,1,08,02,34,317,39,03,14,262,38,08,56,244,43,10,31,049,29,1*65,1713027089572
NMEA,$GPGSV,2,2,08,21,51,325,40,27,41,188,39,28,18,126,31,32,55,057,40,1*63,1713027089572
NMEA,$GPGSV,2,1,06,03,14,262,29,08,56,244,31,10,31,049,21,27,41,188,27,8*61,1713027089572
NMEA,$GPGSV,2,2,06,28,18,126,20,32,55,057,21,8*6F,1713027089572
NMEA,$GLGSV,2,1,06,70,39,231,32,69,65,008,39,84,73,026,23,83,28,131,24,1*76,1713027089572
NMEA,$GLGSV,2,2,06,85,22,330,38,68,16,031,22,1*73,1713027089572
NMEA,$GAGSV,2,1,06,04,27,202,22,10,34,318,34,12,57,338,27,19,73,119,28,7*7F,1713027089572
NMEA,$GAGSV,2,2,06,24,07,260,32,33,51,091,26,7*79,1713027089572
NMEA,$GAGSV,1,1,04,10,34,318,30,12,57,338,27,24,07,260,24,33,51,091,23,1*7C,1713027089572
NMEA,$GBGSV,4,1,15,60,29,116,36,43,56,309,36,42,74,278,43,39,27,063,29,1*7C,1713027089572
NMEA,$GBGSV,4,2,15,34,69,160,35,33,22,237,26,21,44,037,41,16,28,073,34,1*73,1713027089572
NMEA,$GBGSV,4,3,15,14,49,245,43,13,18,069,25,12,38,144,40,11,82,300,39,1*74,1713027089572
NMEA,$GBGSV,4,4,15,09,30,095,29,05,46,138,36,02,27,112,22,1*42,1713027089572
NMEA,$GBGSV,2,1,06,21,44,037,34,33,22,237,25,34,69,160,32,39,27,063,27,3*71,1713027089572
NMEA,$GBGSV,2,2,06,42,74,278,36,43,56,309,36,3*74,1713027089572
NMEA,$GBGSV,2,1,06,21,44,037,25,33,22,237,27,34,69,160,27,39,27,063,25,5*73,1713027089572
NMEA,$GBGSV,2,2,06,42,74,278,22,43,56,309,30,5*71,1713027089572
NMEA,$GNGSA,A,3,02,03,08,10,21,27,28,32,,,,,0.7,0.4,0.5,1*32,1713027089592
NMEA,$PSSGR,GSA,A,3,03,08,10,27,28,32,,,,,,,0.7,0.4,0.5,1,8*47,1713027089592
NMEA,$GNGSA,A,3,69,70,83,84,85,,,,,,,,0.7,0.4,0.5,2*36,1713027089592
NMEA,$GNGSA,A,3,10,12,19,24,33,,,,,,,,0.7,0.4,0.5,3*39,1713027089592
NMEA,$PSSGR,GSA,A,3,310,312,324,333,,,,,,,,,0.7,0.4,0.5,3,1*4C,1713027089592
NMEA,$GNGSA,A,3,05,09,11,12,14,16,21,33,34,39,42,43,0.7,0.4,0.5,4*30,1713027089592
NMEA,$PSSGR,GSA,A,3,221,234,239,242,243,,,,,,,,0.7,0.4,0.5,4,5*76,1713027089592
NMEA,$GNVTG,,T,,M,0.0,N,0.0,K,A*3D,1713027089592
NMEA,$GNDTM,W84,,0000.000000,N,00000.000000,E,0.000,W84*41,1713027089592
NMEA,$GNRMC,165130.00,A,3210.126724,N,03448.796923,E,0.0,,130424,5.1,E,A,V*74,1713027089592
NMEA,$GNGNS,165130.00,3210.126724,N,03448.796923,E,AAAANN,31,0.4,23.6,19.1,,,V*15,1713027089592
NMEA,$GNGGA,165130.00,3210.126724,N,03448.796923,E,1,12,0.4,23.6,M,19.1,M,,*44,1713027089592
NMEA,$PSMSG,magcal=PASS,bluesky=0*00,1713027089597
NMEA,$GPGSV,2,1,08,02,34,317,39,03,14,262,38,08,56,244,43,10,31,049,29,1*65,1713027090566
NMEA,$GPGSV,2,2,08,21,51,325,39,27,41,188,38,28,18,126,32,32,55,057,40,1*6F,1713027090566
NMEA,$GPGSV,2,1,06,03,14,262,30,08,56,244,32,10,31,049,24,27,41,188,30,8*69,1713027090566
NMEA,$GPGSV,2,2,06,28,18,126,17,32,55,057,24,8*6E,1713027090566
NMEA,$GLGSV,2,1,06,70,39,231,31,69,65,008,38,84,73,026,23,83,28,131,24,1*74,1713027090566
NMEA,$GLGSV,2,2,06,85,22,330,38,68,16,031,22,1*73,1713027090566
NMEA,$GAGSV,2,1,06,04,27,202,22,10,34,318,35,12,57,338,29,19,73,119,29,7*71,1713027090566
NMEA,$GAGSV,2,2,06,24,07,260,34,33,51,091,27,7*7E,1713027090566
NMEA,$GAGSV,1,1,04,10,34,318,30,12,57,338,28,24,07,260,25,33,51,091,22,1*73,1713027090566
NMEA,$GBGSV,4,1,15,60,29,116,35,43,56,309,36,42,74,278,43,39,27,063,29,1*7F,1713027090566
NMEA,$GBGSV,4,2,15,34,69,160,35,33,22,237,26,21,44,037,41,16,28,073,34,1*73,1713027090566
NMEA,$GBGSV,4,3,15,14,49,245,43,13,18,069,25,12,38,144,39,11,82,300,39,1*7A,1713027090566
NMEA,$GBGSV,4,4,15,09,30,095,29,05,46,138,36,02,27,112,22,1*42,1713027090566
NMEA,$GBGSV,2,1,06,21,44,037,36,33,22,237,26,34,69,160,32,39,27,063,28,3*7F,1713027090566
NMEA,$GBGSV,2,2,06,42,74,278,38,43,56,309,37,3*7B,1713027090566
NMEA,$GBGSV,2,1,06,21,44,037,28,33,22,237,29,34,69,160,28,39,27,063,26,5*7C,1713027090566
NMEA,$GBGSV,2,2,06,42,74,278,25,43,56,309,31,5*77,1713027090566
NMEA,$GNGSA,A,3,02,03,08,10,21,27,28,32,,,,,0.7,0.4,0.5,1*32,1713027090578
NMEA,$PSSGR,GSA,A,3,03,08,10,27,28,32,,,,,,,0.7,0.4,0.5,1,8*47,1713027090578
NMEA,$GNGSA,A,3,69,70,83,84,85,,,,,,,,0.7,0.4,0.5,2*36,1713027090578
NMEA,$GNGSA,A,3,10,12,19,24,33,,,,,,,,0.7,0.4,0.5,3*39,1713027090578
NMEA,$PSSGR,GSA,A,3,310,312,324,333,,,,,,,,,0.7,0.4,0.5,3,1*4C,1713027090578
NMEA,$GNGSA,A,3,05,09,11,12,14,16,21,33,34,39,42,43,0.7,0.4,0.5,4*30,1713027090578
NMEA,$PSSGR,GSA,A,3,221,234,239,242,243,,,,,,,,0.7,0.4,0.5,4,5*76,1713027090578
NMEA,$GNVTG,,T,,M,0.0,N,0.0,K,A*3D,1713027090578
NMEA,$GNDTM,W84,,0000.000000,N,00000.000000,E,0.000,W84*41,1713027090578
NMEA,$GNRMC,165131.00,A,3210.126739,N,03448.796891,E,0.0,,130424,5.1,E,A,V*71,1713027090578
NMEA,$GNGNS,165131.00,3210.126739,N,03448.796891,E,AAAANN,31,0.4,23.5,19.1,,,V*13,1713027090578
NMEA,$GNGGA,165131.00,3210.126739,N,03448.796891,E,1,12,0.4,23.5,M,19.1,M,,*42,1713027090578
NMEA,$PSMSG,magcal=PASS,bluesky=0*00,1713027090581
NMEA,$GPGSV,2,1,08,02,34,317,41,03,14,262,40,08,56,244,44,10,31,049,31,1*6B,1713027091581
NMEA,$GPGSV,2,2,08,21,51,325,41,27,41,188,40,28,18,126,34,32,55,057,41,1*68,1713027091581
NMEA,$GPGSV,2,1,06,03,14,262,32,08,56,244,34,10,31,049,26,27,41,188,31,8*6E,1713027091581
NMEA,$GPGSV,2,2,06,28,18,126,21,32,55,057,26,8*69,1713027091581
NMEA,$GLGSV,2,1,06,70,39,231,33,69,65,008,40,84,73,026,26,83,28,131,23,1*7B,1713027091581
NMEA,$GLGSV,2,2,06,85,22,330,40,68,16,031,21,1*7F,1713027091581
NMEA,$GAGSV,2,1,06,04,27,202,18,10,34,318,38,12,57,338,30,19,73,119,31,7*74,1713027091581
NMEA,$GAGSV,2,2,06,24,07,260,36,33,51,091,30,7*7A,1713027091581
NMEA,$GAGSV,1,1,04,10,34,318,33,12,57,338,30,24,07,260,27,33,51,091,24,1*7D,1713027091581
NMEA,$GBGSV,4,1,15,60,29,116,37,43,56,309,37,42,74,278,45,39,27,063,29,1*7A,1713027091581
NMEA,$GBGSV,4,2,15,34,69,160,37,33,22,237,29,21,44,037,43,16,28,073,36,1*7E,1713027091581
NMEA,$GBGSV,4,3,15,14,49,245,44,13,18,069,25,12,38,144,41,11,82,300,41,1*7D,1713027091581
NMEA,$GBGSV,4,4,15,09,30,095,30,05,46,138,38,02,27,112,22,1*44,1713027091581
NMEA,$GBGSV,2,1,06,21,44,037,38,33,22,237,28,34,69,160,35,39,27,063,30,3*71,1713027091581
NMEA,$GBGSV,2,2,06,42,74,278,41,43,56,309,39,3*7B,1713027091581
NMEA,$GBGSV,2,1,06,21,44,037,29,33,22,237,30,34,69,160,30,39,27,063,27,5*7D,1713027091581
NMEA,$GBGSV,2,2,06,42,74,278,25,43,56,309,31,5*77,1713027091581
NMEA,$GNGSA,A,3,02,03,08,10,21,27,28,32,,,,,0.7,0.4,0.5,1*32,1713027091601
NMEA,$PSSGR,GSA,A,3,03,08,10,27,28,32,,,,,,,0.7,0.4,0.5,1,8*47,1713027091601
NMEA,$GNGSA,A,3,69,70,84,85,,,,,,,,,0.7,0.4,0.5,2*3D,1713027091601
NMEA,$GNGSA,A,3,10,12,19,24,33,,,,,,,,0.7,0.4,0.5,3*39,1713027091601
NMEA,$PSSGR,GSA,A,3,310,312,324,333,,,,,,,,,0.7,0.4,0.5,3,1*4C,1713027091601
NMEA,$GNGSA,A,3,05,09,11,12,14,16,21,33,34,39,42,43,0.7,0.4,0.5,4*30,1713027091601
NMEA,$PSSGR,GSA,A,3,221,234,239,242,243,,,,,,,,0.7,0.4,0.5,4,5*76,1713027091601
NMEA,$GNVTG,,T,,M,0.0,N,0.0,K,A*3D,1713027091601
NMEA,$GNDTM,W84,,0000.000000,N,00000.000000,E,0.000,W84*41,1713027091601
NMEA,$GNRMC,165132.00,A,3210.126761,N,03448.796804,E,0.0,,130424,5.1,E,A,V*73,1713027091601
NMEA,$GNGNS,165132.00,3210.126761,N,03448.796804,E,AAAANN,30,0.4,23.6,19.1,,,V*13,1713027091601
NMEA,$GNGGA,165132.00,3210.126761,N,03448.796804,E,1,12,0.4,23.6,M,19.1,M,,*43,1713027091601
NMEA,$PSMSG,magcal=PASS,bluesky=0*00,1713027091612
NMEA,$GPGSV,2,1,08,02,34,317,41,03,14,262,40,08,56,244,45,10,31,049,29,1*63,1713027092578
NMEA,$GPGSV,2,2,08,21,51,325,40,27,41,188,40,28,18,126,33,32,55,057,39,1*61,1713027092578
NMEA,$GPGSV,2,1,06,03,14,262,31,08,56,244,33,10,31,049,24,27,41,188,31,8*68,1713027092578
NMEA,$GPGSV,2,2,06,28,18,126,21,32,55,057,26,8*69,1713027092578
NMEA,$GLGSV,2,1,06,70,39,231,33,69,65,008,39,84,73,026,25,83,28,131,23,1*76,1713027092578
NMEA,$GLGSV,2,2,06,85,22,330,39,68,16,031,24,1*74,1713027092578
NMEA,$GAGSV,2,1,06,04,27,202,23,10,34,318,38,12,57,338,30,19,73,119,31,7*7C,1713027092578
NMEA,$GAGSV,2,2,06,24,07,260,37,33,51,091,29,7*73,1713027092578
NMEA,$GAGSV,1,1,04,10,34,318,33,12,57,338,30,24,07,260,27,33,51,091,24,1*7D,1713027092578
NMEA,$GBGSV,4,1,14,60,29,116,37,43,56,309,38,42,74,278,45,39,27,063,30,1*7C,1713027092578
NMEA,$GBGSV,4,2,14,34,69,160,37,33,22,237,28,21,44,037,41,16,28,073,35,1*7F,1713027092578
NMEA,$GBGSV,4,3,14,14,49,245,44,13,18,069,25,12,38,144,41,11,82,300,40,1*7D,1713027092578
NMEA,$GBGSV,4,4,14,09,30,095,30,05,46,138,38,1*70,1713027092578
NMEA,$GBGSV,2,1,06,21,44,037,37,33,22,237,28,34,69,160,35,39,27,063,31,3*7F,1713027092578
NMEA,$GBGSV,2,2,06,42,74,278,40,43,56,309,39,3*7A,1713027092578
NMEA,$GBGSV,2,1,06,21,44,037,29,33,22,237,30,34,69,160,29,39,27,063,26,5*74,1713027092578
NMEA,$GBGSV,2,2,06,42,74,278,26,43,56,309,31,5*74,1713027092578
NMEA,$GNGSA,A,3,02,03,08,10,21,27,28,32,,,,,0.7,0.4,0.5,1*32,1713027092593
NMEA,$PSSGR,GSA,A,3,03,08,10,27,28,32,,,,,,,0.7,0.4,0.5,1,8*47,1713027092593
NMEA,$GNGSA,A,3,69,70,84,85,,,,,,,,,0.7,0.4,0.5,2*3D,1713027092593
NMEA,$GNGSA,A,3,10,12,19,24,33,,,,,,,,0.7,0.4,0.5,3*39,1713027092593
NMEA,$PSSGR,GSA,A,3,310,312,324,333,,,,,,,,,0.7,0.4,0.5,3,1*4C,1713027092593
NMEA,$GNGSA,A,3,05,09,11,12,14,16,21,33,34,39,42,43,0.7,0.4,0.5,4*30,1713027092593
NMEA,$PSSGR,GSA,A,3,221,234,239,242,243,,,,,,,,0.7,0.4,0.5,4,5*76,1713027092593
NMEA,$GNVTG,,T,,M,0.0,N,0.0,K,A*3D,1713027092593
NMEA,$GNDTM,W84,,0000.000000,N,00000.000000,E,0.000,W84*41,1713027092593
NMEA,$GNRMC,165133.00,A,3210.126763,N,03448.796859,E,0.0,,130424,5.1,E,A,V*78,1713027092593
NMEA,$GNGNS,165133.00,3210.126763,N,03448.796859,E,AAAANN,30,0.4,23.6,19.1,,,V*18,1713027092593
NMEA,$GNGGA,165133.00,3210.126763,N,03448.796859,E,1,12,0.4,23.6,M,19.1,M,,*48,1713027092593
NMEA,$PSMSG,magcal=PASS,bluesky=0*00,1713027092600
NMEA,$GPGSV,2,1,07,02,34,317,42,03,14,262,40,08,56,244,45,21,51,325,39,1*63,1713027093570
NMEA,$GPGSV,2,2,07,27,41,188,40,28,18,126,32,32,55,057,37,1*56,1713027093570
NMEA,$GPGSV,2,1,06,03,14,262,31,08,56,244,33,10,31,049,24,27,41,188,31,8*68,1713027093570
NMEA,$GPGSV,2,2,06,28,18,126,21,32,55,057,26,8*69,1713027093570
NMEA,$GLGSV,2,1,06,70,39,231,33,69,65,008,39,84,73,026,26,83,28,131,23,1*75,1713027093570
NMEA,$GLGSV,2,2,06,85,22,330,40,68,16,031,24,1*7A,1713027093570
NMEA,$GAGSV,2,1,06,04,27,202,24,10,34,318,38,12,57,338,29,19,73,119,31,7*73,1713027093570
NMEA,$GAGSV,2,2,06,24,07,260,35,33,51,091,29,7*71,1713027093570
NMEA,$GAGSV,1,1,04,10,34,318,31,12,57,338,30,24,07,260,27,33,51,091,25,1*7E,1713027093570
NMEA,$GBGSV,4,1,14,60,29,116,37,43,56,309,38,42,74,278,44,39,27,063,29,1*75,1713027093570
NMEA,$GBGSV,4,2,14,34,69,160,36,33,22,237,27,21,44,037,40,16,28,073,33,1*76,1713027093570
NMEA,$GBGSV,4,3,14,14,49,245,43,13,18,069,25,12,38,144,40,11,82,300,39,1*75,1713027093570
NMEA,$GBGSV,4,4,14,09,30,095,29,05,46,138,37,1*77,1713027093570
NMEA,$GBGSV,2,1,06,21,44,037,34,33,22,237,28,34,69,160,35,39,27,063,31,3*7C,1713027093570
NMEA,$GBGSV,2,2,06,42,74,278,39,43,56,309,40,3*7A,1713027093570
NMEA,$GBGSV,2,1,06,21,44,037,29,33,22,237,30,34,69,160,29,39,27,063,26,5*74,1713027093570
NMEA,$GBGSV,2,2,06,42,74,278,24,43,56,309,31,5*76,1713027093570
NMEA,$GNGSA,A,3,02,03,08,10,21,27,28,32,,,,,0.7,0.4,0.5,1*32,1713027093586
NMEA,$PSSGR,GSA,A,3,03,08,10,27,28,32,,,,,,,0.7,0.4,0.5,1,8*47,1713027093586
NMEA,$GNGSA,A,3,69,70,84,85,,,,,,,,,0.7,0.4,0.5,2*3D,1713027093586
NMEA,$GNGSA,A,3,10,12,19,24,33,,,,,,,,0.7,0.4,0.5,3*39,1713027093586
NMEA,$PSSGR,GSA,A,3,310,312,324,333,,,,,,,,,0.7,0.4,0.5,3,1*4C,1713027093586
NMEA,$GNGSA,A,3,05,09,11,12,14,16,21,33,34,39,42,43,0.7,0.4,0.5,4*30,1713027093586
NMEA,$PSSGR,GSA,A,3,221,234,239,242,243,,,,,,,,0.7,0.4,0.5,4,5*76,1713027093586
NMEA,$GNVTG,,T,,M,0.0,N,0.0,K,A*3D,1713027093586
NMEA,$GNDTM,W84,,0000.000000,N,00000.000000,E,0.000,W84*41,1713027093586
NMEA,$GNRMC,165134.00,A,3210.126742,N,03448.796885,E,0.0,,130424,5.1,E,A,V*7D,1713027093586
NMEA,$GNGNS,165134.00,3210.126742,N,03448.796885,E,AAAANN,30,0.4,23.7,19.1,,,V*1C,1713027093586
NMEA,$GNGGA,165134.00,3210.126742,N,03448.796885,E,1,12,0.4,23.7,M,19.1,M,,*4C,1713027093586
NMEA,$PSMSG,magcal=PASS,bluesky=0*00,1713027093601
NMEA,$GPGSV,2,1,07,02,34,317,41,03,14,262,39,08,56,244,44,21,51,325,39,1*6F,1713027094572
NMEA,$GPGSV,2,2,07,27,41,188,39,28,18,126,32,32,55,057,37,1*58,1713027094572
NMEA,$GPGSV,2,1,06,03,14,262,31,08,56,244,33,10,31,049,22,27,41,188,30,8*6F,1713027094572
NMEA,$GPGSV,2,2,06,28,18,126,18,32,55,057,25,8*60,1713027094572
NMEA,$GLGSV,2,1,06,70,39,231,33,69,65,008,38,84,73,026,25,83,28,131,20,1*74,1713027094572
NMEA,$GLGSV,2,2,06,85,22,330,40,68,16,031,24,1*7A,1713027094572
NMEA,$GAGSV,2,1,06,04,27,202,27,10,34,318,38,12,57,338,27,19,73,119,30,7*7F,1713027094572
NMEA,$GAGSV,2,2,06,24,07,260,35,33,51,091,27,7*7F,1713027094572
NMEA,$GAGSV,1,1,04,10,34,318,31,12,57,338,29,24,07,260,27,33,51,091,24,1*77,1713027094572
NMEA,$GBGSV,4,1,13,60,29,116,36,43,56,309,38,42,74,278,43,39,27,063,29,1*74,1713027094572
NMEA,$GBGSV,4,2,13,34,69,160,36,33,22,237,26,21,44,037,39,16,28,073,33,1*7E,1713027094572
NMEA,$GBGSV,4,3,13,14,49,245,42,12,38,144,40,11,82,300,39,09,30,095,29,1*7D,1713027094572
NMEA,$GBGSV,4,4,13,05,46,138,36,1*4C,1713027094572
NMEA,$GBGSV,2,1,06,21,44,037,32,33,22,237,28,34,69,160,34,39,27,063,31,3*7B,1713027094572
NMEA,$GBGSV,2,2,06,42,74,278,39,43,56,309,38,3*75,1713027094572
NMEA,$GBGSV,2,1,06,21,44,037,29,33,22,237,30,34,69,160,29,39,27,063,26,5*74,1713027094572
NMEA,$GBGSV,2,2,06,42,74,278,23,43,56,309,30,5*70,1713027094572
NMEA,$GNGSA,A,3,02,03,08,10,21,27,28,32,,,,,0.7,0.4,0.5,1*32,1713027094594
NMEA,$PSSGR,GSA,A,3,03,08,10,27,28,32,,,,,,,0.7,0.4,0.5,1,8*47,1713027094594
NMEA,$GNGSA,A,3,69,70,84,85,,,,,,,,,0.7,0.4,0.5,2*3D,1713027094594
NMEA,$GNGSA,A,3,04,10,12,19,24,33,,,,,,,0.7,0.4,0.5,3*3D,1713027094594
NMEA,$PSSGR,GSA,A,3,310,312,324,333,,,,,,,,,0.7,0.4,0.5,3,1*4C,1713027094594
NMEA,$GNGSA,A,3,05,09,11,12,14,16,21,33,34,39,42,43,0.7,0.4,0.5,4*30,1713027094594
NMEA,$PSSGR,GSA,A,3,221,234,239,242,243,,,,,,,,0.7,0.4,0.5,4,5*76,1713027094594
NMEA,$GNVTG,,T,,M,0.0,N,0.0,K,A*3D,1713027094594
NMEA,$GNDTM,W84,,0000.000000,N,00000.000000,E,0.000,W84*41,1713027094594
NMEA,$GNRMC,165135.00,A,3210.126759,N,03448.796889,E,0.0,,130424,5.1,E,A,V*7A,1713027094594
NMEA,$GNGNS,165135.00,3210.126759,N,03448.796889,E,AAAANN,31,0.4,23.8,19.1,,,V*15,1713027094594
NMEA,$GNGGA,165135.00,3210.126759,N,03448.796889,E,1,12,0.4,23.8,M,19.1,M,,*44,1713027094594
NMEA,$PSMSG,magcal=PASS,bluesky=0*00,1713027094598
NMEA,$GPGSV,2,1,07,02,34,317,41,03,14,262,39,08,56,244,44,21,51,325,38,1*6E,1713027095573
NMEA,$GPGSV,2,2,07,27,41,188,39,28,18,126,30,32,55,057,35,1*58,1713027095573
NMEA,$GPGSV,2,1,06,03,14,262,30,08,56,244,32,10,31,049,22,27,41,188,30,8*6F,1713027095573
NMEA,$GPGSV,2,2,06,28,18,126,18,32,55,057,25,8*60,1713027095573
NMEA,$GLGSV,2,1,06,70,39,231,32,69,65,008,38,84,73,026,25,83,28,131,20,1*75,1713027095573
NMEA,$GLGSV,2,2,06,85,22,330,39,68,16,031,24,1*74,1713027095573
NMEA,$GAGSV,2,1,06,04,27,202,25,10,34,318,36,12,57,338,26,19,73,119,29,7*7A,1713027095573
NMEA,$GAGSV,2,2,06,24,07,260,33,33,51,091,27,7*79,1713027095573
NMEA,$GAGSV,1,1,04,10,34,318,30,12,57,338,28,24,07,260,25,33,51,091,24,1*75,1713027095573
NMEA,$GBGSV,4,1,13,60,29,116,36,43,56,309,38,42,74,278,43,39,27,063,30,1*7C,1713027095573
NMEA,$GBGSV,4,2,13,34,69,160,35,33,22,237,26,21,44,037,39,16,28,073,32,1*7C,1713027095573
NMEA,$GBGSV,4,3,13,14,49,245,42,12,38,144,40,11,82,300,38,09,30,095,30,1*74,1713027095573
NMEA,$GBGSV,4,4,13,05,46,138,36,1*4C,1713027095573
NMEA,$GBGSV,2,1,06,21,44,037,31,33,22,237,25,34,69,160,32,39,27,063,30,3*72,1713027095573
NMEA,$GBGSV,2,2,06,42,74,278,37,43,56,309,38,3*7B,1713027095573
NMEA,$GBGSV,2,1,06,21,44,037,28,33,22,237,30,34,69,160,29,39,27,063,25,5*76,1713027095573
NMEA,$GBGSV,2,2,06,42,74,278,24,43,56,309,29,5*7F,1713027095573
NMEA,$GNGSA,A,3,02,03,08,10,21,27,28,32,,,,,0.7,0.4,0.5,1*32,1713027095589
NMEA,$PSSGR,GSA,A,3,03,08,10,27,28,32,,,,,,,0.7,0.4,0.5,1,8*47,1713027095589
NMEA,$GNGSA,A,3,69,70,84,85,,,,,,,,,0.7,0.4,0.5,2*3D,1713027095589
NMEA,$GNGSA,A,3,04,10,12,19,24,33,,,,,,,0.7,0.4,0.5,3*3D,1713027095589
NMEA,$PSSGR,GSA,A,3,310,312,324,333,,,,,,,,,0.7,0.4,0.5,3,1*4C,1713027095589
NMEA,$GNGSA,A,3,05,09,11,12,14,16,21,33,34,39,42,43,0.7,0.4,0.5,4*30,1713027095589
NMEA,$PSSGR,GSA,A,3,221,234,239,242,243,,,,,,,,0.7,0.4,0.5,4,5*76,1713027095589
NMEA,$GNVTG,,T,,M,0.0,N,0.0,K,A*3D,1713027095589
NMEA,$GNDTM,W84,,0000.000000,N,00000.000000,E,0.000,W84*41,1713027095589
NMEA,$GNRMC,165136.00,A,3210.126744,N,03448.796939,E,0.0,,130424,5.1,E,A,V*7F,1713027095589
NMEA,$GNGNS,165136.00,3210.126744,N,03448.796939,E,AAAANN,31,0.4,23.8,19.1,,,V*10,1713027095589
NMEA,$GNGGA,165136.00,3210.126744,N,03448.796939,E,1,12,0.4,23.8,M,19.1,M,,*41,1713027095589
NMEA,$PSMSG,magcal=PASS,bluesky=0*00,1713027095596
NMEA,$GPGSV,2,1,08,02,34,317,42,03,14,262,40,08,56,244,44,10,31,049,32,1*6B,1713027096577
NMEA,$GPGSV,2,2,08,21,51,325,41,27,41,188,40,28,18,126,34,32,55,057,39,1*67,1713027096577
NMEA,$GPGSV,2,1,06,03,14,262,31,08,56,244,34,10,31,049,22,27,41,188,31,8*69,1713027096577
NMEA,$GPGSV,2,2,06,28,18,126,18,32,55,057,25,8*60,1713027096577
NMEA,$GLGSV,2,1,06,70,39,231,33,69,65,008,40,84,73,026,27,83,28,131,23,1*7A,1713027096577
NMEA,$GLGSV,2,2,06,85,22,330,41,68,16,031,19,1*75,1713027096577
NMEA,$GAGSV,2,1,06,04,27,202,27,10,34,318,38,12,57,338,31,19,73,119,31,7*79,1713027096577
NMEA,$GAGSV,2,2,06,24,07,260,36,33,51,091,32,7*78,1713027096577
NMEA,$GAGSV,1,1,04,10,34,318,31,12,57,338,30,24,07,260,27,33,51,091,26,1*7D,1713027096577
NMEA,$GBGSV,4,1,14,60,29,116,38,43,56,309,37,42,74,278,46,39,27,063,30,1*7F,1713027096577
NMEA,$GBGSV,4,2,14,34,69,160,39,33,22,237,31,21,44,037,42,16,28,073,33,1*7C,1713027096577
NMEA,$GBGSV,4,3,14,14,49,245,43,13,18,069,25,12,38,144,42,11,82,300,41,1*78,1713027096577
NMEA,$GBGSV,4,4,14,09,30,095,31,05,46,138,39,1*70,1713027096577
NMEA,$GBGSV,2,1,06,21,44,037,38,33,22,237,28,34,69,160,36,39,27,063,33,3*71,1713027096577
NMEA,$GBGSV,2,2,06,42,74,278,41,43,56,309,39,3*7B,1713027096577
NMEA,$GBGSV,2,1,06,21,44,037,30,33,22,237,30,34,69,160,29,39,27,063,27,5*7D,1713027096577
NMEA,$GBGSV,2,2,06,42,74,278,26,43,56,309,32,5*77,1713027096577
NMEA,$GNGSA,A,3,02,03,08,10,21,27,28,32,,,,,0.7,0.4,0.5,1*32,1713027096599
NMEA,$PSSGR,GSA,A,3,03,08,10,27,28,32,,,,,,,0.7,0.4,0.5,1,8*47,1713027096599
NMEA,$GNGSA,A,3,69,70,84,85,,,,,,,,,0.7,0.4,0.5,2*3D,1713027096599
NMEA,$GNGSA,A,3,04,10,12,19,24,33,,,,,,,0.7,0.4,0.5,3*3D,1713027096599
NMEA,$PSSGR,GSA,A,3,310,312,324,333,,,,,,,,,0.7,0.4,0.5,3,1*4C,1713027096599
NMEA,$GNGSA,A,3,05,09,11,12,14,16,21,33,34,39,42,43,0.7,0.4,0.5,4*30,1713027096599
NMEA,$PSSGR,GSA,A,3,221,234,239,242,243,,,,,,,,0.7,0.4,0.5,4,5*76,1713027096599
NMEA,$GNVTG,,T,,M,0.0,N,0.0,K,A*3D,1713027096599
NMEA,$GNDTM,W84,,0000.000000,N,00000.000000,E,0.000,W84*41,1713027096599
NMEA,$GNRMC,165137.00,A,3210.126684,N,03448.796989,E,0.0,,130424,5.1,E,A,V*78,1713027096599
NMEA,$GNGNS,165137.00,3210.126684,N,03448.796989,E,AAAANN,31,0.4,23.9,19.1,,,V*16,1713027096599
NMEA,$GNGGA,165137.00,3210.126684,N,03448.796989,E,1,12,0.4,23.9,M,19.1,M,,*47,1713027096599
NMEA,$PSMSG,magcal=PASS,bluesky=0*00,1713027096612
NMEA,$GPGSV,2,1,08,02,34,317,43,03,14,262,41,08,56,244,45,10,31,049,33,1*6B,1713027097573
NMEA,$GPGSV,2,2,08,21,51,325,41,27,41,188,40,28,18,126,35,32,55,057,39,1*66,1713027097573
NMEA,$GPGSV,2,1,06,03,14,262,31,08,56,244,35,10,31,049,21,27,41,188,32,8*68,1713027097573
NMEA,$GPGSV,2,2,06,28,18,126,20,32,55,057,25,8*6B,1713027097573
NMEA,$GLGSV,2,1,06,70,39,231,33,69,65,008,40,84,73,026,27,83,28,131,27,1*7E,1713027097573
NMEA,$GLGSV,2,2,06,85,22,330,41,68,16,031,24,1*7B,1713027097573
NMEA,$GAGSV,2,1,06,04,27,202,30,10,34,318,40,12,57,338,33,19,73,119,33,7*70,1713027097573
NMEA,$GAGSV,2,2,06,24,07,260,37,33,51,091,35,7*7E,1713027097573
NMEA,$GAGSV,1,1,04,10,34,318,30,12,57,338,30,24,07,260,27,33,51,091,28,1*72,1713027097573
NMEA,$GBGSV,4,1,14,60,29,116,39,43,56,309,36,42,74,278,47,39,27,063,31,1*7F,1713027097573
NMEA,$GBGSV,4,2,14,34,69,160,41,33,22,237,34,21,44,037,44,16,28,073,30,1*73,1713027097573
NMEA,$GBGSV,4,3,14,14,49,245,44,13,18,069,27,12,38,144,43,11,82,300,42,1*7F,1713027097573
NMEA,$GBGSV,4,4,14,09,30,095,33,05,46,138,39,1*72,1713027097573
NMEA,$GBGSV,2,1,06,21,44,037,41,33,22,237,30,34,69,160,37,39,27,063,36,3*72,1713027097573
NMEA,$GBGSV,2,2,06,42,74,278,43,43,56,309,40,3*77,1713027097573
NMEA,$GBGSV,2,1,06,21,44,037,32,33,22,237,30,34,69,160,30,39,27,063,26,5*76,1713027097573
NMEA,$GBGSV,2,2,06,42,74,278,28,43,56,309,32,5*79,1713027097573
NMEA,$GNGSA,A,3,02,03,08,10,21,27,28,32,,,,,0.7,0.4,0.5,1*32,1713027097593
NMEA,$PSSGR,GSA,A,3,03,08,10,27,32,,,,,,,,0.7,0.4,0.5,1,8*4D,1713027097593
NMEA,$GNGSA,A,3,69,70,83,84,85,,,,,,,,0.7,0.4,0.5,2*36,1713027097593
NMEA,$GNGSA,A,3,04,10,12,19,24,33,,,,,,,0.7,0.4,0.5,3*3D,1713027097593
NMEA,$PSSGR,GSA,A,3,310,312,324,333,,,,,,,,,0.7,0.4,0.5,3,1*4C,1713027097593
NMEA,$GNGSA,A,3,05,09,11,12,13,14,16,21,33,34,39,42,0.7,0.4,0.5,4*35,1713027097593
NMEA,$PSSGR,GSA,A,3,221,234,239,242,243,,,,,,,,0.7,0.4,0.5,4,5*76,1713027097593
NMEA,$GNVTG,,T,,M,0.0,N,0.0,K,A*3D,1713027097593
NMEA,$GNDTM,W84,,0000.000000,N,00000.000000,E,0.000,W84*41,1713027097593
NMEA,$GNRMC,165138.00,A,3210.126685,N,03448.797126,E,0.0,,130424,5.1,E,A,V*7A,1713027097593
NMEA,$GNGNS,165138.00,3210.126685,N,03448.797126,E,AAAANN,33,0.4,24.2,19.1,,,V*1A,1713027097593
NMEA,$GNGGA,165138.00,3210.126685,N,03448.797126,E,1,12,0.4,24.2,M,19.1,M,,*49,1713027097593
NMEA,$PSMSG,magcal=PASS,bluesky=0*00,1713027097611
